time,x,y,z,yaw,throttle,roll_rate,pitch_rate,yaw_rate,x_ref,y_ref,z_ref,yaw_ref,mpc_time,ctrl_callback_time_history,metadata
3.0994415283203125e-06,0.027321048080921173,-0.14622923731803894,-0.23901714384555817,0.0700535471009666,-0.5910143608080501,0.7999999937276746,0.20650202816547616,-0.45074152510858295,0.0,0.0,-0.6,0.0,0.01981973648071289,0.02533125877380371,Hardware
0.026981353759765625,0.027321048080921173,-0.14622923731803894,-0.23901714384555817,0.0700535471009666,-0.5910143608080501,0.7999999937276746,0.20650202816547616,-0.45074152510858295,0.0,0.0,-0.6,0.0,0.0014088153839111328,0.006391286849975586,1x Speed
0.03718066215515137,0.02728588506579399,-0.14625298976898193,-0.23901429772377014,0.07001077580625702,-0.5909353762156279,0.7999999897560176,0.2081036929479756,-0.45040909557342923,0.0,0.0,-0.6,0.0,0.007897377014160156,0.012688159942626953,Horizon:3.0
0.052408695220947266,0.027263682335615158,-0.14625981450080872,-0.2390020489692688,0.07004302227110398,-0.5910643105446045,0.7999999933135975,0.20279460689118486,-0.4505958358759346,0.0,0.0,-0.6,0.0,0.007422208786010742,0.013116598129272461,Num Steps:20
0.06759428977966309,0.027263682335615158,-0.14625981450080872,-0.2390020489692688,0.07004302227110398,-0.5910643105446045,0.7999999933135975,0.20279460689118486,-0.4505958358759346,0.0,0.0,-0.6,0.0,0.001172780990600586,0.0054361820220947266,No Pyjoules
0.07646679878234863,0.027245068922638893,-0.14625613391399384,-0.23901872336864471,0.06992958528805993,-0.5897014969854718,0.7999999958215901,0.2005548716456477,-0.44987670513483075,0.0,0.0,-0.6,0.0,0.007935285568237305,0.012342691421508789,0
0.09070467948913574,0.027245068922638893,-0.14625613391399384,-0.23901872336864471,0.06992958528805993,-0.5897014969854718,0.7999999958215901,0.2005548716456477,-0.44987670513483075,0.0,0.0,-0.6,0.0,0.0011518001556396484,0.005601406097412109,0
0.09992480278015137,0.027282854542136192,-0.1462712287902832,-0.2391529530286789,0.06816539723261812,-0.589876009410729,0.7999999963035833,0.2106052942087592,-0.43870584615424135,0.0,0.0,-0.6,0.0,0.008217334747314453,0.012421369552612305,0
0.11374282836914062,0.027282854542136192,-0.1462712287902832,-0.2391529530286789,0.06816539723261812,-0.589876009410729,0.7999999963035833,0.2106052942087592,-0.43870584615424135,0.0,0.0,-0.6,0.0,0.0016024112701416016,0.007340908050537109,0
0.12482380867004395,0.02719946764409542,-0.1462264060974121,-0.23935477435588837,0.06817878236182895,-0.5885509920470474,0.7999999653928932,0.18186397790833797,-0.43799799618309054,0.0,0.0,-0.6,0.0,0.009744644165039062,0.01454019546508789,0
0.1411449909210205,0.02719946764409542,-0.1462264060974121,-0.23935477435588837,0.06817878236182895,-0.5885509920470474,0.7999999653928932,0.18186397790833797,-0.43799799618309054,0.0,0.0,-0.6,0.0,0.001844167709350586,0.00606226921081543,0
0.15054702758789062,0.026756586506962776,-0.1456308215856552,-0.24003836512565613,0.06838440988553562,-0.5843195814981715,0.74554637763565,0.08504098662806571,-0.4372076782233025,0.0,0.0,-0.6,0.0,0.009449481964111328,0.014879941940307617,0
0.16734790802001953,0.026756586506962776,-0.1456308215856552,-0.24003836512565613,0.06838440988553562,-0.5843195814981715,0.74554637763565,0.08504098662806571,-0.4372076782233025,0.0,0.0,-0.6,0.0,0.0012044906616210938,0.005120277404785156,0
0.17618250846862793,0.026281477883458138,-0.14469589293003082,-0.24115703999996185,0.06765465057204299,-0.579634632461958,0.5828005599244181,0.06531132993002645,-0.43258353331340865,0.0,0.0,-0.6,0.0,0.010105609893798828,0.014503955841064453,0
0.19194483757019043,0.026281477883458138,-0.14469589293003082,-0.24115703999996185,0.06765465057204299,-0.579634632461958,0.5828005599244181,0.06531132993002645,-0.43258353331340865,0.0,0.0,-0.6,0.0,0.0011560916900634766,0.005559682846069336,0
0.20082569122314453,0.02561075985431671,-0.14254364371299744,-0.24426572024822235,0.06524829717329556,-0.5665139487816341,0.34424436840311695,0.04110268541646108,-0.4171021861086997,0.0,0.0,-0.6,0.0,0.011598587036132812,0.016254425048828125,0
0.21926236152648926,0.02561075985431671,-0.14254364371299744,-0.24426572024822235,0.06524829717329556,-0.5665139487816341,0.34424436840311695,0.04110268541646108,-0.4171021861086997,0.0,0.0,-0.6,0.0,0.0013680458068847656,0.006841897964477539,0
0.22868728637695312,0.025084223598241806,-0.14074259996414185,-0.24716155230998993,0.06299139311305887,-0.5617412129762608,0.11370236155756852,0.05554727590211504,-0.402538719496902,0.0,0.0,-0.6,0.0,0.008585929870605469,0.013396501541137695,0
0.24538755416870117,0.024526294320821762,-0.13871479034423828,-0.2508547604084015,0.0606447630665772,-0.5586376913513649,-0.12050713992006107,0.04614691720911105,-0.3874484745329263,0.0,0.0,-0.6,0.0,0.007932901382446289,0.013058900833129883,0
0.26008009910583496,0.024526294320821762,-0.13871479034423828,-0.2508547604084015,0.0606447630665772,-0.5586376913513649,-0.12050713992006107,0.04614691720911105,-0.3874484745329263,0.0,0.0,-0.6,0.0,0.001619577407836914,0.006253957748413086,0
0.27170777320861816,0.023622114211320877,-0.1352906972169876,-0.2579912543296814,0.05670107171330313,-0.5424868078572972,-0.3803221738961442,0.05745429276628878,-0.3620245637698265,0.0,0.0,-0.6,0.0,0.007404327392578125,0.011801719665527344,0
0.2858700752258301,0.023622114211320877,-0.1352906972169876,-0.2579912543296814,0.05670107171330313,-0.5424868078572972,-0.3803221738961442,0.05745429276628878,-0.3620245637698265,0.0,0.0,-0.6,0.0,0.0013990402221679688,0.0063610076904296875,0
0.29431867599487305,0.022990800440311432,-0.13277924060821533,-0.263826459646225,0.053606941502728406,-0.5356509041337975,-0.5553229531774109,0.0172374861907607,-0.34238917403290153,0.0,0.0,-0.6,0.0,0.008220195770263672,0.012858152389526367,0
0.30960607528686523,0.022990800440311432,-0.13277924060821533,-0.263826459646225,0.053606941502728406,-0.5356509041337975,-0.5553229531774109,0.0172374861907607,-0.34238917403290153,0.0,0.0,-0.6,0.0,0.0012187957763671875,0.005427122116088867,0
0.318129301071167,0.02190760150551796,-0.12837852537631989,-0.27389809489250183,0.048905113394329,-0.5273308302470172,-0.7999999999999142,-0.02129854205325594,-0.31238365212659547,0.0,0.0,-0.6,0.0,0.010970354080200195,0.015046358108520508,0
0.3353700637817383,0.02190760150551796,-0.12837852537631989,-0.27389809489250183,0.048905113394329,-0.5273308302470172,-0.7999999999999142,-0.02129854205325594,-0.31238365212659547,0.0,0.0,-0.6,0.0,0.0014307498931884766,0.006087541580200195,0
0.34487128257751465,0.021060632541775703,-0.12517191469669342,-0.2813624441623688,0.04600688408193558,-0.5178925226453986,-0.7999999999999975,-0.06070732582206866,-0.2943520137028159,0.0,0.0,-0.6,0.0,0.010678768157958984,0.01547384262084961,0
0.3621811866760254,0.021060632541775703,-0.12517191469669342,-0.2813624441623688,0.04600688408193558,-0.5178925226453986,-0.7999999999999975,-0.06070732582206866,-0.2943520137028159,0.0,0.0,-0.6,0.0,0.00146484375,0.00630640983581543,0
0.37236452102661133,0.019622137770056725,-0.12011636793613434,-0.29344481229782104,0.041604550666784236,-0.5091793318257828,-0.7999999999988283,-0.09461673953641785,-0.26671020640144927,0.0,0.0,-0.6,0.0,0.009057998657226562,0.013418197631835938,0
0.38810181617736816,0.019622137770056725,-0.12011636793613434,-0.29344481229782104,0.041604550666784236,-0.5091793318257828,-0.7999999999988283,-0.09461673953641785,-0.26671020640144927,0.0,0.0,-0.6,0.0,0.0010981559753417969,0.006201982498168945,0
0.39710307121276855,0.01864161714911461,-0.11658638715744019,-0.30195698142051697,0.03845730432281647,-0.5045761535006117,-0.7999995860918993,-0.13778204417323522,-0.24726570622395114,0.0,0.0,-0.6,0.0,0.008298397064208984,0.012593269348144531,0
0.41152405738830566,0.01864161714911461,-0.11658638715744019,-0.30195698142051697,0.03845730432281647,-0.5045761535006117,-0.7999995860918993,-0.13778204417323522,-0.24726570622395114,0.0,0.0,-0.6,0.0,0.0011792182922363281,0.005620002746582031,0
0.42064738273620605,0.01714157685637474,-0.11091809719800949,-0.3150004744529724,0.033828887286185334,-0.49961465220192447,-0.7999999000338125,-0.1759408130812862,-0.2179885135673381,0.0,0.0,-0.6,0.0,0.00778651237487793,0.012574195861816406,0
0.43514513969421387,0.01714157685637474,-0.11091809719800949,-0.3150004744529724,0.033828887286185334,-0.49961465220192447,-0.7999999000338125,-0.1759408130812862,-0.2179885135673381,0.0,0.0,-0.6,0.0,0.0013093948364257812,0.0062944889068603516,0
0.4441797733306885,0.016132891178131104,-0.1068476140499115,-0.3239242732524872,0.030841772009647467,-0.49671690260919255,-0.7999993147641125,-0.20384820667465234,-0.19907726224126673,0.0,0.0,-0.6,0.0,0.007443428039550781,0.013007402420043945,0
0.4593801498413086,0.016132891178131104,-0.1068476140499115,-0.3239242732524872,0.030841772009647467,-0.49671690260919255,-0.7999993147641125,-0.20384820667465234,-0.19907726224126673,0.0,0.0,-0.6,0.0,0.001310586929321289,0.0064084529876708984,0
0.46846795082092285,0.015026249922811985,-0.10252688080072403,-0.3326251208782196,0.02788557269726487,-0.4970794537087161,-0.7999993627266022,-0.21260191521115285,-0.180289120466574,0.0,0.0,-0.6,0.0,0.009477853775024414,0.014396905899047852,0
0.486133337020874,0.015026249922811985,-0.10252688080072403,-0.3326251208782196,0.02788557269726487,-0.4970794537087161,-0.7999993627266022,-0.21260191521115285,-0.180289120466574,0.0,0.0,-0.6,0.0,0.0016052722930908203,0.005960941314697266,0
0.4949162006378174,0.013309881091117859,-0.09578362107276917,-0.3455349802970886,0.023392110408819,-0.4951691709477878,-0.7999999999787542,-0.1981213359804606,-0.15093275538738335,0.0,0.0,-0.6,0.0,0.00809025764465332,0.013402938842773438,0
0.5099599361419678,0.013309881091117859,-0.09578362107276917,-0.3455349802970886,0.023392110408819,-0.4951691709477878,-0.7999999999787542,-0.1981213359804606,-0.15093275538738335,0.0,0.0,-0.6,0.0,0.0016374588012695312,0.006413698196411133,0
0.5204663276672363,0.011600852943956852,-0.08883010596036911,-0.3580281734466553,0.018845325834337984,-0.4918205025337897,-0.7511903087263507,-0.1459766793442718,-0.1210012525619807,0.0,0.0,-0.6,0.0,0.009327411651611328,0.014631509780883789,0
0.5368447303771973,0.011600852943956852,-0.08883010596036911,-0.3580281734466553,0.018845325834337984,-0.4918205025337897,-0.7511903087263507,-0.1459766793442718,-0.1210012525619807,0.0,0.0,-0.6,0.0,0.0014715194702148438,0.006026268005371094,0
0.5458309650421143,0.010456513613462448,-0.08424635976552963,-0.3662106394767761,0.015932299695377156,-0.491062804077536,-0.6412504237994935,-0.10574612571869424,-0.10233429985765023,0.0,0.0,-0.6,0.0,0.006860256195068359,0.011005878448486328,0
0.5598669052124023,0.009356623515486717,-0.07970095425844193,-0.37408384680747986,0.013194674309746583,-0.4912712969778422,-0.5191084112045249,-0.01720521330132232,-0.08482116015449748,0.0,0.0,-0.6,0.0,0.006554841995239258,0.011355876922607422,0
0.5735571384429932,0.009356623515486717,-0.07970095425844193,-0.37408384680747986,0.013194674309746583,-0.4912712969778422,-0.5191084112045249,-0.01720521330132232,-0.08482116015449748,0.0,0.0,-0.6,0.0,0.0014286041259765625,0.006142616271972656,0
0.5818421840667725,0.008341661654412746,-0.07521210610866547,-0.38171178102493286,0.010695001141883511,-0.4907164964903349,-0.38696243895695404,0.07789862834182901,-0.06891748245798994,0.0,0.0,-0.6,0.0,0.0060880184173583984,0.010793924331665039,0
0.5954606533050537,0.008341661654412746,-0.07521210610866547,-0.38171178102493286,0.010695001141883511,-0.4907164964903349,-0.38696243895695404,0.07789862834182901,-0.06891748245798994,0.0,0.0,-0.6,0.0,0.0012102127075195312,0.00541377067565918,0
0.6028413772583008,0.0073761604726314545,-0.07080334424972534,-0.3891984522342682,0.00852118591319984,-0.49006848679845605,-0.24697938686968585,0.16455189007925064,-0.055141945255922906,0.0,0.0,-0.6,0.0,0.00638580322265625,0.011202573776245117,0
0.6166887283325195,0.0073761604726314545,-0.07080334424972534,-0.3891984522342682,0.00852118591319984,-0.49006848679845605,-0.24697938686968585,0.16455189007925064,-0.055141945255922906,0.0,0.0,-0.6,0.0,0.001123666763305664,0.005362749099731445,0
0.6248705387115479,0.006443091668188572,-0.06642480194568634,-0.39644479751586914,0.006643778270792838,-0.48961795263272545,-0.12148623564437723,0.22360799667993797,-0.043245007458643236,0.0,0.0,-0.6,0.0,0.006083965301513672,0.010743141174316406,0
0.6373767852783203,0.006443091668188572,-0.06642480194568634,-0.39644479751586914,0.006643778270792838,-0.48961795263272545,-0.12148623564437723,0.22360799667993797,-0.043245007458643236,0.0,0.0,-0.6,0.0,0.0013551712036132812,0.006331205368041992,0
0.647038459777832,0.00554960872977972,-0.06210745871067047,-0.4034864604473114,0.004800083449742491,-0.48893900711219396,-0.0011736826995056328,0.267645207771099,-0.031517918695957714,0.0,0.0,-0.6,0.0,0.006494998931884766,0.010959386825561523,0
0.6604831218719482,0.004687014035880566,-0.05789659917354584,-0.4103415310382843,0.002992961786694423,-0.48859939461695046,0.11251886795946395,0.29437949782556055,-0.019954318303539307,0.0,0.0,-0.6,0.0,0.006240129470825195,0.011484861373901367,0
0.6750679016113281,0.004687014035880566,-0.05789659917354584,-0.4103415310382843,0.002992961786694423,-0.48859939461695046,0.11251886795946395,0.29437949782556055,-0.019954318303539307,0.0,0.0,-0.6,0.0,0.0013155937194824219,0.005765438079833984,0
0.6830823421478271,0.0038339407183229923,-0.05385326221585274,-0.41698676347732544,0.0010987306049349368,-0.48867394304544354,0.21029224404446964,0.30095140989564767,-0.007764658825640601,0.0,0.0,-0.6,0.0,0.0065708160400390625,0.011356592178344727,0
0.6962602138519287,0.0038339407183229923,-0.05385326221585274,-0.41698676347732544,0.0010987306049349368,-0.48867394304544354,0.21029224404446964,0.30095140989564767,-0.007764658825640601,0.0,0.0,-0.6,0.0,0.0013036727905273438,0.005903959274291992,0
0.7049267292022705,0.003038327908143401,-0.049994323402643204,-0.4233967959880829,-0.0008095800745330149,-0.4889606615721718,0.28484735681279993,0.29279868926861596,0.004551355632625192,0.0,0.0,-0.6,0.0,0.006639242172241211,0.011214256286621094,0
0.7179872989654541,0.003038327908143401,-0.049994323402643204,-0.4233967959880829,-0.0008095800745330149,-0.4889606615721718,0.28484735681279993,0.29279868926861596,0.004551355632625192,0.0,0.0,-0.6,0.0,0.0012323856353759766,0.005455493927001953,0
0.726574182510376,0.001923974952660501,-0.04456888139247894,-0.43263253569602966,-0.003537895699394258,-0.48844575901035214,0.34538557398037767,0.25249407776294347,0.022219816792630038,0.0,0.0,-0.6,0.0,0.006512165069580078,0.011035442352294922,0
0.7395040988922119,0.001923974952660501,-0.04456888139247894,-0.43263253569602966,-0.003537895699394258,-0.48844575901035214,0.34538557398037767,0.25249407776294347,0.022219816792630038,0.0,0.0,-0.6,0.0,0.0013561248779296875,0.00671696662902832,0
0.7490115165710449,0.0012766947038471699,-0.04124627634882927,-0.4386371672153473,-0.005389921150557068,-0.48832618418387463,0.3648949462259261,0.20994243335768858,0.03425072875196532,0.0,0.0,-0.6,0.0,0.0064640045166015625,0.010787487030029297,0
0.7613401412963867,0.0012766947038471699,-0.04124627634882927,-0.4386371672153473,-0.005389921150557068,-0.48832618418387463,0.3648949462259261,0.20994243335768858,0.03425072875196532,0.0,0.0,-0.6,0.0,0.001544952392578125,0.0064907073974609375,0
0.7714197635650635,0.0006643573869951069,-0.038201525807380676,-0.4444917142391205,-0.007277171804334894,-0.4880820246598324,0.3805931325605656,0.15829224113047866,0.04652712158205824,0.0,0.0,-0.6,0.0,0.006322622299194336,0.01100468635559082,0
0.7839114665985107,0.0006643573869951069,-0.038201525807380676,-0.4444917142391205,-0.007277171804334894,-0.4880820246598324,0.3805931325605656,0.15829224113047866,0.04652712158205824,0.0,0.0,-0.6,0.0,0.0011754035949707031,0.004934549331665039,0
0.7921802997589111,0.00013459839101415128,-0.035449035465717316,-0.4501565992832184,-0.009248270158669563,-0.4884428711663207,0.37749276367026113,0.11945506800432326,0.0592154599558679,0.0,0.0,-0.6,0.0,0.005463838577270508,0.009957313537597656,0
0.8044397830963135,0.00013459839101415128,-0.035449035465717316,-0.4501565992832184,-0.009248270158669563,-0.4884428711663207,0.37749276367026113,0.11945506800432326,0.0592154599558679,0.0,0.0,-0.6,0.0,0.0011353492736816406,0.0054666996002197266,0
0.8132538795471191,-0.0002953265211544931,-0.032904062420129776,-0.4555980861186981,-0.010971347497081854,-0.4888533701116431,0.34508678561043094,0.08554759211298921,0.07025261211855044,0.0,0.0,-0.6,0.0,0.004899263381958008,0.009397268295288086,0
0.8241133689880371,-0.0002953265211544931,-0.032904062420129776,-0.4555980861186981,-0.010971347497081854,-0.4888533701116431,0.34508678561043094,0.08554759211298921,0.07025261211855044,0.0,0.0,-0.6,0.0,0.0012240409851074219,0.00535130500793457,0
0.8319294452667236,-0.0006361109553836286,-0.030506841838359833,-0.46078044176101685,-0.012349889960417066,-0.48955505907085395,0.29935858296225243,0.07221619217248215,0.07900066122410716,0.0,0.0,-0.6,0.0,0.004936933517456055,0.009772777557373047,0
0.8436281681060791,-0.0006361109553836286,-0.030506841838359833,-0.46078044176101685,-0.012349889960417066,-0.48955505907085395,0.29935858296225243,0.07221619217248215,0.07900066122410716,0.0,0.0,-0.6,0.0,0.0015017986297607422,0.00616908073425293,0
0.8535101413726807,-0.0009064274490810931,-0.028245003893971443,-0.4657106101512909,-0.013410587704644709,-0.4900633365474568,0.2696292657031873,0.06740276844843235,0.08573132858038118,0.0,0.0,-0.6,0.0,0.0049550533294677734,0.009573936462402344,0
0.8649640083312988,-0.0009064274490810931,-0.028245003893971443,-0.4657106101512909,-0.013410587704644709,-0.4900633365474568,0.2696292657031873,0.06740276844843235,0.08573132858038118,0.0,0.0,-0.6,0.0,0.0013985633850097656,0.006201267242431641,0
0.8746299743652344,-0.0011413112515583634,-0.026182305067777634,-0.47052398324012756,-0.014226202760007411,-0.4896329820740615,0.25503267847172717,0.06299913269503461,0.0909312740195946,0.0,0.0,-0.6,0.0,0.004634380340576172,0.009896993637084961,0
0.8873496055603027,-0.0012515943963080645,-0.025245366618037224,-0.47287818789482117,-0.014592464060626007,-0.4891906139366091,0.25693719704952556,0.06089404213510185,0.09327551915490988,0.0,0.0,-0.6,0.0,0.0054967403411865234,0.009762048721313477,0
0.8998451232910156,-0.0014905661810189486,-0.023561444133520126,-0.47750696539878845,-0.015291215505674492,-0.4891572848639608,0.25967098601510047,0.04293082435903072,0.09778327132498268,0.0,0.0,-0.6,0.0,0.005448579788208008,0.009698629379272461,0
0.9110498428344727,-0.0014905661810189486,-0.023561444133520126,-0.47750696539878845,-0.015291215505674492,-0.4891572848639608,0.25967098601510047,0.04293082435903072,0.09778327132498268,0.0,0.0,-0.6,0.0,0.0011866092681884766,0.0062885284423828125,0
0.9203989505767822,-0.0017176399705931544,-0.02207537181675434,-0.48199185729026794,-0.015835926600837807,-0.48987997936512007,0.24997598250244057,0.033112396297452655,0.10127022133204883,0.0,0.0,-0.6,0.0,0.005182027816772461,0.009959220886230469,0
0.9320831298828125,-0.0017176399705931544,-0.02207537181675434,-0.48199185729026794,-0.015835926600837807,-0.48987997936512007,0.24997598250244057,0.033112396297452655,0.10127022133204883,0.0,0.0,-0.6,0.0,0.0013668537139892578,0.006247043609619141,0
0.9412493705749512,-0.00197093584574759,-0.020735464990139008,-0.48629823327064514,-0.0162324484249149,-0.4909596613588664,0.23600676722816527,-0.006413487007116577,0.1038592955302101,0.0,0.0,-0.6,0.0,0.00560760498046875,0.010059118270874023,0
0.9528558254241943,-0.00197093584574759,-0.020735464990139008,-0.48629823327064514,-0.0162324484249149,-0.4909596613588664,0.23600676722816527,-0.006413487007116577,0.1038592955302101,0.0,0.0,-0.6,0.0,0.0012252330780029297,0.005369663238525391,0
0.9605906009674072,-0.0022297899704426527,-0.019567538052797318,-0.49037131667137146,-0.016504008340495216,-0.49210749093161477,0.23206698638559972,-0.051344346578109754,0.10563039296775822,0.0,0.0,-0.6,0.0,0.004804849624633789,0.008541345596313477,0
0.9720776081085205,-0.0022297899704426527,-0.019567538052797318,-0.49037131667137146,-0.016504008340495216,-0.49210749093161477,0.23206698638559972,-0.051344346578109754,0.10563039296775822,0.0,0.0,-0.6,0.0,0.0012507438659667969,0.005094289779663086,0
0.9816532135009766,-0.0025466326624155045,-0.0185348242521286,-0.49417585134506226,-0.016576885014863922,-0.49308525065385567,0.21467002629671186,-0.1154900314063796,0.10612580469573242,0.0,0.0,-0.6,0.0,0.004530429840087891,0.009572982788085938,0
0.9927527904510498,-0.0025466326624155045,-0.0185348242521286,-0.49417585134506226,-0.016576885014863922,-0.49308525065385567,0.21467002629671186,-0.1154900314063796,0.10612580469573242,0.0,0.0,-0.6,0.0,0.0012054443359375,0.0051081180572509766,0
0.9998433589935303,-0.0029303827323019505,-0.01760823279619217,-0.4976655840873718,-0.01652952909856104,-0.494265187421257,0.18031931526807599,-0.178186334841479,0.10581564608556993,0.0,0.0,-0.6,0.0,0.004906177520751953,0.008514642715454102,0
1.0102410316467285,-0.0029303827323019505,-0.01760823279619217,-0.4976655840873718,-0.01652952909856104,-0.494265187421257,0.18031931526807599,-0.178186334841479,0.10581564608556993,0.0,0.0,-0.6,0.0,0.0011577606201171875,0.004913330078125,0
1.0197350978851318,-0.003394624451175332,-0.01678052544593811,-0.5008580684661865,-0.016366953841860495,-0.49572409095516246,0.13112379196586857,-0.21816862179987723,0.10472307212424868,0.0,0.0,-0.6,0.0,0.005566835403442383,0.009696483612060547,0
1.03086519241333,-0.003394624451175332,-0.01678052544593811,-0.5008580684661865,-0.016366953841860495,-0.49572409095516246,0.13112379196586857,-0.21816862179987723,0.10472307212424868,0.0,0.0,-0.6,0.0,0.0014584064483642578,0.005312204360961914,0
1.0403053760528564,-0.0038657737895846367,-0.016024112701416016,-0.5037921071052551,-0.016088160496128157,-0.49650101822695536,0.059567334999433744,-0.21944311127788518,0.10287180725974661,0.0,0.0,-0.6,0.0,0.005486011505126953,0.0104522705078125,0
1.0524108409881592,-0.0038657737895846367,-0.016024112701416016,-0.5037921071052551,-0.016088160496128157,-0.49650101822695536,0.059567334999433744,-0.21944311127788518,0.10287180725974661,0.0,0.0,-0.6,0.0,0.0015773773193359375,0.006539106369018555,0
1.0611200332641602,-0.004279625602066517,-0.015273794531822205,-0.5065099000930786,-0.01564402895445617,-0.4979323702631008,-0.030337341116662028,-0.1798691361931649,0.09998656191581681,0.0,0.0,-0.6,0.0,0.004877805709838867,0.009754419326782227,0
1.0737497806549072,-0.004279625602066517,-0.015273794531822205,-0.5065099000930786,-0.01564402895445617,-0.4979323702631008,-0.030337341116662028,-0.1798691361931649,0.09998656191581681,0.0,0.0,-0.6,0.0,0.0014154911041259766,0.006017446517944336,0
1.0821688175201416,-0.00462046405300498,-0.01454747375100851,-0.5089631080627441,-0.015123702773740444,-0.5003248551740702,-0.11339768078724868,-0.1264092768272755,0.09664223387746175,0.0,0.0,-0.6,0.0,0.004817485809326172,0.009664773941040039,0
1.0932767391204834,-0.00462046405300498,-0.01454747375100851,-0.5089631080627441,-0.015123702773740444,-0.5003248551740702,-0.11339768078724868,-0.1264092768272755,0.09664223387746175,0.0,0.0,-0.6,0.0,0.0010807514190673828,0.005844831466674805,0
1.1018223762512207,-0.004963934887200594,-0.013864532113075256,-0.5111697316169739,-0.014464997296888028,-0.5011336835350304,-0.1593834041678681,-0.08816763923359722,0.09240640747180442,0.0,0.0,-0.6,0.0,0.00542449951171875,0.009834051132202148,0
1.113123893737793,-0.004963934887200594,-0.013864532113075256,-0.5111697316169739,-0.014464997296888028,-0.5011336835350304,-0.1593834041678681,-0.08816763923359722,0.09240640747180442,0.0,0.0,-0.6,0.0,0.0011439323425292969,0.004754543304443359,0
1.1213650703430176,-0.005355530884116888,-0.013239599764347076,-0.5132517218589783,-0.013761424001407466,-0.5018852610015984,-0.17874202122404864,-0.05595910624356367,0.0878902095827262,0.0,0.0,-0.6,0.0,0.0052759647369384766,0.009706735610961914,0
1.1325066089630127,-0.005355530884116888,-0.013239599764347076,-0.5132517218589783,-0.013761424001407466,-0.5018852610015984,-0.17874202122404864,-0.05595910624356367,0.0878902095827262,0.0,0.0,-0.6,0.0,0.0011892318725585938,0.005054473876953125,0
1.1406638622283936,-0.0057465392164886,-0.012633457779884338,-0.5152192115783691,-0.01321583911742269,-0.5021604588337266,-0.16528524920252063,-0.027698521489308816,0.0844005338232386,0.0,0.0,-0.6,0.0,0.005141735076904297,0.010608196258544922,0
1.1521449089050293,-0.0057465392164886,-0.012633457779884338,-0.5152192115783691,-0.01321583911742269,-0.5021604588337266,-0.16528524920252063,-0.027698521489308816,0.0844005338232386,0.0,0.0,-0.6,0.0,0.0014574527740478516,0.0062313079833984375,0
1.1615612506866455,-0.0061409552581608295,-0.012042095884680748,-0.5170879364013672,-0.012669482268558416,-0.5021827416189795,-0.14046584425626182,-0.007843522439282102,0.08091632701236999,0.0,0.0,-0.6,0.0,0.005031585693359375,0.009608268737792969,0
1.17411470413208,-0.0061409552581608295,-0.012042095884680748,-0.5170879364013672,-0.012669482268558416,-0.5021827416189795,-0.14046584425626182,-0.007843522439282102,0.08091632701236999,0.0,0.0,-0.6,0.0,0.0013761520385742188,0.005921125411987305,0
1.1832048892974854,-0.006551799364387989,-0.011438409797847271,-0.518848180770874,-0.01206046820168739,-0.502631871194952,-0.11804041306002461,0.006283236344031667,0.07703328664952026,0.0,0.0,-0.6,0.0,0.0047566890716552734,0.009926319122314453,0
1.1948902606964111,-0.006551799364387989,-0.011438409797847271,-0.518848180770874,-0.01206046820168739,-0.502631871194952,-0.11804041306002461,0.006283236344031667,0.07703328664952026,0.0,0.0,-0.6,0.0,0.0011143684387207031,0.0063173770904541016,0
1.2032561302185059,-0.006978547666221857,-0.010813183151185513,-0.5204681754112244,-0.011438456633631364,-0.5032693592968199,-0.09590213336032671,0.02112998530067631,0.07307434144842707,0.0,0.0,-0.6,0.0,0.005007505416870117,0.009464740753173828,0
1.2158021926879883,-0.007188540417701006,-0.0104970159009099,-0.5212167501449585,-0.011107457689485177,-0.5038689722700429,-0.08488155985802769,0.031502493233500024,0.07097045592595318,0.0,0.0,-0.6,0.0,0.005536079406738281,0.010303735733032227,0
1.2284307479858398,-0.007587214466184378,-0.009882789105176926,-0.5226077437400818,-0.01045040494088122,-0.5039706197785028,-0.06429425381736371,0.05402975214845739,0.06679427929741447,0.0,0.0,-0.6,0.0,0.004911899566650391,0.01031637191772461,0
1.2408127784729004,-0.007587214466184378,-0.009882789105176926,-0.5226077437400818,-0.01045040494088122,-0.5039706197785028,-0.06429425381736371,0.05402975214845739,0.06679427929741447,0.0,0.0,-0.6,0.0,0.0018219947814941406,0.006165504455566406,0
1.2500288486480713,-0.007960176095366478,-0.009280955418944359,-0.5239212512969971,-0.009838028181359471,-0.5037212995189895,-0.05215202659972231,0.06835582538261328,0.06288879712878946,0.0,0.0,-0.6,0.0,0.0054931640625,0.009986639022827148,0
1.2620737552642822,-0.007960176095366478,-0.009280955418944359,-0.5239212512969971,-0.009838028181359471,-0.5037212995189895,-0.05215202659972231,0.06835582538261328,0.06288879712878946,0.0,0.0,-0.6,0.0,0.0014958381652832031,0.006375789642333984,0
1.2720654010772705,-0.008327477611601353,-0.008678469806909561,-0.5251724123954773,-0.009277405377994832,-0.5034721766277445,-0.045427977448677374,0.07815314091560123,0.05930736182167781,0.0,0.0,-0.6,0.0,0.005258798599243164,0.009822845458984375,0
1.284022569656372,-0.008327477611601353,-0.008678469806909561,-0.5251724123954773,-0.009277405377994832,-0.5034721766277445,-0.045427977448677374,0.07815314091560123,0.05930736182167781,0.0,0.0,-0.6,0.0,0.001316070556640625,0.006107807159423828,0
1.2934844493865967,-0.00874983612447977,-0.008095921017229557,-0.526486873626709,-0.008755098473196025,-0.5028847248063338,-0.030250938045225464,0.06727010246263923,0.0559768384419815,0.0,0.0,-0.6,0.0,0.004616260528564453,0.009597063064575195,0
1.3049099445343018,-0.00874983612447977,-0.008095921017229557,-0.526486873626709,-0.008755098473196025,-0.5028847248063338,-0.030250938045225464,0.06727010246263923,0.0559768384419815,0.0,0.0,-0.6,0.0,0.0012423992156982422,0.005717039108276367,0
1.3135507106781006,-0.00921632256358862,-0.007560673635452986,-0.5277954339981079,-0.008247343972877148,-0.5026556107073733,-0.020931236484464193,0.05071116962953473,0.0527332290236996,0.0,0.0,-0.6,0.0,0.004815101623535156,0.009425163269042969,0
1.325523853302002,-0.00921632256358862,-0.007560673635452986,-0.5277954339981079,-0.008247343972877148,-0.5026556107073733,-0.020931236484464193,0.05071116962953473,0.0527332290236996,0.0,0.0,-0.6,0.0,0.0014002323150634766,0.005994319915771484,0
1.3345682621002197,-0.009904831647872925,-0.006709790322929621,-0.5296982526779175,-0.0075206391535196605,-0.5028019185789353,-0.052683883989046554,0.044218647225064134,0.04804337710974425,0.0,0.0,-0.6,0.0,0.004620552062988281,0.008711576461791992,0
1.3453576564788818,-0.009904831647872925,-0.006709790322929621,-0.5296982526779175,-0.0075206391535196605,-0.5028019185789353,-0.052683883989046554,0.044218647225064134,0.04804337710974425,0.0,0.0,-0.6,0.0,0.0014414787292480469,0.006365060806274414,0
1.354283332824707,-0.010119353421032429,-0.006400208454579115,-0.5302947163581848,-0.007219857292610667,-0.5032275033611079,-0.0662664921840229,0.03821226001934766,0.04610439663362682,0.0,0.0,-0.6,0.0,0.004866361618041992,0.010205745697021484,0
1.3674089908599854,-0.01055475790053606,-0.00578841520473361,-0.5314347147941589,-0.00662709750948574,-0.5034192029464073,-0.07891335961642128,0.028072929725687406,0.042304841222586986,0.0,0.0,-0.6,0.0,0.0054950714111328125,0.009960412979125977,0
1.3797383308410645,-0.01055475790053606,-0.00578841520473361,-0.5314347147941589,-0.00662709750948574,-0.5034192029464073,-0.07891335961642128,0.028072929725687406,0.042304841222586986,0.0,0.0,-0.6,0.0,0.0015649795532226562,0.006406307220458984,0
1.3902862071990967,-0.010969184339046478,-0.0052496278658509254,-0.532584547996521,-0.006089737665219556,-0.5028196162759406,-0.07830220564501877,0.012289575629429313,0.03887669587092935,0.0,0.0,-0.6,0.0,0.005097389221191406,0.009784698486328125,0
1.4016120433807373,-0.010969184339046478,-0.0052496278658509254,-0.532584547996521,-0.006089737665219556,-0.5028196162759406,-0.07830220564501877,0.012289575629429313,0.03887669587092935,0.0,0.0,-0.6,0.0,0.001825571060180664,0.006127357482910156,0
1.4101054668426514,-0.01135649811476469,-0.004764198325574398,-0.5337736010551453,-0.005580642308482745,-0.5026478380365892,-0.0832304731197894,0.007517833073183367,0.03562601197494468,0.0,0.0,-0.6,0.0,0.0053348541259765625,0.010062217712402344,0
1.421980381011963,-0.01135649811476469,-0.004764198325574398,-0.5337736010551453,-0.005580642308482745,-0.5026478380365892,-0.0832304731197894,0.007517833073183367,0.03562601197494468,0.0,0.0,-0.6,0.0,0.0011665821075439453,0.005633831024169922,0
1.4300453662872314,-0.011690803803503513,-0.004268455784767866,-0.5349559187889099,-0.005130717038500824,-0.50332654388348,-0.0905913844622267,0.0030617954109301774,0.03275166549342243,0.0,0.0,-0.6,0.0,0.005393028259277344,0.009790182113647461,0
1.4415712356567383,-0.011690803803503513,-0.004268455784767866,-0.5349559187889099,-0.005130717038500824,-0.50332654388348,-0.0905913844622267,0.0030617954109301774,0.03275166549342243,0.0,0.0,-0.6,0.0,0.0014483928680419922,0.00531005859375,0
1.450291395187378,-0.011949526146054268,-0.003749322146177292,-0.5360317230224609,-0.004609609593378742,-0.503148707631165,-0.09239529670111968,0.007888846943564802,0.02942407473949901,0.0,0.0,-0.6,0.0,0.005517244338989258,0.010502338409423828,0
1.4628918170928955,-0.011949526146054268,-0.003749322146177292,-0.5360317230224609,-0.004609609593378742,-0.503148707631165,-0.09239529670111968,0.007888846943564802,0.02942407473949901,0.0,0.0,-0.6,0.0,0.0013737678527832031,0.006506204605102539,0
1.4736566543579102,-0.012152926996350288,-0.003260187804698944,-0.5371145009994507,-0.0040981852242089915,-0.5031263292004188,-0.06996036471010295,-0.004065832517907336,0.02617375650960361,0.0,0.0,-0.6,0.0,0.004935503005981445,0.010149002075195312,0
1.4860584735870361,-0.012353196740150452,-0.0028361224103718996,-0.5381754636764526,-0.003697589797285544,-0.5026397085865532,-0.04017038466126245,-0.017201096194514785,0.023637571009441097,0.0,0.0,-0.6,0.0,0.005959510803222656,0.010740041732788086,0
1.4994592666625977,-0.012353196740150452,-0.0028361224103718996,-0.5381754636764526,-0.003697589797285544,-0.5026397085865532,-0.04017038466126245,-0.017201096194514785,0.023637571009441097,0.0,0.0,-0.6,0.0,0.0011813640594482422,0.005463600158691406,0
1.5082504749298096,-0.01252707652747631,-0.0024453194346278906,-0.5392588973045349,-0.0033293179214421076,-0.5021175934143423,-0.021607905978225192,-0.033625757980613055,0.02130436414254567,0.0,0.0,-0.6,0.0,0.005202770233154297,0.010004758834838867,0
1.5200600624084473,-0.01252707652747631,-0.0024453194346278906,-0.5392588973045349,-0.0033293179214421076,-0.5021175934143423,-0.021607905978225192,-0.033625757980613055,0.02130436414254567,0.0,0.0,-0.6,0.0,0.0012214183807373047,0.0054585933685302734,0
1.5301003456115723,-0.012753247283399105,-0.0020719089079648256,-0.5403518080711365,-0.003055643774273755,-0.5019146388996293,-0.003507726012313771,-0.052576446183621325,0.01957862080558339,0.0,0.0,-0.6,0.0,0.00512242317199707,0.009705543518066406,0
1.5412964820861816,-0.012753247283399105,-0.0020719089079648256,-0.5403518080711365,-0.003055643774273755,-0.5019146388996293,-0.003507726012313771,-0.052576446183621325,0.01957862080558339,0.0,0.0,-0.6,0.0,0.0018146038055419922,0.00621795654296875,0
1.5498886108398438,-0.013021113350987434,-0.001707481569610536,-0.5414499044418335,-0.0027645769860193503,-0.5014971219854414,0.0100092363206701,-0.04980159472196034,0.017727065822346774,0.0,0.0,-0.6,0.0,0.00558924674987793,0.009776830673217773,0
1.5622825622558594,-0.013021113350987434,-0.001707481569610536,-0.5414499044418335,-0.0027645769860193503,-0.5014971219854414,0.0100092363206701,-0.04980159472196034,0.017727065822346774,0.0,0.0,-0.6,0.0,0.0013959407806396484,0.006172895431518555,0
1.5716698169708252,-0.01326906681060791,-0.0013578771613538265,-0.5425846576690674,-0.002488501141848105,-0.5009247892429719,0.018875645556783838,-0.02976240466223493,0.015957520740639143,0.0,0.0,-0.6,0.0,0.005037784576416016,0.010223150253295898,0
1.5839407444000244,-0.01326906681060791,-0.0013578771613538265,-0.5425846576690674,-0.002488501141848105,-0.5009247892429719,0.018875645556783838,-0.02976240466223493,0.015957520740639143,0.0,0.0,-0.6,0.0,0.0013010501861572266,0.005980491638183594,0
1.5927059650421143,-0.013484657742083073,-0.0010149907320737839,-0.5437824726104736,-0.0022800591364207836,-0.49995695464284795,0.02731428687853457,-0.01632989855652699,0.014623218003343959,0.0,0.0,-0.6,0.0,0.005227804183959961,0.01011967658996582,0
1.6041491031646729,-0.013484657742083073,-0.0010149907320737839,-0.5437824726104736,-0.0022800591364207836,-0.49995695464284795,0.02731428687853457,-0.01632989855652699,0.014623218003343959,0.0,0.0,-0.6,0.0,0.001127004623413086,0.0053327083587646484,0
1.612189769744873,-0.013693314976990223,-0.0007154803606681526,-0.545026957988739,-0.0021016078854689344,-0.499409384704664,0.04063575600012949,0.0049445927576937275,0.01347819252575699,0.0,0.0,-0.6,0.0,0.005342245101928711,0.009981870651245117,0
1.6240813732147217,-0.013693314976990223,-0.0007154803606681526,-0.545026957988739,-0.0021016078854689344,-0.499409384704664,0.04063575600012949,0.0049445927576937275,0.01347819252575699,0.0,0.0,-0.6,0.0,0.0010874271392822266,0.005242347717285156,0
1.6332221031188965,-0.013916641473770142,-0.00047515647020190954,-0.5463295578956604,-0.0019402240863661032,-0.49876127613337506,0.0623538906900757,0.010299759098164359,0.012460046704350226,0.0,0.0,-0.6,0.0,0.0046617984771728516,0.009800434112548828,0
1.6441659927368164,-0.013916641473770142,-0.00047515647020190954,-0.5463295578956604,-0.0019402240863661032,-0.49876127613337506,0.0623538906900757,0.010299759098164359,0.012460046704350226,0.0,0.0,-0.6,0.0,0.0010867118835449219,0.006119728088378906,0
1.653313398361206,-0.014158117584884167,-0.00025253446074202657,-0.5476093292236328,-0.0017380441207453942,-0.4983245074551824,0.07264879375114146,0.013035704145239004,0.011175392366814111,0.0,0.0,-0.6,0.0,0.005129575729370117,0.009858131408691406,0
1.6650450229644775,-0.014158117584884167,-0.00025253446074202657,-0.5476093292236328,-0.0017380441207453942,-0.4983245074551824,0.07264879375114146,0.013035704145239004,0.011175392366814111,0.0,0.0,-0.6,0.0,0.001409769058227539,0.0060346126556396484,0
1.6749520301818848,-0.014407339505851269,-6.265952833928168e-05,-0.5488272309303284,-0.0016510588195870746,-0.49755806130621927,0.08680925610545731,0.028581548017963268,0.010620944069879996,0.0,0.0,-0.6,0.0,0.00487208366394043,0.010148286819458008,0
1.687706708908081,-0.01460757851600647,0.00013538249186240137,-0.5499758720397949,-0.0014918151921114833,-0.49784123870545216,0.08925145982391776,0.05469022545162837,0.009589325348589474,0.0,0.0,-0.6,0.0,0.0054242610931396484,0.010172367095947266,0
1.7004177570343018,-0.01460757851600647,0.00013538249186240137,-0.5499758720397949,-0.0014918151921114833,-0.49784123870545216,0.08925145982391776,0.05469022545162837,0.009589325348589474,0.0,0.0,-0.6,0.0,0.0016453266143798828,0.006125926971435547,0
1.710085153579712,-0.014752362854778767,0.0003170472336933017,-0.5510687828063965,-0.0012610278958450599,-0.4978411181615602,0.11472103067248526,0.0652267296901087,0.008132465855138679,0.0,0.0,-0.6,0.0,0.005550384521484375,0.010192155838012695,0
1.7222306728363037,-0.014752362854778767,0.0003170472336933017,-0.5510687828063965,-0.0012610278958450599,-0.4978411181615602,0.11472103067248526,0.0652267296901087,0.008132465855138679,0.0,0.0,-0.6,0.0,0.0013341903686523438,0.006169795989990234,0
1.7304444313049316,-0.014874656684696674,0.00042381981620565057,-0.5521302819252014,-0.0010496934625441544,-0.49739526596880035,0.15074879798715152,0.05517725687779728,0.006822059510261717,0.0,0.0,-0.6,0.0,0.00496220588684082,0.009803295135498047,0
1.7428429126739502,-0.014874656684696674,0.00042381981620565057,-0.5521302819252014,-0.0010496934625441544,-0.49739526596880035,0.15074879798715152,0.05517725687779728,0.006822059510261717,0.0,0.0,-0.6,0.0,0.0011529922485351562,0.005501985549926758,0
1.7512969970703125,-0.014939719811081886,0.0004088007262907922,-0.5532199144363403,-0.0007850583439818708,-0.49734982057034016,0.18491236683562723,0.05630860001986028,0.005162135993822358,0.0,0.0,-0.6,0.0,0.005044460296630859,0.009565114974975586,0
1.7645199298858643,-0.014967450872063637,0.0003724467824213207,-0.5537333488464355,-0.0006848151180114494,-0.4976202890415966,0.19582938452782928,0.043287738069476285,0.004542146957337707,0.0,0.0,-0.6,0.0,0.004908561706542969,0.010305404663085938,0
1.7778093814849854,-0.015030665323138237,0.0002447721781209111,-0.5546879172325134,-0.00057965921010896,-0.49814697144095077,0.226462734145988,0.03573584031173997,0.003906484012321488,0.0,0.0,-0.6,0.0,0.004958629608154297,0.010392427444458008,0
1.7905216217041016,-0.015030665323138237,0.0002447721781209111,-0.5546879172325134,-0.00057965921010896,-0.49814697144095077,0.226462734145988,0.03573584031173997,0.003906484012321488,0.0,0.0,-0.6,0.0,0.0017557144165039062,0.006435394287109375,0
1.8001601696014404,-0.015107987448573112,6.344440771499649e-05,-0.5555908679962158,-0.0004588201129101314,-0.4985123550719702,0.2403335056359471,0.02628108189979223,0.003152115297152905,0.0,0.0,-0.6,0.0,0.004918813705444336,0.009682893753051758,0
1.811417818069458,-0.015107987448573112,6.344440771499649e-05,-0.5555908679962158,-0.0004588201129101314,-0.4985123550719702,0.2403335056359471,0.02628108189979223,0.003152115297152905,0.0,0.0,-0.6,0.0,0.0014069080352783203,0.00647735595703125,0
1.8201327323913574,-0.01523544080555439,-9.78457392193377e-05,-0.5563613772392273,-0.00038189164116445706,-0.4995028277207526,0.22749667139199475,0.0026711321949335807,0.002653516162355296,0.0,0.0,-0.6,0.0,0.0051174163818359375,0.009870529174804688,0
1.8317689895629883,-0.01523544080555439,-9.78457392193377e-05,-0.5563613772392273,-0.00038189164116445706,-0.4995028277207526,0.22749667139199475,0.0026711321949335807,0.002653516162355296,0.0,0.0,-0.6,0.0,0.0011317729949951172,0.006366252899169922,0
1.8405730724334717,-0.01538428571075201,-0.00024864845909178257,-0.5570217967033386,-0.0004452286138572864,-0.49976221672417664,0.19937594770952896,-0.007006168354020866,0.0030200295369600685,0.0,0.0,-0.6,0.0,0.0048444271087646484,0.00951528549194336,0
1.8525619506835938,-0.01538428571075201,-0.00024864845909178257,-0.5570217967033386,-0.0004452286138572864,-0.49976221672417664,0.19937594770952896,-0.007006168354020866,0.0030200295369600685,0.0,0.0,-0.6,0.0,0.0011930465698242188,0.0063860416412353516,0
1.8617372512817383,-0.015484674833714962,-0.0003600160707719624,-0.5575991868972778,-0.000520808471420462,-0.5005354472652759,0.1413982185110799,-0.0062946535542571375,0.0034401690906639424,0.0,0.0,-0.6,0.0,0.005684614181518555,0.01037454605102539,0
1.876262903213501,-0.015541156753897667,-0.0004315866972319782,-0.5581017136573792,-0.0006769927392142251,-0.5011807698747974,0.0827436379092403,-0.008503099238770417,0.004380605014728085,0.0,0.0,-0.6,0.0,0.004755735397338867,0.010101318359375,0
1.8878889083862305,-0.015541156753897667,-0.0004315866972319782,-0.5581017136573792,-0.0006769927392142251,-0.5011807698747974,0.0827436379092403,-0.008503099238770417,0.004380605014728085,0.0,0.0,-0.6,0.0,0.0013382434844970703,0.006172657012939453,0
1.8972487449645996,-0.015562929213047028,-0.0005012116744183004,-0.5585086941719055,-0.0008370592245482244,-0.5015940754584093,0.018538597834663877,-0.012879817855419704,0.005344673089440453,0.0,0.0,-0.6,0.0,0.00547337532043457,0.010082244873046875,0
1.909236192703247,-0.015562929213047028,-0.0005012116744183004,-0.5585086941719055,-0.0008370592245482244,-0.5015940754584093,0.018538597834663877,-0.012879817855419704,0.005344673089440453,0.0,0.0,-0.6,0.0,0.0011849403381347656,0.005440711975097656,0
1.9180409908294678,-0.015518193133175373,-0.0006027093040756881,-0.5588473081588745,-0.0010325607469507689,-0.5019788868687775,-0.036586674716932346,-0.0026078555490758005,0.00655540622884381,0.0,0.0,-0.6,0.0,0.00578618049621582,0.010381460189819336,0
1.9304578304290771,-0.015518193133175373,-0.0006027093040756881,-0.5588473081588745,-0.0010325607469507689,-0.5019788868687775,-0.036586674716932346,-0.0026078555490758005,0.00655540622884381,0.0,0.0,-0.6,0.0,0.0011439323425292969,0.005022764205932617,0
1.9398910999298096,-0.015425845049321651,-0.00072537298547104,-0.5591273307800293,-0.0012884380720737298,-0.5026612794926513,-0.10954126875814599,0.0029273280333893047,0.008141006519092905,0.0,0.0,-0.6,0.0,0.005274057388305664,0.010062217712402344,0
1.9516468048095703,-0.015425845049321651,-0.00072537298547104,-0.5591273307800293,-0.0012884380720737298,-0.5026612794926513,-0.10954126875814599,0.0029273280333893047,0.008141006519092905,0.0,0.0,-0.6,0.0,0.001638174057006836,0.0063359737396240234,0
1.9611806869506836,-0.015330880880355835,-0.000799183442723006,-0.5593293905258179,-0.0015328510265999744,-0.5031318974854252,-0.19213280519810044,0.0012155553824446138,0.0096326299948176,0.0,0.0,-0.6,0.0,0.005509376525878906,0.010126352310180664,0
1.9740161895751953,-0.015330880880355835,-0.000799183442723006,-0.5593293905258179,-0.0015328510265999744,-0.5031318974854252,-0.19213280519810044,0.0012155553824446138,0.0096326299948176,0.0,0.0,-0.6,0.0,0.0016105175018310547,0.006304264068603516,0
1.983591079711914,-0.015260753221809864,-0.0008148998022079468,-0.5594803094863892,-0.0017839114869367214,-0.5034643208028086,-0.2753689694150836,-0.0014509215254647396,0.011161087525485133,0.0,0.0,-0.6,0.0,0.0048923492431640625,0.00959920883178711,0
1.9950766563415527,-0.015186996199190617,-0.0007332703680731356,-0.5595394372940063,-0.002109910584411076,-0.5039639356896459,-0.35291488758082795,-0.0015520329640916005,0.013178471752624623,0.0,0.0,-0.6,0.0,0.005579948425292969,0.01031494140625,0
2.0078136920928955,-0.015186996199190617,-0.0007332703680731356,-0.5595394372940063,-0.002109910584411076,-0.5039639356896459,-0.35291488758082795,-0.0015520329640916005,0.013178471752624623,0.0,0.0,-0.6,0.0,0.0013928413391113281,0.005760669708251953,0
2.015754222869873,-0.015148081816732883,-0.0006783793796785176,-0.5595426559448242,-0.0022930627114080234,-0.5040032776143036,-0.37585839322590303,-0.005435423423021191,0.014321825421642946,0.0,0.0,-0.6,0.0,0.005309581756591797,0.009821176528930664,0
2.029153347015381,-0.015035180374979973,-0.0005609933868981898,-0.5595495700836182,-0.0025929650761875415,-0.5040658682809347,-0.3861204773213518,-0.0061406660719582114,0.016225397427607854,0.0,0.0,-0.6,0.0,0.004892110824584961,0.009741783142089844,0
2.0412588119506836,-0.015035180374979973,-0.0005609933868981898,-0.5595495700836182,-0.0025929650761875415,-0.5040658682809347,-0.3861204773213518,-0.0061406660719582114,0.016225397427607854,0.0,0.0,-0.6,0.0,0.0011858940124511719,0.005514621734619141,0
2.0499112606048584,-0.014909736812114716,-0.0004577342187985778,-0.5595062375068665,-0.0026489552547390217,-0.5040996611555555,-0.365318086811856,-0.03001188798818888,0.016538984806278124,0.0,0.0,-0.6,0.0,0.004703998565673828,0.009855270385742188,0
2.061701774597168,-0.014909736812114716,-0.0004577342187985778,-0.5595062375068665,-0.0026489552547390217,-0.5040996611555555,-0.365318086811856,-0.03001188798818888,0.016538984806278124,0.0,0.0,-0.6,0.0,0.0013339519500732422,0.006342649459838867,0
2.0719759464263916,-0.014812990091741085,-0.0003715498314704746,-0.5593700408935547,-0.002576780965010312,-0.5051728665869799,-0.31157282666981484,-0.04486166798611715,0.01609049679540195,0.0,0.0,-0.6,0.0,0.004922151565551758,0.009870290756225586,0
2.0838778018951416,-0.014812990091741085,-0.0003715498314704746,-0.5593700408935547,-0.002576780965010312,-0.5051728665869799,-0.31157282666981484,-0.04486166798611715,0.01609049679540195,0.0,0.0,-0.6,0.0,0.0013816356658935547,0.006408214569091797,0
2.0926239490509033,-0.014788384549319744,-0.0003432735684327781,-0.5591617226600647,-0.0024324765209519615,-0.5059776769483171,-0.24963903187796246,-0.05471565611422351,0.01521901743499066,0.0,0.0,-0.6,0.0,0.005063056945800781,0.01010751724243164,0
2.105664014816284,-0.014796198345720768,-0.0003346583107486367,-0.5590059161186218,-0.002333537226608527,-0.5064416569625445,-0.22353147914432545,-0.05459685615630428,0.01462345107361175,0.0,0.0,-0.6,0.0,0.004987001419067383,0.00991368293762207,0
2.1182103157043457,-0.014828694984316826,-0.0002772443403955549,-0.5585968494415283,-0.0022079418880930186,-0.5071441756944255,-0.1835895019906876,-0.036915918729439834,0.013912513343404893,0.0,0.0,-0.6,0.0,0.0055963993072509766,0.010173559188842773,0
2.1298515796661377,-0.014828694984316826,-0.0002772443403955549,-0.5585968494415283,-0.0022079418880930186,-0.5071441756944255,-0.1835895019906876,-0.036915918729439834,0.013912513343404893,0.0,0.0,-0.6,0.0,0.0011935234069824219,0.0062160491943359375,0
2.139890193939209,-0.014836004003882408,-0.00017173736705444753,-0.5581021308898926,-0.0020186783745881833,-0.5073547257977256,-0.148721954429301,-0.00920685406598558,0.012780371477304731,0.0,0.0,-0.6,0.0,0.005570650100708008,0.01051783561706543,0
2.152402400970459,-0.014836004003882408,-0.00017173736705444753,-0.5581021308898926,-0.0020186783745881833,-0.5073547257977256,-0.148721954429301,-0.00920685406598558,0.012780371477304731,0.0,0.0,-0.6,0.0,0.0011334419250488281,0.0054280757904052734,0
2.1609151363372803,-0.014800972305238247,3.461646701907739e-05,-0.5575247406959534,-0.001645034098771599,-0.5085085122458497,-0.12882507378385505,0.009877883941456419,0.010425088897204712,0.0,0.0,-0.6,0.0,0.006506204605102539,0.011121749877929688,0
2.1746726036071777,-0.014800972305238247,3.461646701907739e-05,-0.5575247406959534,-0.001645034098771599,-0.5085085122458497,-0.12882507378385505,0.009877883941456419,0.010425088897204712,0.0,0.0,-0.6,0.0,0.0013921260833740234,0.0059642791748046875,0
2.1842525005340576,-0.014760730788111687,0.000353577226633206,-0.5568581223487854,-0.0013379303084649617,-0.5094215949144728,-0.11297737994676003,0.01215134986530288,0.008474339692816057,0.0,0.0,-0.6,0.0,0.006033897399902344,0.010352373123168945,0
2.197486400604248,-0.014717955142259598,0.00078053236939013,-0.5560883283615112,-0.0011901857949907263,-0.5107561165692729,-0.10522641720805474,0.02437553167882236,0.007533554755368703,0.0,0.0,-0.6,0.0,0.006598949432373047,0.011821269989013672,0
2.210606575012207,-0.014717955142259598,0.00078053236939013,-0.5560883283615112,-0.0011901857949907263,-0.5107561165692729,-0.10522641720805474,0.02437553167882236,0.007533554755368703,0.0,0.0,-0.6,0.0,0.0015711784362792969,0.006070613861083984,0
2.2200543880462646,-0.014674443751573563,0.0012748183216899633,-0.5552049875259399,-0.0010733977419179511,-0.5119134862649097,-0.09087197008581259,0.03595089442816735,0.0067905976598444245,0.0,0.0,-0.6,0.0,0.0050945281982421875,0.010007381439208984,0
2.231907367706299,-0.014674443751573563,0.0012748183216899633,-0.5552049875259399,-0.0010733977419179511,-0.5119134862649097,-0.09087197008581259,0.03595089442816735,0.0067905976598444245,0.0,0.0,-0.6,0.0,0.0014042854309082031,0.006453990936279297,0
2.240866184234619,-0.014624211005866528,0.0018096190178766847,-0.554276168346405,-0.0010041833084170487,-0.5126619695343313,-0.06988338194445164,0.03512768273859409,0.006360912371954784,0.0,0.0,-0.6,0.0,0.00526881217956543,0.009513616561889648,0
2.2519853115081787,-0.014624211005866528,0.0018096190178766847,-0.554276168346405,-0.0010041833084170487,-0.5126619695343313,-0.06988338194445164,0.03512768273859409,0.006360912371954784,0.0,0.0,-0.6,0.0,0.0011568069458007812,0.005395174026489258,0
2.2607805728912354,-0.014571183361113071,0.002363440813496709,-0.5533131957054138,-0.0009285769465377999,-0.5131788265327579,-0.043140487255298406,0.027500461406833758,0.005900797611562359,0.0,0.0,-0.6,0.0,0.004531145095825195,0.008282899856567383,0
2.2718119621276855,-0.014544414356350899,0.0026353755965828896,-0.552813708782196,-0.0009077371841409666,-0.5133051149209285,-0.024608524002082677,0.026328773977809777,0.00578161057796726,0.0,0.0,-0.6,0.0,0.004571676254272461,0.008585929870605469,0
2.281714677810669,-0.014544414356350899,0.0026353755965828896,-0.552813708782196,-0.0009077371841409666,-0.5133051149209285,-0.024608524002082677,0.026328773977809777,0.00578161057796726,0.0,0.0,-0.6,0.0,0.0011315345764160156,0.004963874816894531,0
2.289888620376587,-0.014499199576675892,0.003158156294375658,-0.5518069267272949,-0.0010813107965795003,-0.5139195864941198,0.00799102559102076,0.018747311683539,0.0069210279324385185,0.0,0.0,-0.6,0.0,0.004454851150512695,0.008441448211669922,0
2.3000316619873047,-0.014499199576675892,0.003158156294375658,-0.5518069267272949,-0.0010813107965795003,-0.5139195864941198,0.00799102559102076,0.018747311683539,0.0069210279324385185,0.0,0.0,-0.6,0.0,0.0019333362579345703,0.006577253341674805,0
2.3106000423431396,-0.014462528750300407,0.0036339520011097193,-0.5507852435112,-0.0013145561447280498,-0.513889245397527,0.042742628182367126,0.023352260584075284,0.008429456060171725,0.0,0.0,-0.6,0.0,0.005339860916137695,0.009906291961669922,0
2.3218202590942383,-0.014462528750300407,0.0036339520011097193,-0.5507852435112,-0.0013145561447280498,-0.513889245397527,0.042742628182367126,0.023352260584075284,0.008429456060171725,0.0,0.0,-0.6,0.0,0.0011279582977294922,0.005080223083496094,0
2.3300094604492188,-0.01440125796943903,0.00401894748210907,-0.5498090386390686,-0.0015923936893481384,-0.5133325068883585,0.08104777263339653,0.03415547978357658,0.010213514473680733,0.0,0.0,-0.6,0.0,0.0056874752044677734,0.009889841079711914,0
2.341341018676758,-0.01440125796943903,0.00401894748210907,-0.5498090386390686,-0.0015923936893481384,-0.5133325068883585,0.08104777263339653,0.03415547978357658,0.010213514473680733,0.0,0.0,-0.6,0.0,0.0010952949523925781,0.005015134811401367,0
2.3503201007843018,-0.014317452907562256,0.004263794980943203,-0.5489528775215149,-0.0017805741818534128,-0.512323977942388,0.11959612184357511,0.041346577920171546,0.011424492889140166,0.0,0.0,-0.6,0.0,0.00513458251953125,0.009810924530029297,0
2.361201047897339,-0.014317452907562256,0.004263794980943203,-0.5489528775215149,-0.0017805741818534128,-0.512323977942388,0.11959612184357511,0.041346577920171546,0.011424492889140166,0.0,0.0,-0.6,0.0,0.0012145042419433594,0.005669832229614258,0
2.3713462352752686,-0.014211229048669338,0.004417989868670702,-0.5482458472251892,-0.0020142327816641396,-0.5114118677342133,0.14302064904316558,0.04134779340050125,0.012926542552893125,0.0,0.0,-0.6,0.0,0.004866838455200195,0.010013580322265625,0
2.382883310317993,-0.014211229048669338,0.004417989868670702,-0.5482458472251892,-0.0020142327816641396,-0.5114118677342133,0.14302064904316558,0.04134779340050125,0.012926542552893125,0.0,0.0,-0.6,0.0,0.0014202594757080078,0.0063822269439697266,0
2.39180326461792,-0.014082692563533783,0.004510100465267897,-0.547611653804779,-0.0021600283424926905,-0.5112372674538215,0.15799002363196576,0.03735455309689198,0.013869591066120788,0.0,0.0,-0.6,0.0,0.005113124847412109,0.009681224822998047,0
2.4051551818847656,-0.01400614995509386,0.004535879474133253,-0.5473170280456543,-0.0022215431569972198,-0.5110209730727396,0.1633408813453003,0.032378179398760344,0.014271393453090378,0.0,0.0,-0.6,0.0,0.0049402713775634766,0.009968996047973633,0
2.4181346893310547,-0.013861904852092266,0.004535419400781393,-0.5467423796653748,-0.00233477452361299,-0.5112625440371128,0.1745107716376757,-0.007744892073899684,0.0150446118160617,0.0,0.0,-0.6,0.0,0.006047487258911133,0.011367559432983398,0
2.430922508239746,-0.013861904852092266,0.004535419400781393,-0.5467423796653748,-0.00233477452361299,-0.5112625440371128,0.1745107716376757,-0.007744892073899684,0.0150446118160617,0.0,0.0,-0.6,0.0,0.0012044906616210938,0.005969524383544922,0
2.440187692642212,-0.013749586418271065,0.004438748583197594,-0.5461773872375488,-0.0025017686703841463,-0.5109090188614528,0.19617054952627538,-0.05497225897332977,0.01616765934954273,0.0,0.0,-0.6,0.0,0.0056610107421875,0.010902643203735352,0
2.4527575969696045,-0.013749586418271065,0.004438748583197594,-0.5461773872375488,-0.0025017686703841463,-0.5109090188614528,0.19617054952627538,-0.05497225897332977,0.01616765934954273,0.0,0.0,-0.6,0.0,0.0015413761138916016,0.006003856658935547,0
2.4616737365722656,-0.013624483719468117,0.004246112424880266,-0.5456544756889343,-0.0025045581909887947,-0.5105537180376993,0.19576561991908797,-0.08088534525934747,0.016204482341722348,0.0,0.0,-0.6,0.0,0.0054111480712890625,0.009600400924682617,0
2.4748857021331787,-0.013533445075154305,0.004150081891566515,-0.5453878045082092,-0.002429183945902933,-0.5112131491563602,0.18309375095468164,-0.0833424909873535,0.015714989857641297,0.0,0.0,-0.6,0.0,0.005225419998168945,0.010103464126586914,0
2.4880924224853516,-0.013303621672093868,0.003983655478805304,-0.5448124408721924,-0.0022269848641991844,-0.511386070921313,0.1559965835915292,-0.08855514792891025,0.014400444201872914,0.0,0.0,-0.6,0.0,0.005550861358642578,0.010295629501342773,0
2.5007596015930176,-0.013303621672093868,0.003983655478805304,-0.5448124408721924,-0.0022269848641991844,-0.511386070921313,0.1559965835915292,-0.08855514792891025,0.014400444201872914,0.0,0.0,-0.6,0.0,0.0015501976013183594,0.00585627555847168,0
2.5099854469299316,-0.013077865354716778,0.0038290172815322876,-0.5442944765090942,-0.002080550914128431,-0.5115406078672962,0.11767766631297209,-0.0951535296250514,0.01342903832058384,0.0,0.0,-0.6,0.0,0.005147695541381836,0.010020017623901367,0
2.5215437412261963,-0.013077865354716778,0.0038290172815322876,-0.5442944765090942,-0.002080550914128431,-0.5115406078672962,0.11767766631297209,-0.0951535296250514,0.01342903832058384,0.0,0.0,-0.6,0.0,0.0013530254364013672,0.005287647247314453,0
2.5301668643951416,-0.01285946648567915,0.003689713077619672,-0.5437580943107605,-0.0019152658101876552,-0.5115761973281647,0.08890938934695522,-0.07535792935175811,0.012324214929209971,0.0,0.0,-0.6,0.0,0.004814863204956055,0.008825540542602539,0
2.5407304763793945,-0.01285946648567915,0.003689713077619672,-0.5437580943107605,-0.0019152658101876552,-0.5115761973281647,0.08890938934695522,-0.07535792935175811,0.012324214929209971,0.0,0.0,-0.6,0.0,0.0016071796417236328,0.0067882537841796875,0
2.5498979091644287,-0.012627500109374523,0.0034895704593509436,-0.5432908535003662,-0.0017982681839079219,-0.5114186176859165,0.07481642974676382,-0.04055684042648174,0.011545449568784007,0.0,0.0,-0.6,0.0,0.0054552555084228516,0.009872674942016602,0
2.5618839263916016,-0.012627500109374523,0.0034895704593509436,-0.5432908535003662,-0.0017982681839079219,-0.5114186176859165,0.07481642974676382,-0.04055684042648174,0.011545449568784007,0.0,0.0,-0.6,0.0,0.0012040138244628906,0.005410432815551758,0
2.5714776515960693,-0.012437522411346436,0.0032397087197750807,-0.5428380966186523,-0.0015311736927044804,-0.5114678498519513,0.047868828820284676,-0.010272293920825586,0.009813977715097365,0.0,0.0,-0.6,0.0,0.005506753921508789,0.009957313537597656,0
2.5842862129211426,-0.012250266037881374,0.0029279557056725025,-0.5424013733863831,-0.0012248451194568312,-0.5110314957660633,0.028933630122674112,0.03050438668889329,0.0078549635391709,0.0,0.0,-0.6,0.0,0.004958629608154297,0.010249614715576172,0
2.596883535385132,-0.012250266037881374,0.0029279557056725025,-0.5424013733863831,-0.0012248451194568312,-0.5110314957660633,0.028933630122674112,0.03050438668889329,0.0078549635391709,0.0,0.0,-0.6,0.0,0.0014219284057617188,0.005932331085205078,0
2.6055822372436523,-0.012031723745167255,0.002596720354631543,-0.5419662594795227,-0.0011756471038504837,-0.5113397108547685,0.010254126612132932,0.07068115408167902,0.007551307969487481,0.0,0.0,-0.6,0.0,0.005108833312988281,0.010611772537231445,0
2.6175925731658936,-0.012031723745167255,0.002596720354631543,-0.5419662594795227,-0.0011756471038504837,-0.5113397108547685,0.010254126612132932,0.07068115408167902,0.007551307969487481,0.0,0.0,-0.6,0.0,0.001394510269165039,0.006304264068603516,0
2.6267566680908203,-0.011781062930822372,0.002237787703052163,-0.5415324568748474,-0.001114784362934062,-0.5113705583888333,-0.008973187659832373,0.09236675259406135,0.00716664221983913,0.0,0.0,-0.6,0.0,0.0056915283203125,0.010018110275268555,0
2.6384763717651367,-0.011781062930822372,0.002237787703052163,-0.5415324568748474,-0.001114784362934062,-0.5113705583888333,-0.008973187659832373,0.09236675259406135,0.00716664221983913,0.0,0.0,-0.6,0.0,0.0013704299926757812,0.006994962692260742,0
2.648353338241577,-0.011530601419508457,0.0018993010744452477,-0.5411041378974915,-0.0010924535562572804,-0.5105522115151132,-0.026283055686306848,0.09853558173692101,0.0070216499619238665,0.0,0.0,-0.6,0.0,0.005102634429931641,0.009878873825073242,0
2.660163640975952,-0.011530601419508457,0.0018993010744452477,-0.5411041378974915,-0.0010924535562572804,-0.5105522115151132,-0.026283055686306848,0.09853558173692101,0.0070216499619238665,0.0,0.0,-0.6,0.0,0.0015745162963867188,0.005985260009765625,0
2.670611619949341,-0.011287158355116844,0.0015611926792189479,-0.5407772064208984,-0.001037431836519118,-0.5098389279142752,-0.04604726300648532,0.07666013620887148,0.00663939886482845,0.0,0.0,-0.6,0.0,0.005243539810180664,0.010005474090576172,0
2.682347059249878,-0.011287158355116844,0.0015611926792189479,-0.5407772064208984,-0.001037431836519118,-0.5098389279142752,-0.04604726300648532,0.07666013620887148,0.00663939886482845,0.0,0.0,-0.6,0.0,0.0017273426055908203,0.006356477737426758,0
