time,x,y,z,yaw,throttle,roll_rate,pitch_rate,yaw_rate,x_ref,y_ref,z_ref,yaw_ref,mpc_time,ctrl_callback_time_history,metadata
4.0531158447265625e-06,-0.041228827089071274,0.019666682928800583,-0.24195919930934906,0.04865234430308837,-0.6352876862810565,-0.23272159262935904,-0.23018345072736962,-0.3112962499719614,0.0,0.0,-0.6,0.0,0.016466856002807617,0.020671844482421875,Hardware
0.022462844848632812,-0.041228827089071274,0.019666682928800583,-0.24195919930934906,0.04865234430308837,-0.6352876862810565,-0.23272159262935904,-0.23018345072736962,-0.3112962499719614,0.0,0.0,-0.6,0.0,0.001058816909790039,0.00503087043762207,2x Speed
0.03003668785095215,-0.04126454144716263,0.01969013176858425,-0.24196016788482666,0.04863655001603212,-0.6352876862610367,-0.23384691133447738,-0.23680604026761237,-0.31119992374954225,0.0,0.0,-0.6,0.0,0.0071315765380859375,0.010973691940307617,Horizon:3.0
0.04301333427429199,-0.04126454144716263,0.01969013176858425,-0.24196016788482666,0.04863655001603212,-0.6352876862610367,-0.23384691133447738,-0.23680604026761237,-0.31119992374954225,0.0,0.0,-0.6,0.0,0.001085519790649414,0.005188941955566406,Num Steps:20
0.05017828941345215,-0.04127473384141922,0.01970875822007656,-0.24196183681488037,0.048658291603368514,-0.6352876862315635,-0.23216818568974637,-0.23411729447515475,-0.31133527722318377,0.0,0.0,-0.6,0.0,0.007272958755493164,0.011184930801391602,No Pyjoules
0.06328487396240234,-0.04127473384141922,0.01970875822007656,-0.24196183681488037,0.048658291603368514,-0.6352876862315635,-0.23216818568974637,-0.23411729447515475,-0.31133527722318377,0.0,0.0,-0.6,0.0,0.0011267662048339844,0.005175352096557617,0
0.07043671607971191,-0.04129226505756378,0.01972236856818199,-0.2419803887605667,0.048511698561374834,-0.6352876860017259,-0.23021710486531619,-0.2368590822004987,-0.3103979788061003,0.0,0.0,-0.6,0.0,0.007242918014526367,0.011026382446289062,0
0.08335399627685547,-0.04129226505756378,0.01972236856818199,-0.2419803887605667,0.048511698561374834,-0.6352876860017259,-0.23021710486531619,-0.2368590822004987,-0.3103979788061003,0.0,0.0,-0.6,0.0,0.001107931137084961,0.0047299861907958984,0
0.09013628959655762,-0.0413103923201561,0.019740015268325806,-0.24201324582099915,0.04853547499238873,-0.6352876860651313,-0.22336859625137495,-0.2394827270985998,-0.3105533989992918,0.0,0.0,-0.6,0.0,0.007388591766357422,0.011214256286621094,0
0.10386300086975098,-0.0413103923201561,0.019740015268325806,-0.24201324582099915,0.04853547499238873,-0.6352876860651313,-0.22336859625137495,-0.2394827270985998,-0.3105533989992918,0.0,0.0,-0.6,0.0,0.0010836124420166016,0.004898786544799805,0
0.11067652702331543,-0.041329026222229004,0.019748114049434662,-0.24208685755729675,0.048550135910544356,-0.6352876859820831,-0.21997827994258862,-0.2440011767877405,-0.3106457929714918,0.0,0.0,-0.6,0.0,0.007303714752197266,0.01120448112487793,0
0.12372779846191406,-0.041329026222229004,0.019748114049434662,-0.24208685755729675,0.048550135910544356,-0.6352876859820831,-0.21997827994258862,-0.2440011767877405,-0.3106457929714918,0.0,0.0,-0.6,0.0,0.0011243820190429688,0.004784822463989258,0
0.13057255744934082,-0.04129224270582199,0.019765809178352356,-0.2422235906124115,0.04737298174929671,-0.6352876853161732,-0.2307487355043531,-0.19959790080261927,-0.3031071704750586,0.0,0.0,-0.6,0.0,0.008437395095825195,0.012408733367919922,0
0.14426612854003906,-0.04129224270582199,0.019765809178352356,-0.2422235906124115,0.04737298174929671,-0.6352876853161732,-0.2307487355043531,-0.19959790080261927,-0.3031071704750586,0.0,0.0,-0.6,0.0,0.0011131763458251953,0.00480198860168457,0
0.15157270431518555,-0.041108645498752594,0.019726766273379326,-0.2424474060535431,0.047186029227511084,-0.6352876840014029,-0.22188957664339337,-0.14618782182075565,-0.3018915811477071,0.0,0.0,-0.6,0.0,0.008812904357910156,0.012595176696777344,0
0.16559147834777832,-0.041108645498752594,0.019726766273379326,-0.2424474060535431,0.047186029227511084,-0.6352876840014029,-0.22188957664339337,-0.14618782182075565,-0.3018915811477071,0.0,0.0,-0.6,0.0,0.0010726451873779297,0.0049495697021484375,0
0.17308497428894043,-0.04069031774997711,0.0195574089884758,-0.24293513596057892,0.04774151291741016,-0.6352876685190811,-0.1853347562367207,-0.0852030543025729,-0.3054259051091522,0.0,0.0,-0.6,0.0,0.0075991153717041016,0.011443853378295898,0
0.1863558292388916,-0.04007909446954727,0.01923837512731552,-0.24390769004821777,0.047811576244725276,-0.6352876855689535,-0.11232460551033986,-0.01932901158702783,-0.30583683733948047,0.0,0.0,-0.6,0.0,0.008504867553710938,0.012629508972167969,0
0.20157980918884277,-0.04007909446954727,0.01923837512731552,-0.24390769004821777,0.047811576244725276,-0.6352876855689535,-0.11232460551033986,-0.01932901158702783,-0.30583683733948047,0.0,0.0,-0.6,0.0,0.0010578632354736328,0.005009174346923828,0
0.20849156379699707,-0.039280183613300323,0.018702704459428787,-0.2455727458000183,0.04791557352321342,-0.6310892892882511,-0.04471748366358578,0.05540644756968045,-0.3064613454353297,0.0,0.0,-0.6,0.0,0.006427288055419922,0.010274410247802734,0
0.22026562690734863,-0.039280183613300323,0.018702704459428787,-0.2455727458000183,0.04791557352321342,-0.6310892892882511,-0.04471748366358578,0.05540644756968045,-0.3064613454353297,0.0,0.0,-0.6,0.0,0.0010938644409179688,0.0050160884857177734,0
0.2275846004486084,-0.03845754265785217,0.018019123002886772,-0.24782104790210724,0.047544318584036134,-0.6223698743917933,0.046418982191724384,0.15694512614030154,-0.30401183770743345,0.0,0.0,-0.6,0.0,0.006752729415893555,0.010639190673828125,0
0.2395610809326172,-0.03845754265785217,0.018019123002886772,-0.24782104790210724,0.047544318584036134,-0.6223698743917933,0.046418982191724384,0.15694512614030154,-0.30401183770743345,0.0,0.0,-0.6,0.0,0.001119852066040039,0.004963874816894531,0
0.2477126121520996,-0.037547241896390915,0.017248336225748062,-0.2509428858757019,0.0466916833876048,-0.614867580787506,0.1447893550912142,0.2399570498284773,-0.29845524885634306,0.0,0.0,-0.6,0.0,0.00693511962890625,0.01112818717956543,0
0.26008176803588867,-0.037547241896390915,0.017248336225748062,-0.2509428858757019,0.0466916833876048,-0.614867580787506,0.1447893550912142,0.2399570498284773,-0.29845524885634306,0.0,0.0,-0.6,0.0,0.0010752677917480469,0.005036354064941406,0
0.2671530246734619,-0.036555320024490356,0.016405416652560234,-0.25504812598228455,0.04546873171415137,-0.6055154967900478,0.2100103704718698,0.27334922217833607,-0.2905446219504877,0.0,0.0,-0.6,0.0,0.006495475769042969,0.01051187515258789,0
0.2795116901397705,-0.036555320024490356,0.016405416652560234,-0.25504812598228455,0.04546873171415137,-0.6055154967900478,0.2100103704718698,0.27334922217833607,-0.2905446219504877,0.0,0.0,-0.6,0.0,0.0011255741119384766,0.005003929138183594,0
0.2876167297363281,-0.03554248809814453,0.015511872246861458,-0.26012375950813293,0.04392340339680639,-0.5957676703965046,0.2549650730648727,0.35461336513002906,-0.280627964457641,0.0,0.0,-0.6,0.0,0.006470203399658203,0.010336637496948242,0
0.29975366592407227,-0.03554248809814453,0.015511872246861458,-0.26012375950813293,0.04392340339680639,-0.5957676703965046,0.2549650730648727,0.35461336513002906,-0.280627964457641,0.0,0.0,-0.6,0.0,0.0011916160583496094,0.004996538162231445,0
0.30798959732055664,-0.03448710963129997,0.014525709673762321,-0.26622074842453003,0.04212218458768747,-0.5870632075894918,0.3132281774330627,0.3997287934564873,-0.26900298104098347,0.0,0.0,-0.6,0.0,0.006079673767089844,0.009913921356201172,0
0.3192105293273926,-0.03448710963129997,0.014525709673762321,-0.26622074842453003,0.04212218458768747,-0.5870632075894918,0.3132281774330627,0.3997287934564873,-0.26900298104098347,0.0,0.0,-0.6,0.0,0.0011363029479980469,0.0049817562103271484,0
0.3270697593688965,-0.03341574966907501,0.013529755175113678,-0.27314040064811707,0.04022904043307648,-0.5782666836123218,0.32219815227376886,0.4190286102284013,-0.2568895056068964,0.0,0.0,-0.6,0.0,0.006341457366943359,0.010364055633544922,0
0.33867692947387695,-0.03341574966907501,0.013529755175113678,-0.27314040064811707,0.04022904043307648,-0.5782666836123218,0.32219815227376886,0.4190286102284013,-0.2568895056068964,0.0,0.0,-0.6,0.0,0.0010671615600585938,0.0048825740814208984,0
0.3469834327697754,-0.03227207064628601,0.012574519962072372,-0.28076663613319397,0.0377895590615181,-0.5689398368363527,0.33294970151225717,0.49316812544360755,-0.24131099828600686,0.0,0.0,-0.6,0.0,0.0064318180084228516,0.010398387908935547,0
0.358673095703125,-0.03227207064628601,0.012574519962072372,-0.28076663613319397,0.0377895590615181,-0.5689398368363527,0.33294970151225717,0.49316812544360755,-0.24131099828600686,0.0,0.0,-0.6,0.0,0.0010967254638671875,0.004929304122924805,0
0.3669307231903076,-0.031100206077098846,0.01160434354096651,-0.2891561985015869,0.03509071492588417,-0.5622606738697304,0.3102295235209921,0.4893910547847723,-0.22404938432368743,0.0,0.0,-0.6,0.0,0.006353855133056641,0.01020669937133789,0
0.3785068988800049,-0.031100206077098846,0.01160434354096651,-0.2891561985015869,0.03509071492588417,-0.5622606738697304,0.3102295235209921,0.4893910547847723,-0.22404938432368743,0.0,0.0,-0.6,0.0,0.0011050701141357422,0.004879951477050781,0
0.38692331314086914,-0.029759680852293968,0.010610805824398994,-0.29822227358818054,0.03222834131166364,-0.5541916341132556,0.24572457349848034,0.47267570728270936,-0.2058048035516156,0.0,0.0,-0.6,0.0,0.006494283676147461,0.01031494140625,0
0.39914560317993164,-0.029759680852293968,0.010610805824398994,-0.29822227358818054,0.03222834131166364,-0.5541916341132556,0.24572457349848034,0.47267570728270936,-0.2058048035516156,0.0,0.0,-0.6,0.0,0.0010845661163330078,0.004908561706542969,0
0.40732741355895996,-0.028441358357667923,0.009650801308453083,-0.3075914680957794,0.029201758534295793,-0.5478183790028865,0.18665980957711392,0.46847786443439277,-0.18648145862523655,0.0,0.0,-0.6,0.0,0.0064411163330078125,0.010328054428100586,0
0.4189717769622803,-0.028441358357667923,0.009650801308453083,-0.3075914680957794,0.029201758534295793,-0.5478183790028865,0.18665980957711392,0.46847786443439277,-0.18648145862523655,0.0,0.0,-0.6,0.0,0.0011560916900634766,0.0049686431884765625,0
0.42704248428344727,-0.02716958336532116,0.008623783476650715,-0.3175167441368103,0.026196630693299222,-0.5416083706820566,0.15437748194309026,0.36625962875253193,-0.1672259377142686,0.0,0.0,-0.6,0.0,0.006440162658691406,0.010368585586547852,0
0.43872880935668945,-0.02716958336532116,0.008623783476650715,-0.3175167441368103,0.026196630693299222,-0.5416083706820566,0.15437748194309026,0.36625962875253193,-0.1672259377142686,0.0,0.0,-0.6,0.0,0.0010704994201660156,0.004873991012573242,0
0.44693708419799805,-0.02591974288225174,0.007618194445967674,-0.32762059569358826,0.02336472064628283,-0.5370839093418257,0.10625749321244772,0.2924753204174784,-0.14914657556727845,0.0,0.0,-0.6,0.0,0.006382465362548828,0.010265350341796875,0
0.45859646797180176,-0.02591974288225174,0.007618194445967674,-0.32762059569358826,0.02336472064628283,-0.5370839093418257,0.10625749321244772,0.2924753204174784,-0.14914657556727845,0.0,0.0,-0.6,0.0,0.0010745525360107422,0.004731178283691406,0
0.46704888343811035,-0.024594377726316452,0.006524465046823025,-0.3379634618759155,0.020722845203638506,-0.5323933913114658,0.06392815418853852,0.2162688384068944,-0.13230442483534696,0.0,0.0,-0.6,0.0,0.00650787353515625,0.010323762893676758,0
0.47873973846435547,-0.024594377726316452,0.006524465046823025,-0.3379634618759155,0.020722845203638506,-0.5323933913114658,0.06392815418853852,0.2162688384068944,-0.13230442483534696,0.0,0.0,-0.6,0.0,0.0010561943054199219,0.004984140396118164,0
0.486954927444458,-0.023352229967713356,0.005376480054110289,-0.3484037220478058,0.018260999842264713,-0.5303182416013549,-0.003084553399376095,0.17595092154430508,-0.1166087720315643,0.0,0.0,-0.6,0.0,0.006265878677368164,0.0101165771484375,0
0.49899840354919434,-0.023352229967713356,0.005376480054110289,-0.3484037220478058,0.018260999842264713,-0.5303182416013549,-0.003084553399376095,0.17595092154430508,-0.1166087720315643,0.0,0.0,-0.6,0.0,0.0010924339294433594,0.005048513412475586,0
0.5073220729827881,-0.022030923515558243,0.004188124556094408,-0.3587873876094818,0.015985819573547763,-0.5264046949202587,-0.01616306230917468,0.15538082781838503,-0.10204903103407446,0.0,0.0,-0.6,0.0,0.006266593933105469,0.010248899459838867,0
0.5187990665435791,-0.022030923515558243,0.004188124556094408,-0.3587873876094818,0.015985819573547763,-0.5264046949202587,-0.01616306230917468,0.15538082781838503,-0.10204903103407446,0.0,0.0,-0.6,0.0,0.001035451889038086,0.0049800872802734375,0
0.5275416374206543,-0.020719511434435844,0.0029676142148673534,-0.3691810071468353,0.013665906250790437,-0.524047665896204,-0.053452896835897774,0.09338807411167124,-0.08727022818828324,0.0,0.0,-0.6,0.0,0.0062863826751708984,0.010076522827148438,0
0.5390045642852783,-0.020719511434435844,0.0029676142148673534,-0.3691810071468353,0.013665906250790437,-0.524047665896204,-0.053452896835897774,0.09338807411167124,-0.08727022818828324,0.0,0.0,-0.6,0.0,0.0010938644409179688,0.0052700042724609375,0
0.547682523727417,-0.019417395815253258,0.0018101155292242765,-0.37936052680015564,0.01160231124817699,-0.5212324730304676,-0.07382993925343691,0.06766210932131934,-0.07407338838582751,0.0,0.0,-0.6,0.0,0.006165981292724609,0.010030508041381836,0
0.5590267181396484,-0.019417395815253258,0.0018101155292242765,-0.37936052680015564,0.01160231124817699,-0.5212324730304676,-0.07382993925343691,0.06766210932131934,-0.07407338838582751,0.0,0.0,-0.6,0.0,0.0010895729064941406,0.004929065704345703,0
0.566979169845581,-0.018120039254426956,0.0006627963157370687,-0.38946467638015747,0.009712973000908964,-0.5188468295993998,-0.07327898704154884,0.013897368615441288,-0.062064625018314015,0.0,0.0,-0.6,0.0,0.005762815475463867,0.010136127471923828,0
0.5784893035888672,-0.018120039254426956,0.0006627963157370687,-0.38946467638015747,0.009712973000908964,-0.5188468295993998,-0.07327898704154884,0.013897368615441288,-0.062064625018314015,0.0,0.0,-0.6,0.0,0.0010492801666259766,0.005063295364379883,0
0.5869863033294678,-0.01696069724857807,-0.0004336526617407799,-0.39947324991226196,0.00787096186831078,-0.5171351648756695,-0.07234455726636146,-0.04000012403761154,-0.05036386237027665,0.0,0.0,-0.6,0.0,0.00574946403503418,0.009853124618530273,0
0.5987889766693115,-0.01696069724857807,-0.0004336526617407799,-0.39947324991226196,0.00787096186831078,-0.5171351648756695,-0.07234455726636146,-0.04000012403761154,-0.05036386237027665,0.0,0.0,-0.6,0.0,0.0011138916015625,0.004938364028930664,0
0.6069924831390381,-0.015834851190447807,-0.0014384262030944228,-0.40932631492614746,0.006050204974621353,-0.5156406673718413,-0.06385880190994458,-0.0397825286238635,-0.03871920222907707,0.0,0.0,-0.6,0.0,0.006397247314453125,0.010210037231445312,0
0.6185140609741211,-0.015834851190447807,-0.0014384262030944228,-0.40932631492614746,0.006050204974621353,-0.5156406673718413,-0.06385880190994458,-0.0397825286238635,-0.03871920222907707,0.0,0.0,-0.6,0.0,0.0010404586791992188,0.0048716068267822266,0
0.6268937587738037,-0.014721071347594261,-0.00236100354231894,-0.41906261444091797,0.004175172590182289,-0.5140876184388946,-0.03693586905428589,-0.055372689750313266,-0.02678999737725409,0.0,0.0,-0.6,0.0,0.00680232048034668,0.010798215866088867,0
0.6391086578369141,-0.014721071347594261,-0.00236100354231894,-0.41906261444091797,0.004175172590182289,-0.5140876184388946,-0.03693586905428589,-0.055372689750313266,-0.02678999737725409,0.0,0.0,-0.6,0.0,0.0011336803436279297,0.0049724578857421875,0
0.6472165584564209,-0.01368736568838358,-0.003240603022277355,-0.4286212921142578,0.002469311062897809,-0.5123887255614181,0.004711902357443291,-0.10182062369640889,-0.016017208914483595,0.0,0.0,-0.6,0.0,0.0064237117767333984,0.010300636291503906,0
0.6589057445526123,-0.01368736568838358,-0.003240603022277355,-0.4286212921142578,0.002469311062897809,-0.5123887255614181,0.004711902357443291,-0.10182062369640889,-0.016017208914483595,0.0,0.0,-0.6,0.0,0.0010900497436523438,0.0049686431884765625,0
0.6669979095458984,-0.012787871062755585,-0.00405863206833601,-0.43791434168815613,0.0009624775130909475,-0.5112043715492796,0.040551466743341966,-0.14408069475288054,-0.006499581856764887,0.0,0.0,-0.6,0.0,0.006316423416137695,0.010355710983276367,0
0.6787130832672119,-0.012787871062755585,-0.00405863206833601,-0.43791434168815613,0.0009624775130909475,-0.5112043715492796,0.040551466743341966,-0.14408069475288054,-0.006499581856764887,0.0,0.0,-0.6,0.0,0.0010476112365722656,0.005014181137084961,0
0.6869473457336426,-0.011981984600424767,-0.004851961508393288,-0.44693896174430847,-0.000487978798871314,-0.511321984002489,0.08047047114731774,-0.16894128101677655,0.00268480524540209,0.0,0.0,-0.6,0.0,0.006117105484008789,0.00989532470703125,0
0.6988606452941895,-0.011981984600424767,-0.004851961508393288,-0.44693896174430847,-0.000487978798871314,-0.511321984002489,0.08047047114731774,-0.16894128101677655,0.00268480524540209,0.0,0.0,-0.6,0.0,0.0011365413665771484,0.005064249038696289,0
0.707075834274292,-0.011295150965452194,-0.005670052021741867,-0.4556168019771576,-0.001975159121499155,-0.5114835135103964,0.10641728805814937,-0.20163754532687253,0.012124914211082588,0.0,0.0,-0.6,0.0,0.006237506866455078,0.010247468948364258,0
0.7186973094940186,-0.011295150965452194,-0.005670052021741867,-0.4556168019771576,-0.001975159121499155,-0.5114835135103964,0.10641728805814937,-0.20163754532687253,0.012124914211082588,0.0,0.0,-0.6,0.0,0.0010516643524169922,0.0049326419830322266,0
0.7268288135528564,-0.010728374123573303,-0.006469904910773039,-0.46400073170661926,-0.003404893688354508,-0.5107745743886591,0.09322991009227292,-0.2073712421714507,0.0213034900274959,0.0,0.0,-0.6,0.0,0.006320476531982422,0.010325193405151367,0
0.7385356426239014,-0.010728374123573303,-0.006469904910773039,-0.46400073170661926,-0.003404893688354508,-0.5107745743886591,0.09322991009227292,-0.2073712421714507,0.0213034900274959,0.0,0.0,-0.6,0.0,0.0010540485382080078,0.0048065185546875,0
0.7472388744354248,-0.010218027047812939,-0.00719069316983223,-0.47206950187683105,-0.0047357704525869,-0.5113947046784619,0.04868928226225653,-0.18256106369665215,0.029932838211087234,0.0,0.0,-0.6,0.0,0.006030082702636719,0.010149955749511719,0
0.758697509765625,-0.010218027047812939,-0.00719069316983223,-0.47206950187683105,-0.0047357704525869,-0.5113947046784619,0.04868928226225653,-0.18256106369665215,0.029932838211087234,0.0,0.0,-0.6,0.0,0.0010745525360107422,0.004923343658447266,0
0.7669217586517334,-0.009737439453601837,-0.007806937210261822,-0.4797327220439911,-0.006005789363231538,-0.5142162586714506,-0.015994180479765342,-0.152093570450606,0.03819129886942367,0.0,0.0,-0.6,0.0,0.006357431411743164,0.010404825210571289,0
0.778634786605835,-0.009737439453601837,-0.007806937210261822,-0.4797327220439911,-0.006005789363231538,-0.5142162586714506,-0.015994180479765342,-0.152093570450606,0.03819129886942367,0.0,0.0,-0.6,0.0,0.0010716915130615234,0.00489044189453125,0
0.7876479625701904,-0.009311532601714134,-0.008383131586015224,-0.48688867688179016,-0.0072252357730804954,-0.515191140403632,-0.03563038292171239,-0.12801276546774618,0.0460362007487332,0.0,0.0,-0.6,0.0,0.005456209182739258,0.009267330169677734,0
0.7987864017486572,-0.009311532601714134,-0.008383131586015224,-0.48688867688179016,-0.0072252357730804954,-0.515191140403632,-0.03563038292171239,-0.12801276546774618,0.0460362007487332,0.0,0.0,-0.6,0.0,0.0011663436889648438,0.004983663558959961,0
0.8076820373535156,-0.008887650445103645,-0.008935495279729366,-0.49369895458221436,-0.008392674140891603,-0.5161435917430977,-0.03471443863713534,-0.09461740555086227,0.053529667890511,0.0,0.0,-0.6,0.0,0.005452632904052734,0.009511232376098633,0
0.8184750080108643,-0.008887650445103645,-0.008935495279729366,-0.49369895458221436,-0.008392674140891603,-0.5161435917430977,-0.03471443863713534,-0.09461740555086227,0.053529667890511,0.0,0.0,-0.6,0.0,0.0010907649993896484,0.004854440689086914,0
0.8268916606903076,-0.00846819207072258,-0.00942966714501381,-0.500264585018158,-0.009475756505260634,-0.516819550023589,-0.025577756849350614,-0.06875066219999335,0.0604729137121863,0.0,0.0,-0.6,0.0,0.005602836608886719,0.009447336196899414,0
0.8377699851989746,-0.00846819207072258,-0.00942966714501381,-0.500264585018158,-0.009475756505260634,-0.516819550023589,-0.025577756849350614,-0.06875066219999335,0.0604729137121863,0.0,0.0,-0.6,0.0,0.0011031627655029297,0.005204200744628906,0
0.84694504737854,-0.008077135309576988,-0.00988544337451458,-0.5064935088157654,-0.010380427558358855,-0.5182001550903869,0.010283411100492716,-0.05980339125245631,0.06624781553048918,0.0,0.0,-0.6,0.0,0.005249500274658203,0.00932168960571289,0
0.857628345489502,-0.008077135309576988,-0.00988544337451458,-0.5064935088157654,-0.010380427558358855,-0.5182001550903869,0.010283411100492716,-0.05980339125245631,0.06624781553048918,0.0,0.0,-0.6,0.0,0.0010921955108642578,0.0049822330474853516,0
0.8669312000274658,-0.007763822562992573,-0.010361602529883385,-0.5123350024223328,-0.011271269655350634,-0.5192425116730117,0.03843714095185895,-0.058332620252656904,0.07194598822063632,0.0,0.0,-0.6,0.0,0.0054018497467041016,0.009390592575073242,0
0.877699613571167,-0.007763822562992573,-0.010361602529883385,-0.5123350024223328,-0.011271269655350634,-0.5192425116730117,0.03843714095185895,-0.058332620252656904,0.07194598822063632,0.0,0.0,-0.6,0.0,0.001096963882446289,0.005319118499755859,0
0.8872079849243164,-0.00754175428301096,-0.0108384033665061,-0.5178645849227905,-0.012027320321115155,-0.5199444705913385,0.04087228090465155,-0.03642454235698602,0.07682729010315954,0.0,0.0,-0.6,0.0,0.005304574966430664,0.009292364120483398,0
0.8984367847442627,-0.00754175428301096,-0.0108384033665061,-0.5178645849227905,-0.012027320321115155,-0.5199444705913385,0.04087228090465155,-0.03642454235698602,0.07682729010315954,0.0,0.0,-0.6,0.0,0.0010483264923095703,0.004914522171020508,0
0.907379150390625,-0.007392588537186384,-0.011268462054431438,-0.5231159925460815,-0.012731859126180299,-0.5211248412821651,0.005298285877551878,0.0003755457989397731,0.08139355295046262,0.0,0.0,-0.6,0.0,0.005453348159790039,0.009415149688720703,0
0.9181921482086182,-0.007392588537186384,-0.011268462054431438,-0.5231159925460815,-0.012731859126180299,-0.5211248412821651,0.005298285877551878,0.0003755457989397731,0.08139355295046262,0.0,0.0,-0.6,0.0,0.001065969467163086,0.00496983528137207,0
0.9269227981567383,-0.0072713750414550304,-0.01157870888710022,-0.5281078219413757,-0.013217360658686169,-0.5226286409236919,-0.048031086757109036,0.036695145500413834,0.08454026858543989,0.0,0.0,-0.6,0.0,0.005295515060424805,0.009126663208007812,0
0.9375567436218262,-0.0072713750414550304,-0.01157870888710022,-0.5281078219413757,-0.013217360658686169,-0.5226286409236919,-0.048031086757109036,0.036695145500413834,0.08454026858543989,0.0,0.0,-0.6,0.0,0.0010986328125,0.0051577091217041016,0
0.9469771385192871,-0.007168249227106571,-0.011808370240032673,-0.5328285694122314,-0.013535459206181603,-0.5235786931351649,-0.07682428511045078,0.07046192366143919,0.0866108119396838,0.0,0.0,-0.6,0.0,0.006106853485107422,0.010252237319946289,0
0.9587423801422119,-0.007168249227106571,-0.011808370240032673,-0.5328285694122314,-0.013535459206181603,-0.5235786931351649,-0.07682428511045078,0.07046192366143919,0.0866108119396838,0.0,0.0,-0.6,0.0,0.001157999038696289,0.0048525333404541016,0
0.9670231342315674,-0.007090338971465826,-0.012008190155029297,-0.537285327911377,-0.013792490599882802,-0.5247545146021505,-0.09290610928306493,0.08479043177393804,0.08826477315652437,0.0,0.0,-0.6,0.0,0.005624294281005859,0.009361982345581055,0
0.9777543544769287,-0.007090338971465826,-0.012008190155029297,-0.537285327911377,-0.013792490599882802,-0.5247545146021505,-0.09290610928306493,0.08479043177393804,0.08826477315652437,0.0,0.0,-0.6,0.0,0.0010612010955810547,0.00484776496887207,0
0.987023115158081,-0.007027707528322935,-0.01219177059829235,-0.5415146350860596,-0.013862686380123031,-0.5258523491299256,-0.0940137716111868,0.07849122789408099,0.08870036339012362,0.0,0.0,-0.6,0.0,0.005742549896240234,0.009920120239257812,0
0.9989809989929199,-0.007027707528322935,-0.01219177059829235,-0.5415146350860596,-0.013862686380123031,-0.5258523491299256,-0.0940137716111868,0.07849122789408099,0.08870036339012362,0.0,0.0,-0.6,0.0,0.0010879039764404297,0.0047228336334228516,0
1.0069279670715332,-0.006981558166444302,-0.012339957989752293,-0.5455415844917297,-0.013940300928196333,-0.5270534584926716,-0.09736669219570564,0.053570010765618806,0.089154571293936,0.0,0.0,-0.6,0.0,0.005646705627441406,0.009695053100585938,0
1.0180349349975586,-0.006981558166444302,-0.012339957989752293,-0.5455415844917297,-0.013940300928196333,-0.5270534584926716,-0.09736669219570564,0.053570010765618806,0.089154571293936,0.0,0.0,-0.6,0.0,0.0010504722595214844,0.00513458251953125,0
1.0273380279541016,-0.006945753004401922,-0.012416645884513855,-0.5493177771568298,-0.013898317045999331,-0.5281058873197321,-0.10599844808638278,0.019006444822069618,0.08882753371586456,0.0,0.0,-0.6,0.0,0.005231618881225586,0.009064197540283203,0
1.0376994609832764,-0.006945753004401922,-0.012416645884513855,-0.5493177771568298,-0.013898317045999331,-0.5281058873197321,-0.10599844808638278,0.019006444822069618,0.08882753371586456,0.0,0.0,-0.6,0.0,0.0010559558868408203,0.0048847198486328125,0
1.046926736831665,-0.006913192570209503,-0.012428205460309982,-0.5528176426887512,-0.013714389760787631,-0.5300501816917534,-0.11558207566545133,-0.010757259873058657,0.08759993389447632,0.0,0.0,-0.6,0.0,0.0062139034271240234,0.01017308235168457,0
1.0586142539978027,-0.006913192570209503,-0.012428205460309982,-0.5528176426887512,-0.013714389760787631,-0.5300501816917534,-0.11558207566545133,-0.010757259873058657,0.08759993389447632,0.0,0.0,-0.6,0.0,0.001111745834350586,0.005032539367675781,0
1.0668878555297852,-0.006911267526447773,-0.01243379432708025,-0.5560203790664673,-0.013383279753495613,-0.5313157162507921,-0.12437132775387875,-0.03702223474997738,0.08543612738463977,0.0,0.0,-0.6,0.0,0.0055768489837646484,0.009359598159790039,0
1.077643871307373,-0.006911267526447773,-0.01243379432708025,-0.5560203790664673,-0.013383279753495613,-0.5313157162507921,-0.12437132775387875,-0.03702223474997738,0.08543612738463977,0.0,0.0,-0.6,0.0,0.0010619163513183594,0.005016803741455078,0
1.0869512557983398,-0.0069415634498000145,-0.012458846904337406,-0.5589565634727478,-0.01293939835753589,-0.5320630068371562,-0.15160448553707262,-0.04104459892789362,0.08258044966091047,0.0,0.0,-0.6,0.0,0.005595684051513672,0.009503602981567383,0
1.098524808883667,-0.0069415634498000145,-0.012458846904337406,-0.5589565634727478,-0.01293939835753589,-0.5320630068371562,-0.15160448553707262,-0.04104459892789362,0.08258044966091047,0.0,0.0,-0.6,0.0,0.0010764598846435547,0.005007266998291016,0
1.106799840927124,-0.006994018796831369,-0.012466376647353172,-0.5616521239280701,-0.012551768835147699,-0.5329731082618011,-0.18292480140421472,-0.028695432740078863,0.08011437168111268,0.0,0.0,-0.6,0.0,0.005250453948974609,0.008980274200439453,0
1.1170804500579834,-0.006994018796831369,-0.012466376647353172,-0.5616521239280701,-0.012551768835147699,-0.5329731082618011,-0.18292480140421472,-0.028695432740078863,0.08011437168111268,0.0,0.0,-0.6,0.0,0.0010831356048583984,0.0048675537109375,0
1.1268932819366455,-0.007013767026364803,-0.01242642942816019,-0.5642104148864746,-0.012104586329535537,-0.5337651867848142,-0.20509820657351574,-0.0024521727143660813,0.07729084305916385,0.0,0.0,-0.6,0.0,0.005569934844970703,0.009613990783691406,0
1.1380538940429688,-0.007013767026364803,-0.01242642942816019,-0.5642104148864746,-0.012104586329535537,-0.5337651867848142,-0.20509820657351574,-0.0024521727143660813,0.07729084305916385,0.0,0.0,-0.6,0.0,0.0011894702911376953,0.005165576934814453,0
1.146989345550537,-0.006990164052695036,-0.012374836020171642,-0.5666046738624573,-0.011733438856798723,-0.5353437557150955,-0.19086214812048602,0.00901943949269823,0.07493641025042899,0.0,0.0,-0.6,0.0,0.004442930221557617,0.008342742919921875,0
1.1582767963409424,-0.006968508940190077,-0.012369499541819096,-0.5677289366722107,-0.011513921441934154,-0.5359712026847595,-0.1742369083474635,0.015985011517976638,0.07354522430525928,0.0,0.0,-0.6,0.0,0.004359245300292969,0.008306264877319336,0
1.1679904460906982,-0.006968508940190077,-0.012369499541819096,-0.5677289366722107,-0.011513921441934154,-0.5359712026847595,-0.1742369083474635,0.015985011517976638,0.07354522430525928,0.0,0.0,-0.6,0.0,0.0010542869567871094,0.004945278167724609,0
1.1772119998931885,-0.006886266637593508,-0.012363697402179241,-0.569861114025116,-0.01096187569890272,-0.5370753019061766,-0.14641414584400506,0.030890355530250702,0.07003443704364735,0.0,0.0,-0.6,0.0,0.005627155303955078,0.01039433479309082,0
1.1898541450500488,-0.006886266637593508,-0.012363697402179241,-0.569861114025116,-0.01096187569890272,-0.5370753019061766,-0.14641414584400506,0.030890355530250702,0.07003443704364735,0.0,0.0,-0.6,0.0,0.0012371540069580078,0.005864858627319336,0
1.1996638774871826,-0.0067637767642736435,-0.012343907728791237,-0.5718574523925781,-0.010273594605341699,-0.537511243899311,-0.11231986703008881,0.029744180462673252,0.06564158590973258,0.0,0.0,-0.6,0.0,0.004557371139526367,0.009137630462646484,0
1.210371732711792,-0.0067637767642736435,-0.012343907728791237,-0.5718574523925781,-0.010273594605341699,-0.537511243899311,-0.11231986703008881,0.029744180462673252,0.06564158590973258,0.0,0.0,-0.6,0.0,0.0011162757873535156,0.005610942840576172,0
1.2189269065856934,-0.006631473544985056,-0.012317385524511337,-0.5737264752388,-0.009562795964674034,-0.5378680361043336,-0.06323354693246334,0.032248570381638725,0.06112749492481321,0.0,0.0,-0.6,0.0,0.00425267219543457,0.009428977966308594,0
1.2304325103759766,-0.006631473544985056,-0.012317385524511337,-0.5737264752388,-0.009562795964674034,-0.5378680361043336,-0.06323354693246334,0.032248570381638725,0.06112749492481321,0.0,0.0,-0.6,0.0,0.0011572837829589844,0.005377292633056641,0
1.2380712032318115,-0.006513190921396017,-0.01228618435561657,-0.5754161477088928,-0.008870147985798951,-0.5392818586678619,-0.029130100882731613,0.046788224285258015,0.05673090866643507,0.0,0.0,-0.6,0.0,0.0051190853118896484,0.01006770133972168,0
1.2506980895996094,-0.006513190921396017,-0.01228618435561657,-0.5754161477088928,-0.008870147985798951,-0.5392818586678619,-0.029130100882731613,0.046788224285258015,0.05673090866643507,0.0,0.0,-0.6,0.0,0.0011289119720458984,0.006740570068359375,0
1.2592661380767822,-0.006430742796510458,-0.012265508994460106,-0.5769124627113342,-0.008251536342491136,-0.5402105448597702,0.00763966314938174,0.07424691834967823,0.05281794997366553,0.0,0.0,-0.6,0.0,0.004866600036621094,0.009776830673217773,0
1.2716152667999268,-0.006430742796510458,-0.012265508994460106,-0.5769124627113342,-0.008251536342491136,-0.5402105448597702,0.00763966314938174,0.07424691834967823,0.05281794997366553,0.0,0.0,-0.6,0.0,0.0013165473937988281,0.006483554840087891,0
1.2805140018463135,-0.006371058989316225,-0.012266842648386955,-0.5782623291015625,-0.007464174846199327,-0.5407499379424253,0.029128843574331643,0.10110701336024443,0.04780459890081159,0.0,0.0,-0.6,0.0,0.00542759895324707,0.010059118270874023,0
1.292947769165039,-0.006371058989316225,-0.012266842648386955,-0.5782623291015625,-0.007464174846199327,-0.5407499379424253,0.029128843574331643,0.10110701336024443,0.04780459890081159,0.0,0.0,-0.6,0.0,0.0016453266143798828,0.006391763687133789,0
1.3023571968078613,-0.006322003435343504,-0.012267501093447208,-0.5794715881347656,-0.006718663198101756,-0.5408973514972322,0.0550294365141692,0.14545031390694688,0.043054405481860895,0.0,0.0,-0.6,0.0,0.005575656890869141,0.009638547897338867,0
1.313976764678955,-0.006322003435343504,-0.012267501093447208,-0.5794715881347656,-0.006718663198101756,-0.5408973514972322,0.0550294365141692,0.14545031390694688,0.043054405481860895,0.0,0.0,-0.6,0.0,0.0011608600616455078,0.005739450454711914,0
1.3225984573364258,-0.006278070621192455,-0.012281954288482666,-0.5806431770324707,-0.006226055636201027,-0.5413670481166177,0.07706837911822709,0.16979188458318162,0.03990431295158115,0.0,0.0,-0.6,0.0,0.005761384963989258,0.010481119155883789,0
1.3348896503448486,-0.006264868192374706,-0.012271901592612267,-0.581774890422821,-0.005856591031825544,-0.5420929898209822,0.09077984612687903,0.18457029461906932,0.03753097289418241,0.0,0.0,-0.6,0.0,0.005051851272583008,0.009368419647216797,0
1.3470640182495117,-0.006264868192374706,-0.012271901592612267,-0.581774890422821,-0.005856591031825544,-0.5420929898209822,0.09077984612687903,0.18457029461906932,0.03753097289418241,0.0,0.0,-0.6,0.0,0.0011970996856689453,0.006457805633544922,0
1.3570432662963867,-0.006266656797379255,-0.012232601642608643,-0.5828442573547363,-0.005554213702382238,-0.5425091251243778,0.10360990059313803,0.18982142789757614,0.03559310611061789,0.0,0.0,-0.6,0.0,0.0056858062744140625,0.010701656341552734,0
1.3697245121002197,-0.006266656797379255,-0.012232601642608643,-0.5828442573547363,-0.005554213702382238,-0.5425091251243778,0.10360990059313803,0.18982142789757614,0.03559310611061789,0.0,0.0,-0.6,0.0,0.0013115406036376953,0.0061380863189697266,0
1.3790311813354492,-0.006243796553462744,-0.012164471670985222,-0.5838889479637146,-0.005325084612042574,-0.5431012557259746,0.1136131617144359,0.19034059974384285,0.034126798592348934,0.0,0.0,-0.6,0.0,0.004991054534912109,0.009318828582763672,0
1.390092372894287,-0.006243796553462744,-0.012164471670985222,-0.5838889479637146,-0.005325084612042574,-0.5431012557259746,0.1136131617144359,0.19034059974384285,0.034126798592348934,0.0,0.0,-0.6,0.0,0.0010662078857421875,0.006526470184326172,0
1.4003243446350098,-0.006192670203745365,-0.012087322771549225,-0.5848690271377563,-0.005192424443585545,-0.5435882005054646,0.11955998396056672,0.1756958551216127,0.033279854300406315,0.0,0.0,-0.6,0.0,0.0053174495697021484,0.010069608688354492,0
1.4124956130981445,-0.006128320470452309,-0.012011195532977581,-0.585856020450592,-0.005129802903869192,-0.5430057250636565,0.12705042358992305,0.13486845765139716,0.032893702624701794,0.0,0.0,-0.6,0.0,0.005309104919433594,0.009778022766113281,0
1.4244105815887451,-0.006128320470452309,-0.012011195532977581,-0.585856020450592,-0.005129802903869192,-0.5430057250636565,0.12705042358992305,0.13486845765139716,0.032893702624701794,0.0,0.0,-0.6,0.0,0.0011529922485351562,0.006713390350341797,0
1.4335110187530518,-0.006113470532000065,-0.011946425773203373,-0.586898922920227,-0.005011256176236691,-0.5425835094471181,0.12300547505671562,0.07164395845277685,0.03214068151662821,0.0,0.0,-0.6,0.0,0.004703521728515625,0.008816003799438477,0
1.4442734718322754,-0.006113470532000065,-0.011946425773203373,-0.586898922920227,-0.005011256176236691,-0.5425835094471181,0.12300547505671562,0.07164395845277685,0.03214068151662821,0.0,0.0,-0.6,0.0,0.0013842582702636719,0.006680727005004883,0
1.4536943435668945,-0.006140594836324453,-0.011901210993528366,-0.5880129337310791,-0.004918676292295842,-0.5420792437718681,0.11523662595989793,0.0051408328734900794,0.03153889911921041,0.0,0.0,-0.6,0.0,0.005082130432128906,0.009572029113769531,0
1.4659581184387207,-0.006140594836324453,-0.011901210993528366,-0.5880129337310791,-0.004918676292295842,-0.5420792437718681,0.11523662595989793,0.0051408328734900794,0.03153889911921041,0.0,0.0,-0.6,0.0,0.0013225078582763672,0.006235599517822266,0
1.4748551845550537,-0.006199459079653025,-0.011895365081727505,-0.5892190337181091,-0.00484475250308486,-0.5411592401973396,0.10882075643811204,-0.06354260291308154,0.03104417988021673,0.0,0.0,-0.6,0.0,0.004694700241088867,0.009777307510375977,0
1.4867804050445557,-0.006199459079653025,-0.011895365081727505,-0.5892190337181091,-0.00484475250308486,-0.5411592401973396,0.10882075643811204,-0.06354260291308154,0.03104417988021673,0.0,0.0,-0.6,0.0,0.0013794898986816406,0.006813764572143555,0
1.4960665702819824,-0.006282671820372343,-0.011905070394277573,-0.5905246734619141,-0.004792680134773098,-0.5406879841372918,0.08323696898780572,-0.11750999104757223,0.03067373188382001,0.0,0.0,-0.6,0.0,0.004933357238769531,0.009372711181640625,0
1.508824110031128,-0.006282671820372343,-0.011905070394277573,-0.5905246734619141,-0.004792680134773098,-0.5406879841372918,0.08323696898780572,-0.11750999104757223,0.03067373188382001,0.0,0.0,-0.6,0.0,0.0013892650604248047,0.005401134490966797,0
1.5178813934326172,-0.006366053130477667,-0.011895764619112015,-0.5918455123901367,-0.004750004407657216,-0.540480902224545,0.05267595979561846,-0.1632545807259217,0.030357785061816963,0.0,0.0,-0.6,0.0,0.0051538944244384766,0.01064300537109375,0
1.5301144123077393,-0.006366053130477667,-0.011895764619112015,-0.5918455123901367,-0.004750004407657216,-0.540480902224545,0.05267595979561846,-0.1632545807259217,0.030357785061816963,0.0,0.0,-0.6,0.0,0.0012662410736083984,0.005933046340942383,0
1.5386099815368652,-0.006454144604504108,-0.011863880790770054,-0.5931388139724731,-0.004657533113495222,-0.5400846760467478,0.015362448119861339,-0.19473652211036982,0.02972087043920458,0.0,0.0,-0.6,0.0,0.004364728927612305,0.008990049362182617,0
1.5495009422302246,-0.006454144604504108,-0.011863880790770054,-0.5931388139724731,-0.004657533113495222,-0.5400846760467478,0.015362448119861339,-0.19473652211036982,0.02972087043920458,0.0,0.0,-0.6,0.0,0.0013582706451416016,0.006326436996459961,0
1.5585618019104004,-0.006582742091268301,-0.011809519492089748,-0.5943976640701294,-0.004465841970749689,-0.5395289900345276,-0.016293997115566828,-0.2210980213140218,0.02844583219115522,0.0,0.0,-0.6,0.0,0.005276679992675781,0.009838342666625977,0
1.5703628063201904,-0.006582742091268301,-0.011809519492089748,-0.5943976640701294,-0.004465841970749689,-0.5395289900345276,-0.016293997115566828,-0.2210980213140218,0.02844583219115522,0.0,0.0,-0.6,0.0,0.001055002212524414,0.0057468414306640625,0
1.5794651508331299,-0.006807988975197077,-0.011749837547540665,-0.595642626285553,-0.004137251449861439,-0.5390145602365697,-0.039353407721126256,-0.23583526270366587,0.026293714342061562,0.0,0.0,-0.6,0.0,0.00512385368347168,0.009456396102905273,0
1.5907611846923828,-0.006807988975197077,-0.011749837547540665,-0.595642626285553,-0.004137251449861439,-0.5390145602365697,-0.039353407721126256,-0.23583526270366587,0.026293714342061562,0.0,0.0,-0.6,0.0,0.0011761188507080078,0.005578756332397461,0
1.600356101989746,-0.007139392197132111,-0.011706597171723843,-0.596878170967102,-0.003748045132594372,-0.5392246485882914,-0.07245559326674841,-0.2472484665371516,0.023764965366221295,0.0,0.0,-0.6,0.0,0.005318880081176758,0.009824991226196289,0
1.6125948429107666,-0.007574835792183876,-0.011665144003927708,-0.5980662107467651,-0.0035668640983911037,-0.5387414571479824,-0.09982729203028459,-0.25184886521841715,0.022576955091782973,0.0,0.0,-0.6,0.0,0.004679203033447266,0.009375333786010742,0
1.6242735385894775,-0.007574835792183876,-0.011665144003927708,-0.5980662107467651,-0.0035668640983911037,-0.5387414571479824,-0.09982729203028459,-0.25184886521841715,0.022576955091782973,0.0,0.0,-0.6,0.0,0.001603841781616211,0.005828142166137695,0
1.6329541206359863,-0.008046982809901237,-0.011631859466433525,-0.5992549657821655,-0.0033897218740693525,-0.5392811677054483,-0.12847227439188516,-0.2326481373433871,0.02145365817407187,0.0,0.0,-0.6,0.0,0.005017518997192383,0.009604930877685547,0
1.6444098949432373,-0.008046982809901237,-0.011631859466433525,-0.5992549657821655,-0.0033897218740693525,-0.5392811677054483,-0.12847227439188516,-0.2326481373433871,0.02145365817407187,0.0,0.0,-0.6,0.0,0.0012142658233642578,0.005226850509643555,0
1.6526930332183838,-0.00827029999345541,-0.011615724302828312,-0.5998285412788391,-0.003272677862262477,-0.5395072156803333,-0.13253039852405457,-0.21300615550140886,0.020719593942108695,0.0,0.0,-0.6,0.0,0.005373239517211914,0.009771108627319336,0
1.6650125980377197,-0.008676500990986824,-0.011632927693426609,-0.6008901596069336,-0.003036133106692145,-0.54001036301276,-0.1076189110280043,-0.17107542501341857,0.019225937987818947,0.0,0.0,-0.6,0.0,0.0055043697357177734,0.010092496871948242,0
1.6771252155303955,-0.008676500990986824,-0.011632927693426609,-0.6008901596069336,-0.003036133106692145,-0.54001036301276,-0.1076189110280043,-0.17107542501341857,0.019225937987818947,0.0,0.0,-0.6,0.0,0.0015408992767333984,0.006279468536376953,0
1.6874480247497559,-0.009064488112926483,-0.011732067912817001,-0.6018698215484619,-0.0026606039278275293,-0.5396921977440187,-0.07084786991933191,-0.15874078019485605,0.01681605716724396,0.0,0.0,-0.6,0.0,0.0050013065338134766,0.01032257080078125,0
1.7001402378082275,-0.009064488112926483,-0.011732067912817001,-0.6018698215484619,-0.0026606039278275293,-0.5396921977440187,-0.07084786991933191,-0.15874078019485605,0.01681605716724396,0.0,0.0,-0.6,0.0,0.0012929439544677734,0.005867719650268555,0
1.709707498550415,-0.00948316603899002,-0.011884881183505058,-0.6027808785438538,-0.0023187744528483227,-0.5408301845550374,-0.029449119717122985,-0.1509057446328957,0.014642584808509704,0.0,0.0,-0.6,0.0,0.0054585933685302734,0.009859085083007812,0
1.7210633754730225,-0.00948316603899002,-0.011884881183505058,-0.6027808785438538,-0.0023187744528483227,-0.5408301845550374,-0.029449119717122985,-0.1509057446328957,0.014642584808509704,0.0,0.0,-0.6,0.0,0.0010514259338378906,0.006137847900390625,0
1.7301924228668213,-0.009940750896930695,-0.012031413614749908,-0.6036097407341003,-0.002041850529187997,-0.5415895079802863,-0.002104181380923317,-0.14503682986002203,0.012905256089449963,0.0,0.0,-0.6,0.0,0.005335807800292969,0.009993314743041992,0
1.7418522834777832,-0.009940750896930695,-0.012031413614749908,-0.6036097407341003,-0.002041850529187997,-0.5415895079802863,-0.002104181380923317,-0.14503682986002203,0.012905256089449963,0.0,0.0,-0.6,0.0,0.0011582374572753906,0.0052089691162109375,0
1.7497828006744385,-0.010388685390353203,-0.012124497443437576,-0.6043477058410645,-0.0018339371112736402,-0.5423872935753953,0.021934336069679174,-0.11711060050242222,0.011638904820126916,0.0,0.0,-0.6,0.0,0.0057184696197509766,0.010259866714477539,0
1.7625889778137207,-0.010795388370752335,-0.012175427749752998,-0.6049516201019287,-0.0016118669729791777,-0.5428430576160849,0.04974973076784825,-0.08271405730151489,0.01029325774921132,0.0,0.0,-0.6,0.0,0.005133152008056641,0.009494781494140625,0
1.7744076251983643,-0.010795388370752335,-0.012175427749752998,-0.6049516201019287,-0.0016118669729791777,-0.5428430576160849,0.04974973076784825,-0.08271405730151489,0.01029325774921132,0.0,0.0,-0.6,0.0,0.0016219615936279297,0.006863594055175781,0
1.783792495727539,-0.011143900454044342,-0.012205234728753567,-0.6055018305778503,-0.0012929299190704007,-0.5431575110656705,0.06735416539079626,-0.03268217204788991,0.008330473639274794,0.0,0.0,-0.6,0.0,0.005098819732666016,0.009523391723632812,0
1.7953832149505615,-0.011143900454044342,-0.012205234728753567,-0.6055018305778503,-0.0012929299190704007,-0.5431575110656705,0.06735416539079626,-0.03268217204788991,0.008330473639274794,0.0,0.0,-0.6,0.0,0.0017218589782714844,0.006415843963623047,0
1.805224895477295,-0.0114810885861516,-0.012215845286846161,-0.6060339212417603,-0.001040446387178757,-0.542916543903073,0.07919133143431546,0.0033949557116101487,0.006773159668860606,0.0,0.0,-0.6,0.0,0.004562854766845703,0.009568929672241211,0
1.8173136711120605,-0.0114810885861516,-0.012215845286846161,-0.6060339212417603,-0.001040446387178757,-0.542916543903073,0.07919133143431546,0.0033949557116101487,0.006773159668860606,0.0,0.0,-0.6,0.0,0.0010895729064941406,0.006035327911376953,0
1.8274354934692383,-0.01181288342922926,-0.01224521454423666,-0.6066287755966187,-0.0008471684025792471,-0.5424667235798842,0.07640279366855218,0.03687099237881971,0.005569163412298185,0.0,0.0,-0.6,0.0,0.004525184631347656,0.010179519653320312,0
1.839287281036377,-0.01181288342922926,-0.01224521454423666,-0.6066287755966187,-0.0008471684025792471,-0.5424667235798842,0.07640279366855218,0.03687099237881971,0.005569163412298185,0.0,0.0,-0.6,0.0,0.0013005733489990234,0.0059871673583984375,0
1.8473975658416748,-0.01211593672633171,-0.012262555770576,-0.6072601675987244,-0.00080053007299376,-0.5419801425193931,0.07030780430973646,0.07843346862432173,0.005298416571990898,0.0,0.0,-0.6,0.0,0.004601716995239258,0.0094146728515625,0
1.8588125705718994,-0.01211593672633171,-0.012262555770576,-0.6072601675987244,-0.00080053007299376,-0.5419801425193931,0.07030780430973646,0.07843346862432173,0.005298416571990898,0.0,0.0,-0.6,0.0,0.001293182373046875,0.00596165657043457,0
1.8672528266906738,-0.012334841303527355,-0.012255688197910786,-0.6079109907150269,-0.0007433405117526658,-0.5413410663568347,0.06939525009418125,0.1341907488777857,0.004977671498171135,0.0,0.0,-0.6,0.0,0.005220174789428711,0.010235786437988281,0
1.8792345523834229,-0.012334841303527355,-0.012255688197910786,-0.6079109907150269,-0.0007433405117526658,-0.5413410663568347,0.06939525009418125,0.1341907488777857,0.004977671498171135,0.0,0.0,-0.6,0.0,0.001367330551147461,0.005912303924560547,0
1.8884196281433105,-0.012424441985785961,-0.012233568355441093,-0.6086073517799377,-0.0006109609385273233,-0.5400009424216975,0.07468951904249667,0.19726295199816332,0.004194896940527648,0.0,0.0,-0.6,0.0,0.004958629608154297,0.009535789489746094,0
1.9007108211517334,-0.012424441985785961,-0.012233568355441093,-0.6086073517799377,-0.0006109609385273233,-0.5400009424216975,0.07468951904249667,0.19726295199816332,0.004194896940527648,0.0,0.0,-0.6,0.0,0.0015604496002197266,0.0060274600982666016,0
1.9100327491760254,-0.012435397133231163,-0.012205297127366066,-0.6093924641609192,-0.0004846990312818714,-0.5387971077402014,0.07296882288086635,0.25272093322438693,0.0034342713360707984,0.0,0.0,-0.6,0.0,0.005375862121582031,0.009872913360595703,0
1.9224085807800293,-0.012405382469296455,-0.012139624916017056,-0.6101829409599304,-0.000421871222585069,-0.5387904526798531,0.05692024323349484,0.30432411502166085,0.0030525119841525034,0.0,0.0,-0.6,0.0,0.005236387252807617,0.009389162063598633,0
1.933812141418457,-0.012405382469296455,-0.012139624916017056,-0.6101829409599304,-0.000421871222585069,-0.5387904526798531,0.05692024323349484,0.30432411502166085,0.0030525119841525034,0.0,0.0,-0.6,0.0,0.0014636516571044922,0.006388187408447266,0
1.9426984786987305,-0.012370087206363678,-0.012060657143592834,-0.6109387874603271,-0.0003609971637550196,-0.5385716296489452,0.037716526202350685,0.33260286896455576,0.0026678069046900564,0.0,0.0,-0.6,0.0,0.00503849983215332,0.00937032699584961,0
1.9541337490081787,-0.012370087206363678,-0.012060657143592834,-0.6109387874603271,-0.0003609971637550196,-0.5385716296489452,0.037716526202350685,0.33260286896455576,0.0026678069046900564,0.0,0.0,-0.6,0.0,0.0011758804321289062,0.006206512451171875,0
1.9626405239105225,-0.012343489564955235,-0.012008395977318287,-0.6117285490036011,-0.0003239438879554148,-0.5379602491711069,0.013386844997310831,0.3376372052414609,0.0024053252893968032,0.0,0.0,-0.6,0.0,0.005150556564331055,0.009746551513671875,0
1.9746408462524414,-0.012343489564955235,-0.012008395977318287,-0.6117285490036011,-0.0003239438879554148,-0.5379602491711069,0.013386844997310831,0.3376372052414609,0.0024053252893968032,0.0,0.0,-0.6,0.0,0.0016400814056396484,0.0064160823822021484,0
1.9835805892944336,-0.012371844612061977,-0.01193176954984665,-0.6125100255012512,-0.0003342567720424376,-0.5377024385382432,-0.019854127572532833,0.31837716314531944,0.0024084949795704523,0.0,0.0,-0.6,0.0,0.005097389221191406,0.009870290756225586,0
1.996241569519043,-0.012371844612061977,-0.01193176954984665,-0.6125100255012512,-0.0003342567720424376,-0.5377024385382432,-0.019854127572532833,0.31837716314531944,0.0024084949795704523,0.0,0.0,-0.6,0.0,0.0013730525970458984,0.0063419342041015625,0
2.0060722827911377,-0.012400513514876366,-0.011825667694211006,-0.6133093237876892,-0.0002916713858701036,-0.5376638416173826,-0.055159903791223985,0.29467523910894233,0.002072855171825991,0.0,0.0,-0.6,0.0,0.004898786544799805,0.009629964828491211,0
2.0179779529571533,-0.012400513514876366,-0.011825667694211006,-0.6133093237876892,-0.0002916713858701036,-0.5376638416173826,-0.055159903791223985,0.29467523910894233,0.002072855171825991,0.0,0.0,-0.6,0.0,0.0010936260223388672,0.006859779357910156,0
2.027571439743042,-0.012424078769981861,-0.011656168848276138,-0.6139976382255554,-0.00024056233689449848,-0.5382470282004113,-0.0994163945037608,0.24306458215925722,0.0016629967986924446,0.0,0.0,-0.6,0.0,0.0053005218505859375,0.010161161422729492,0
2.039731740951538,-0.012424078769981861,-0.011656168848276138,-0.6139976382255554,-0.00024056233689449848,-0.5382470282004113,-0.0994163945037608,0.24306458215925722,0.0016629967986924446,0.0,0.0,-0.6,0.0,0.0014340877532958984,0.006325483322143555,0
2.049499034881592,-0.012427516281604767,-0.01146711129695177,-0.6145985722541809,-0.00011609891422525511,-0.5388516874507955,-0.11615767420896773,0.2020790256366099,0.000857270598080194,0.0,0.0,-0.6,0.0,0.004543304443359375,0.008809566497802734,0
2.060898780822754,-0.0123392129316926,-0.01133750844746828,-0.6151400804519653,0.0001296610724240025,-0.5391330048560042,-0.10951224976381119,0.15481166061218463,-0.0007182872479296234,0.0,0.0,-0.6,0.0,0.0054225921630859375,0.009947538375854492,0
2.073002815246582,-0.0123392129316926,-0.01133750844746828,-0.6151400804519653,0.0001296610724240025,-0.5391330048560042,-0.10951224976381119,0.15481166061218463,-0.0007182872479296234,0.0,0.0,-0.6,0.0,0.0011365413665771484,0.006411314010620117,0
2.081785202026367,-0.012223619036376476,-0.011272309347987175,-0.6156906485557556,0.0002525493023739951,-0.5388913005060693,-0.08704648654820037,0.08254989894016902,-0.0015554082576847755,0.0,0.0,-0.6,0.0,0.005530357360839844,0.009764432907104492,0
2.093632221221924,-0.012223619036376476,-0.011272309347987175,-0.6156906485557556,0.0002525493023739951,-0.5388913005060693,-0.08704648654820037,0.08254989894016902,-0.0015554082576847755,0.0,0.0,-0.6,0.0,0.0015757083892822266,0.0064733028411865234,0
2.1031503677368164,-0.012125184759497643,-0.011202668771147728,-0.6161659359931946,0.00036718984041271487,-0.5402327457897946,-0.07037956609232394,0.015362333622384114,-0.0023476689315893484,0.0,0.0,-0.6,0.0,0.005882978439331055,0.010461091995239258,0
2.115372896194458,-0.012125184759497643,-0.011202668771147728,-0.6161659359931946,0.00036718984041271487,-0.5402327457897946,-0.07037956609232394,0.015362333622384114,-0.0023476689315893484,0.0,0.0,-0.6,0.0,0.0012426376342773438,0.006255388259887695,0
2.1253068447113037,-0.011978931725025177,-0.01107149850577116,-0.6164385080337524,0.00047663568507767904,-0.5423430884163329,-0.057911161873481144,-0.03894388458538653,-0.0030922036492470398,0.0,0.0,-0.6,0.0,0.004395723342895508,0.009593725204467773,0
2.1362102031707764,-0.011978931725025177,-0.01107149850577116,-0.6164385080337524,0.00047663568507767904,-0.5423430884163329,-0.057911161873481144,-0.03894388458538653,-0.0030922036492470398,0.0,0.0,-0.6,0.0,0.0011801719665527344,0.006657123565673828,0
2.146054744720459,-0.011751333251595497,-0.010894388891756535,-0.6165696382522583,0.0006550644354435849,-0.5426007171309242,-0.0280935662958267,-0.0940345787287144,-0.004291690884448777,0.0,0.0,-0.6,0.0,0.0036923885345458984,0.008013486862182617,0
2.155571937561035,-0.011751333251595497,-0.010894388891756535,-0.6165696382522583,0.0006550644354435849,-0.5426007171309242,-0.0280935662958267,-0.0940345787287144,-0.004291690884448777,0.0,0.0,-0.6,0.0,0.0012519359588623047,0.005324602127075195,0
2.163356304168701,-0.011516771279275417,-0.010764557868242264,-0.6167190670967102,0.0008287422819846009,-0.5416498685244332,0.014207510829407967,-0.18046334059197072,-0.005496411295060325,0.0,0.0,-0.6,0.0,0.004877567291259766,0.009907960891723633,0
2.175030469894409,-0.011516771279275417,-0.010764557868242264,-0.6167190670967102,0.0008287422819846009,-0.5416498685244332,0.014207510829407967,-0.18046334059197072,-0.005496411295060325,0.0,0.0,-0.6,0.0,0.0012717247009277344,0.006299495697021484,0
2.183913230895996,-0.011363632045686245,-0.010645965114235878,-0.6169148087501526,0.0008771238513873369,-0.540981139867997,0.033269505946650124,-0.2565065660802768,-0.005850110466596004,0.0,0.0,-0.6,0.0,0.004978179931640625,0.009620904922485352,0
2.1958041191101074,-0.011363632045686245,-0.010645965114235878,-0.6169148087501526,0.0008771238513873369,-0.540981139867997,0.033269505946650124,-0.2565065660802768,-0.005850110466596004,0.0,0.0,-0.6,0.0,0.0016028881072998047,0.006760597229003906,0
2.2057442665100098,-0.01125681959092617,-0.010492755100131035,-0.6171314120292664,0.000900729757811996,-0.5413137842431508,0.02360781963737572,-0.29372933908696874,-0.005976590850982267,0.0,0.0,-0.6,0.0,0.004625082015991211,0.009743690490722656,0
2.217757225036621,-0.01125681959092617,-0.010492755100131035,-0.6171314120292664,0.000900729757811996,-0.5413137842431508,0.02360781963737572,-0.29372933908696874,-0.005976590850982267,0.0,0.0,-0.6,0.0,0.0015971660614013672,0.0057621002197265625,0
2.2280454635620117,-0.011126226745545864,-0.010318676941096783,-0.6173433065414429,0.0008635830784916655,-0.5405650940540548,0.005813662698908099,-0.3085293736179038,-0.005697686919321913,0.0,0.0,-0.6,0.0,0.004486560821533203,0.009592056274414062,0
2.23905348777771,-0.011126226745545864,-0.010318676941096783,-0.6173433065414429,0.0008635830784916655,-0.5405650940540548,0.005813662698908099,-0.3085293736179038,-0.005697686919321913,0.0,0.0,-0.6,0.0,0.0013463497161865234,0.005755901336669922,0
2.247718334197998,-0.010985219851136208,-0.01013103686273098,-0.6176684498786926,0.0010562539943905188,-0.539729617176678,-0.023893886420625062,-0.30660772027432287,-0.006879604847932884,0.0,0.0,-0.6,0.0,0.004883766174316406,0.009229183197021484,0
2.2588343620300293,-0.010985219851136208,-0.01013103686273098,-0.6176684498786926,0.0010562539943905188,-0.539729617176678,-0.023893886420625062,-0.30660772027432287,-0.006879604847932884,0.0,0.0,-0.6,0.0,0.0011649131774902344,0.005182504653930664,0
2.267591714859009,-0.01091474387794733,-0.009870348498225212,-0.6180171966552734,0.0013134370451108894,-0.5398514478018701,-0.05534802038208932,-0.2782309445732104,-0.008486590137649146,0.0,0.0,-0.6,0.0,0.004679203033447266,0.009954452514648438,0
2.279613733291626,-0.010888990014791489,-0.009538712911307812,-0.6183072924613953,0.0014800432894163857,-0.5404632497562047,-0.07134015481137063,-0.23387034595062275,-0.00954205123525694,0.0,0.0,-0.6,0.0,0.006031513214111328,0.010820627212524414,0
2.292672634124756,-0.010888990014791489,-0.009538712911307812,-0.6183072924613953,0.0014800432894163857,-0.5404632497562047,-0.07134015481137063,-0.23387034595062275,-0.00954205123525694,0.0,0.0,-0.6,0.0,0.0014276504516601562,0.006165981292724609,0
2.3017783164978027,-0.010962904430925846,-0.009218479506671429,-0.6185563802719116,0.0015412324358670727,-0.5409210081202128,-0.06136600877744241,-0.1949705671181852,-0.00993903668128156,0.0,0.0,-0.6,0.0,0.005496978759765625,0.009689807891845703,0
2.313422679901123,-0.010962904430925846,-0.009218479506671429,-0.6185563802719116,0.0015412324358670727,-0.5409210081202128,-0.06136600877744241,-0.1949705671181852,-0.00993903668128156,0.0,0.0,-0.6,0.0,0.001428842544555664,0.006735324859619141,0
2.322655200958252,-0.011133212596178055,-0.008890841156244278,-0.6186667084693909,0.0014696052578513006,-0.5420627933277355,-0.048549540848039203,-0.13623501186858555,-0.009471125006043237,0.0,0.0,-0.6,0.0,0.005166292190551758,0.009594917297363281,0
2.3337209224700928,-0.011133212596178055,-0.008890841156244278,-0.6186667084693909,0.0014696052578513006,-0.5420627933277355,-0.048549540848039203,-0.13623501186858555,-0.009471125006043237,0.0,0.0,-0.6,0.0,0.0013403892517089844,0.0061109066009521484,0
2.342663288116455,-0.011291301809251308,-0.008612707257270813,-0.6187029480934143,0.001519766470431018,-0.5419816916304752,-0.0143665654520152,-0.06176980952047326,-0.009750607859205052,0.0,0.0,-0.6,0.0,0.0051572322845458984,0.009996175765991211,0
2.3543715476989746,-0.011291301809251308,-0.008612707257270813,-0.6187029480934143,0.001519766470431018,-0.5419816916304752,-0.0143665654520152,-0.06176980952047326,-0.009750607859205052,0.0,0.0,-0.6,0.0,0.0011484622955322266,0.006138801574707031,0
2.362947702407837,-0.011485621333122253,-0.008403878659009933,-0.6186866164207458,0.0015759762268444215,-0.5420844217452716,0.01474214618917166,-0.011973424402409259,-0.010058387438920674,0.0,0.0,-0.6,0.0,0.005217075347900391,0.009416341781616211,0
2.3742504119873047,-0.011485621333122253,-0.008403878659009933,-0.6186866164207458,0.0015759762268444215,-0.5420844217452716,0.01474214618917166,-0.011973424402409259,-0.010058387438920674,0.0,0.0,-0.6,0.0,0.0015747547149658203,0.006390571594238281,0
2.3828635215759277,-0.011754974722862244,-0.008240493945777416,-0.6186487078666687,0.001658419544600584,-0.5418283574510384,0.04279393900479363,0.02169977491760882,-0.010525639787126277,0.0,0.0,-0.6,0.0,0.005285739898681641,0.009627819061279297,0
2.3956079483032227,-0.011754974722862244,-0.008240493945777416,-0.6186487078666687,0.001658419544600584,-0.5418283574510384,0.04279393900479363,0.02169977491760882,-0.010525639787126277,0.0,0.0,-0.6,0.0,0.0015912055969238281,0.006194353103637695,0
2.4047889709472656,-0.012076444923877716,-0.00809079222381115,-0.6186121702194214,0.001722672569654454,-0.5414497663927553,0.06135430155702114,0.05966638880594141,-0.0108845996178574,0.0,0.0,-0.6,0.0,0.0049440860748291016,0.010005950927734375,0
2.417682409286499,-0.012076444923877716,-0.00809079222381115,-0.6186121702194214,0.001722672569654454,-0.5414497663927553,0.06135430155702114,0.05966638880594141,-0.0108845996178574,0.0,0.0,-0.6,0.0,0.0015082359313964844,0.00606083869934082,0
2.4286749362945557,-0.012532085180282593,-0.00779281510040164,-0.6185660362243652,0.001598640495752544,-0.541743451074304,0.06257266154101793,0.12232727315208128,-0.010067569970336613,0.0,0.0,-0.6,0.0,0.004758119583129883,0.009316682815551758,0
2.439434289932251,-0.012532085180282593,-0.00779281510040164,-0.6185660362243652,0.001598640495752544,-0.541743451074304,0.06257266154101793,0.12232727315208128,-0.010067569970336613,0.0,0.0,-0.6,0.0,0.0012192726135253906,0.0064373016357421875,0
2.4482786655426025,-0.012778045609593391,-0.007561913691461086,-0.6184870004653931,0.0014202812779456238,-0.5421881309241786,0.06965099969261056,0.16090051681375508,-0.008902996445339609,0.0,0.0,-0.6,0.0,0.004942655563354492,0.009740829467773438,0
2.4598395824432373,-0.012778045609593391,-0.007561913691461086,-0.6184870004653931,0.0014202812779456238,-0.5421881309241786,0.06965099969261056,0.16090051681375508,-0.008902996445339609,0.0,0.0,-0.6,0.0,0.0011546611785888672,0.0053594112396240234,0
2.467264413833618,-0.012956050224602222,-0.007324496749788523,-0.6183868050575256,0.0012290435366740682,-0.542438645628169,0.0698083591066795,0.17634580881054424,-0.007671484069234185,0.0,0.0,-0.6,0.0,0.00504612922668457,0.009843587875366211,0
2.4797310829162598,-0.012956050224602222,-0.007324496749788523,-0.6183868050575256,0.0012290435366740682,-0.542438645628169,0.0698083591066795,0.17634580881054424,-0.007671484069234185,0.0,0.0,-0.6,0.0,0.0011518001556396484,0.005416393280029297,0
2.488185405731201,-0.013043384999036789,-0.007206793874502182,-0.6183353066444397,0.0011779117114348535,-0.5425293164289703,0.0659295222729595,0.17531692818920216,-0.007351421971304559,0.0,0.0,-0.6,0.0,0.0035364627838134766,0.008877992630004883,0
