time,x,y,z,yaw,throttle,roll_rate,pitch_rate,yaw_rate,x_ref,y_ref,z_ref,yaw_ref,mpc_time,ctrl_callback_time_history,metadata
1.9073486328125e-06,-0.07696326822042465,-0.09675145894289017,-0.24026060104370117,-0.0778974204420542,-0.6236838777350544,0.6850169016010683,-0.5318569452903238,0.4979867736754874,0.0,0.0,-0.6,0.0,0.01711416244506836,0.02129960060119629,Hardware
0.023160696029663086,-0.07696326822042465,-0.09675145894289017,-0.24026060104370117,-0.0778974204420542,-0.6236838777350544,0.6850169016010683,-0.5318569452903238,0.4979867736754874,0.0,0.0,-0.6,0.0,0.0011081695556640625,0.004915952682495117,1x Speed
0.030600786209106445,-0.0769382193684578,-0.09679295122623444,-0.24019627273082733,-0.07795392902195054,-0.6238578446978303,0.6828608594351221,-0.534318138962436,0.4983489380209601,0.0,0.0,-0.6,0.0,0.007167816162109375,0.011310815811157227,Horizon:3.0
0.043280601501464844,-0.0769382193684578,-0.09679295122623444,-0.24019627273082733,-0.07795392902195054,-0.6238578446978303,0.6828608594351221,-0.534318138962436,0.4983489380209601,0.0,0.0,-0.6,0.0,0.0010552406311035156,0.004902839660644531,Num Steps:20
0.05069732666015625,-0.07691189646720886,-0.09682025760412216,-0.2401401847600937,-0.07795080507322032,-0.6237926956779082,0.6865918584279855,-0.5314465687834932,0.49833414927606867,0.0,0.0,-0.6,0.0,0.0076601505279541016,0.011507749557495117,No Pyjoules
0.06365418434143066,-0.07691189646720886,-0.09682025760412216,-0.2401401847600937,-0.07795080507322032,-0.6237926956779082,0.6865918584279855,-0.5314465687834932,0.49833414927606867,0.0,0.0,-0.6,0.0,0.0010721683502197266,0.004922389984130859,0
0.07088971138000488,-0.07688809186220169,-0.09685344249010086,-0.24010998010635376,-0.07798470463414671,-0.6234529526333112,0.6899787907241278,-0.5337629582118248,0.49854721475688246,0.0,0.0,-0.6,0.0,0.0076825618743896484,0.011890888214111328,0
0.08422994613647461,-0.07688809186220169,-0.09685344249010086,-0.24010998010635376,-0.07798470463414671,-0.6234529526333112,0.6899787907241278,-0.5337629582118248,0.49854721475688246,0.0,0.0,-0.6,0.0,0.0011272430419921875,0.004818439483642578,0
0.09087419509887695,-0.07687635719776154,-0.09688300639390945,-0.2401290088891983,-0.07782663893850048,-0.6235583046790311,0.6921914016167517,-0.524912621639264,0.49755016599835666,0.0,0.0,-0.6,0.0,0.009669780731201172,0.013514041900634766,0
0.10679984092712402,-0.07687635719776154,-0.09688300639390945,-0.2401290088891983,-0.07782663893850048,-0.6235583046790311,0.6921914016167517,-0.524912621639264,0.49755016599835666,0.0,0.0,-0.6,0.0,0.0010743141174316406,0.005010128021240234,0
0.1168053150177002,-0.07687672972679138,-0.0969633013010025,-0.24022307991981506,-0.07687728400629582,-0.6228609760040185,0.7006352385984088,-0.5255047837776912,0.491479735574069,0.0,0.0,-0.6,0.0,0.009897232055664062,0.013768196105957031,0
0.13213706016540527,-0.07687672972679138,-0.0969633013010025,-0.24022307991981506,-0.07687728400629582,-0.6228609760040185,0.7006352385984088,-0.5255047837776912,0.491479735574069,0.0,0.0,-0.6,0.0,0.0011441707611083984,0.00507044792175293,0
0.13955068588256836,-0.07668769359588623,-0.0970664992928505,-0.24035026133060455,-0.07553473579966483,-0.6218265539153454,0.6963150272420002,-0.44580070504111813,0.48297708666925543,0.0,0.0,-0.6,0.0,0.009877204895019531,0.013875246047973633,0
0.15482425689697266,-0.07668769359588623,-0.0970664992928505,-0.24035026133060455,-0.07553473579966483,-0.6218265539153454,0.6963150272420002,-0.44580070504111813,0.48297708666925543,0.0,0.0,-0.6,0.0,0.0011060237884521484,0.004895448684692383,0
0.16216111183166504,-0.07602618634700775,-0.09705041348934174,-0.24053816497325897,-0.07500130198317821,-0.6200814882008038,0.6433842116857386,-0.3017295873982427,0.47967886238265,0.0,0.0,-0.6,0.0,0.0086517333984375,0.012603044509887695,0
0.17614269256591797,-0.07602618634700775,-0.09705041348934174,-0.24053816497325897,-0.07500130198317821,-0.6200814882008038,0.6433842116857386,-0.3017295873982427,0.47967886238265,0.0,0.0,-0.6,0.0,0.001110076904296875,0.005173921585083008,0
0.18392133712768555,-0.0748063176870346,-0.09672480076551437,-0.24117136001586914,-0.07314103201318285,-0.6152809614186919,0.5175837056436532,-0.1698676956482699,0.4679453591322951,0.0,0.0,-0.6,0.0,0.0069768428802490234,0.01093435287475586,0
0.19626212120056152,-0.0748063176870346,-0.09672480076551437,-0.24117136001586914,-0.07314103201318285,-0.6152809614186919,0.5175837056436532,-0.1698676956482699,0.4679453591322951,0.0,0.0,-0.6,0.0,0.001110076904296875,0.004984140396118164,0
0.20383667945861816,-0.07385261356830597,-0.0963006317615509,-0.24207738041877747,-0.07097908435962592,-0.6101778766754377,0.39359652969752446,-0.08928549168733445,0.4542023745164203,0.0,0.0,-0.6,0.0,0.007014751434326172,0.011193513870239258,0
0.21687936782836914,-0.07385261356830597,-0.0963006317615509,-0.24207738041877747,-0.07097908435962592,-0.6101778766754377,0.39359652969752446,-0.08928549168733445,0.4542023745164203,0.0,0.0,-0.6,0.0,0.001127004623413086,0.004866123199462891,0
0.22830700874328613,-0.07163747400045395,-0.09479115903377533,-0.2452966719865799,-0.06550188098270339,-0.600482981117783,0.10868649569127391,0.08945987435429523,0.419211812803204,0.0,0.0,-0.6,0.0,0.007766246795654297,0.012048959732055664,0
0.24202489852905273,-0.07163747400045395,-0.09479115903377533,-0.2452966719865799,-0.06550188098270339,-0.600482981117783,0.10868649569127391,0.08945987435429523,0.419211812803204,0.0,0.0,-0.6,0.0,0.0011677742004394531,0.0054972171783447266,0
0.24995040893554688,-0.07055790722370148,-0.09383848309516907,-0.24710577726364136,-0.06255761187167916,-0.5966545846077644,0.03781602873372069,0.19318305015057047,0.40051595143123303,0.0,0.0,-0.6,0.0,0.006572246551513672,0.010627985000610352,0
0.26245737075805664,-0.06891807168722153,-0.0922987088561058,-0.2500995695590973,-0.05720727267227135,-0.5912763662731788,-0.24512371774283193,0.3176057709875173,0.3661535925840376,0.0,0.0,-0.6,0.0,0.006689786911010742,0.010879039764404297,0
0.27514076232910156,-0.06891807168722153,-0.0922987088561058,-0.2500995695590973,-0.05720727267227135,-0.5912763662731788,-0.24512371774283193,0.3176057709875173,0.3661535925840376,0.0,0.0,-0.6,0.0,0.0010571479797363281,0.004874229431152344,0
0.282029390335083,-0.0665423721075058,-0.08993794769048691,-0.255235493183136,-0.049411517465607194,-0.5829463509109656,-0.39654648246495855,0.43618265514779747,0.31648260419947,0.0,0.0,-0.6,0.0,0.006308555603027344,0.010363101959228516,0
0.29433321952819824,-0.0665423721075058,-0.08993794769048691,-0.255235493183136,-0.049411517465607194,-0.5829463509109656,-0.39654648246495855,0.43618265514779747,0.31648260419947,0.0,0.0,-0.6,0.0,0.0010762214660644531,0.004881858825683594,0
0.3011481761932373,-0.0665423721075058,-0.08993794769048691,-0.255235493183136,-0.049411517465607194,-0.5829463509109656,-0.39654648246495855,0.43618265514779747,0.31648260419947,0.0,0.0,-0.6,0.0,0.0011510848999023438,0.005080223083496094,0
0.30824732780456543,-0.06467091292142868,-0.08798913657665253,-0.2600906789302826,-0.042873042253289015,-0.5759238704264056,-0.5014853169140138,0.4465887734950988,0.2744601033350677,0.0,0.0,-0.6,0.0,0.006333112716674805,0.010023355484008789,0
0.3202347755432129,-0.06467091292142868,-0.08798913657665253,-0.2600906789302826,-0.042873042253289015,-0.5759238704264056,-0.5014853169140138,0.4465887734950988,0.2744601033350677,0.0,0.0,-0.6,0.0,0.0011074542999267578,0.005158424377441406,0
0.3273642063140869,-0.06294050067663193,-0.08615729957818985,-0.26564884185791016,-0.03548527057000878,-0.5703309654288498,-0.5968474613636948,0.5729324561997384,0.22756380937478402,0.0,0.0,-0.6,0.0,0.006975650787353516,0.010922908782958984,0
0.34020352363586426,-0.06294050067663193,-0.08615729957818985,-0.26564884185791016,-0.03548527057000878,-0.5703309654288498,-0.5968474613636948,0.5729324561997384,0.22756380937478402,0.0,0.0,-0.6,0.0,0.0012211799621582031,0.005011320114135742,0
0.3470942974090576,-0.06122647598385811,-0.08431242406368256,-0.27175024151802063,-0.027028780096597312,-0.5637132510889492,-0.6649712718252915,0.617884581224257,0.17349760797323785,0.0,0.0,-0.6,0.0,0.006807804107666016,0.010578393936157227,0
0.35960817337036133,-0.06122647598385811,-0.08431242406368256,-0.27175024151802063,-0.027028780096597312,-0.5637132510889492,-0.6649712718252915,0.617884581224257,0.17349760797323785,0.0,0.0,-0.6,0.0,0.0010876655578613281,0.004895448684692383,0
0.36710453033447266,-0.059522707015275955,-0.08246177434921265,-0.27836039662361145,-0.01871108243713869,-0.5586260969160407,-0.6971968306913913,0.6080385463034718,0.12011457646952024,0.0,0.0,-0.6,0.0,0.006826639175415039,0.010647058486938477,0
0.37959933280944824,-0.059522707015275955,-0.08246177434921265,-0.27836039662361145,-0.01871108243713869,-0.5586260969160407,-0.6971968306913913,0.6080385463034718,0.12011457646952024,0.0,0.0,-0.6,0.0,0.0010938644409179688,0.004789590835571289,0
0.3878507614135742,-0.05775507912039757,-0.08051269501447678,-0.2853891849517822,-0.01002476540600399,-0.5535823843257613,-0.6873038986673734,0.6015426484098696,0.0645426934847819,0.0,0.0,-0.6,0.0,0.0056874752044677734,0.009579896926879883,0
0.3993234634399414,-0.05775507912039757,-0.08051269501447678,-0.2853891849517822,-0.01002476540600399,-0.5535823843257613,-0.6873038986673734,0.6015426484098696,0.0645426934847819,0.0,0.0,-0.6,0.0,0.001173257827758789,0.004978179931640625,0
0.40680575370788574,-0.05595016106963158,-0.0785273090004921,-0.29264962673187256,-0.0005120591183725081,-0.5497213822535755,-0.631183141505221,0.5910982244785701,0.0037921463113108314,0.0,0.0,-0.6,0.0,0.006491661071777344,0.010567426681518555,0
0.41878485679626465,-0.05595016106963158,-0.0785273090004921,-0.29264962673187256,-0.0005120591183725081,-0.5497213822535755,-0.631183141505221,0.5910982244785701,0.0037921463113108314,0.0,0.0,-0.6,0.0,0.0011131763458251953,0.0050811767578125,0
0.4269278049468994,-0.05407433211803436,-0.0765279084444046,-0.3000718355178833,0.008495018024648505,-0.5468483490517768,-0.5604759837462838,0.5476817217899739,-0.05386483918335169,0.0,0.0,-0.6,0.0,0.005678415298461914,0.009554147720336914,0
0.4378039836883545,-0.05407433211803436,-0.0765279084444046,-0.3000718355178833,0.008495018024648505,-0.5468483490517768,-0.5604759837462838,0.5476817217899739,-0.05386483918335169,0.0,0.0,-0.6,0.0,0.0010638236999511719,0.0050656795501708984,0
0.4467487335205078,-0.05218086019158363,-0.07439936697483063,-0.30759814381599426,0.017971881811159465,-0.5438747069600548,-0.5195869021244448,0.505786170559439,-0.11459861996112645,0.0,0.0,-0.6,0.0,0.006714582443237305,0.010543346405029297,0
0.4587116241455078,-0.05218086019158363,-0.07439936697483063,-0.30759814381599426,0.017971881811159465,-0.5438747069600548,-0.5195869021244448,0.505786170559439,-0.11459861996112645,0.0,0.0,-0.6,0.0,0.0011241436004638672,0.005034208297729492,0
0.4667932987213135,-0.05022455006837845,-0.07215601950883865,-0.3152182400226593,0.027647302768933263,-0.5411376394573088,-0.44189068352175265,0.4272876618136242,-0.17656050075089066,0.0,0.0,-0.6,0.0,0.0055425167083740234,0.009476184844970703,0
0.477663516998291,-0.05022455006837845,-0.07215601950883865,-0.3152182400226593,0.027647302768933263,-0.5411376394573088,-0.44189068352175265,0.4272876618136242,-0.17656050075089066,0.0,0.0,-0.6,0.0,0.001092672348022461,0.004842996597290039,0
0.4868466854095459,-0.04834650084376335,-0.06992043554782867,-0.3227282762527466,0.035559754704591766,-0.53942443688492,-0.36029889140678717,0.36482107157717036,-0.2272049852944513,0.0,0.0,-0.6,0.0,0.005659580230712891,0.009733438491821289,0
0.49878907203674316,-0.04834650084376335,-0.06992043554782867,-0.3227282762527466,0.035559754704591766,-0.53942443688492,-0.36029889140678717,0.36482107157717036,-0.2272049852944513,0.0,0.0,-0.6,0.0,0.0012023448944091797,0.005390644073486328,0
0.5074508190155029,-0.04740232974290848,-0.06881745904684067,-0.3264642655849457,0.03946597822546076,-0.5379457977050778,-0.29931357300560807,0.341261657169397,-0.25215555556133823,0.0,0.0,-0.6,0.0,0.005558490753173828,0.009456872940063477,0
0.5189671516418457,-0.04539549723267555,-0.0662652775645256,-0.3349469304084778,0.047715467384915625,-0.5361458247473897,-0.3034589936989915,0.19016831759273506,-0.3051418334424277,0.0,0.0,-0.6,0.0,0.006693840026855469,0.010691165924072266,0
0.5313787460327148,-0.04539549723267555,-0.0662652775645256,-0.3349469304084778,0.047715467384915625,-0.5361458247473897,-0.3034589936989915,0.19016831759273506,-0.3051418334424277,0.0,0.0,-0.6,0.0,0.0011248588562011719,0.004965066909790039,0
0.5390779972076416,-0.04450681433081627,-0.0651155561208725,-0.33860597014427185,0.05055524344910347,-0.535907952513834,-0.24194647002628097,0.16904219277052276,-0.32326806402777347,0.0,0.0,-0.6,0.0,0.005374431610107422,0.009426593780517578,0
0.5497879981994629,-0.04450681433081627,-0.0651155561208725,-0.33860597014427185,0.05055524344910347,-0.535907952513834,-0.24194647002628097,0.16904219277052276,-0.32326806402777347,0.0,0.0,-0.6,0.0,0.0010409355163574219,0.004994630813598633,0
0.5568563938140869,-0.04209362342953682,-0.06220570206642151,-0.34841427206993103,0.058479955063337065,-0.5349764034934009,-0.0175411770784863,0.10159708026335297,-0.373949439473824,0.0,0.0,-0.6,0.0,0.006747722625732422,0.010716915130615234,0
0.5693075656890869,-0.04209362342953682,-0.06220570206642151,-0.34841427206993103,0.058479955063337065,-0.5349764034934009,-0.0175411770784863,0.10159708026335297,-0.373949439473824,0.0,0.0,-0.6,0.0,0.001062154769897461,0.004730939865112305,0
0.577714204788208,-0.04040073975920677,-0.06010531634092331,-0.35536229610443115,0.06270113985561737,-0.5346735349199948,0.027847595093632337,0.008021213334708717,-0.40095211306881434,0.0,0.0,-0.6,0.0,0.005425214767456055,0.009468793869018555,0
0.5889980792999268,-0.04040073975920677,-0.06010531634092331,-0.35536229610443115,0.06270113985561737,-0.5346735349199948,0.027847595093632337,0.008021213334708717,-0.40095211306881434,0.0,0.0,-0.6,0.0,0.001056671142578125,0.0052530765533447266,0
0.5975990295410156,-0.03898047283291817,-0.05835588276386261,-0.36118048429489136,0.0670485640323714,-0.5346098217709259,0.06544342525185656,-0.06508053938759586,-0.42871784439640515,0.0,0.0,-0.6,0.0,0.005383491516113281,0.009209394454956055,0
0.608095645904541,-0.03898047283291817,-0.05835588276386261,-0.36118048429489136,0.0670485640323714,-0.5346098217709259,0.06544342525185656,-0.06508053938759586,-0.42871784439640515,0.0,0.0,-0.6,0.0,0.0011358261108398438,0.005095481872558594,0
0.6169595718383789,-0.03734789788722992,-0.05646539852023125,-0.36763325333595276,0.07065444803696808,-0.5347498971437179,0.16641006259348748,-0.10726245890887898,-0.4518207195067772,0.0,0.0,-0.6,0.0,0.0055692195892333984,0.009302139282226562,0
0.6277291774749756,-0.03734789788722992,-0.05646539852023125,-0.36763325333595276,0.07065444803696808,-0.5347498971437179,0.16641006259348748,-0.10726245890887898,-0.4518207195067772,0.0,0.0,-0.6,0.0,0.0010521411895751953,0.004861116409301758,0
0.6382400989532471,-0.035323698073625565,-0.054055001586675644,-0.37608465552330017,0.07543075044026386,-0.5344665139385399,0.28873099215717374,-0.1678156881917352,-0.48243614512604804,0.0,0.0,-0.6,0.0,0.005208253860473633,0.009085655212402344,0
0.6492877006530762,-0.035323698073625565,-0.054055001586675644,-0.37608465552330017,0.07543075044026386,-0.5344665139385399,0.28873099215717374,-0.1678156881917352,-0.48243614512604804,0.0,0.0,-0.6,0.0,0.0011606216430664062,0.004982948303222656,0
0.6571741104125977,-0.034599434584379196,-0.053186025470495224,-0.3790622651576996,0.07661796489734367,-0.5345275272779952,0.30392292325851483,-0.15570928281593174,-0.4900903439709978,0.0,0.0,-0.6,0.0,0.005596637725830078,0.009429931640625,0
0.6679961681365967,-0.034599434584379196,-0.053186025470495224,-0.3790622651576996,0.07661796489734367,-0.5345275272779952,0.30392292325851483,-0.15570928281593174,-0.4900903439709978,0.0,0.0,-0.6,0.0,0.0010364055633544922,0.0048863887786865234,0
0.6780941486358643,-0.0327305793762207,-0.050923485308885574,-0.38702985644340515,0.0799696285761579,-0.534554565718098,0.31467589449992117,-0.23805889295841032,-0.5113473741226674,0.0,0.0,-0.6,0.0,0.006459951400756836,0.010872602462768555,0
0.6903414726257324,-0.0327305793762207,-0.050923485308885574,-0.38702985644340515,0.0799696285761579,-0.534554565718098,0.31467589449992117,-0.23805889295841032,-0.5113473741226674,0.0,0.0,-0.6,0.0,0.0016582012176513672,0.006351947784423828,0
0.7007508277893066,-0.03210629150271416,-0.05009334534406662,-0.38984397053718567,0.08081669162985941,-0.5344879833398849,0.3285244471178155,-0.23460820280992015,-0.5168042490678045,0.0,0.0,-0.6,0.0,0.006312847137451172,0.01174616813659668,0
0.7148435115814209,-0.03104424476623535,-0.04877076297998428,-0.39468133449554443,0.08232728609990135,-0.5340998984159732,0.33901644524378954,-0.24062986395733094,-0.5265118709313571,0.0,0.0,-0.6,0.0,0.006222248077392578,0.011001348495483398,0
0.7282853126525879,-0.03104424476623535,-0.04877076297998428,-0.39468133449554443,0.08232728609990135,-0.5340998984159732,0.33901644524378954,-0.24062986395733094,-0.5265118709313571,0.0,0.0,-0.6,0.0,0.001615762710571289,0.0060503482818603516,0
0.7375037670135498,-0.029409565031528473,-0.04653576761484146,-0.40279653668403625,0.08369379297630748,-0.5335414793641848,0.27259071866600865,-0.28055392393610334,-0.5350941886608637,0.0,0.0,-0.6,0.0,0.006098508834838867,0.011224746704101562,0
0.7507057189941406,-0.029409565031528473,-0.04653576761484146,-0.40279653668403625,0.08369379297630748,-0.5335414793641848,0.27259071866600865,-0.28055392393610334,-0.5350941886608637,0.0,0.0,-0.6,0.0,0.0012552738189697266,0.005605220794677734,0
0.7590701580047607,-0.02853752113878727,-0.04538187384605408,-0.4073532819747925,0.08453069847268338,-0.5328540239600584,0.2508372094346607,-0.247289216376862,-0.5405213659566698,0.0,0.0,-0.6,0.0,0.005975246429443359,0.01116943359375,0
0.772078275680542,-0.02853752113878727,-0.04538187384605408,-0.4073532819747925,0.08453069847268338,-0.5328540239600584,0.2508372094346607,-0.247289216376862,-0.5405213659566698,0.0,0.0,-0.6,0.0,0.0011844635009765625,0.005841493606567383,0
0.7806313037872314,-0.02761407196521759,-0.04410139098763466,-0.41260531544685364,0.08490822862316298,-0.5313538068320118,0.1611218366887465,-0.17795303457598274,-0.5429442241341836,0.0,0.0,-0.6,0.0,0.006017446517944336,0.010633468627929688,0
0.7930831909179688,-0.02761407196521759,-0.04410139098763466,-0.41260531544685364,0.08490822862316298,-0.5313538068320118,0.1611218366887465,-0.17795303457598274,-0.5429442241341836,0.0,0.0,-0.6,0.0,0.0016443729400634766,0.00618743896484375,0
0.8027932643890381,-0.026367202401161194,-0.042431317269802094,-0.41961053013801575,0.08517087881088335,-0.5302882974594835,0.0650147136278376,-0.16805502851105214,-0.5445983446043521,0.0,0.0,-0.6,0.0,0.006293773651123047,0.011736631393432617,0
0.8158822059631348,-0.026367202401161194,-0.042431317269802094,-0.41961053013801575,0.08517087881088335,-0.5302882974594835,0.0650147136278376,-0.16805502851105214,-0.5445983446043521,0.0,0.0,-0.6,0.0,0.0011858940124511719,0.006339550018310547,0
0.8253748416900635,-0.025620751082897186,-0.04131334275007248,-0.4245639741420746,0.08497255077732262,-0.5300618511218734,0.053717665267976465,-0.12788684980167747,-0.5433766904626295,0.0,0.0,-0.6,0.0,0.005965709686279297,0.010644197463989258,0
0.8376474380493164,-0.025620751082897186,-0.04131334275007248,-0.4245639741420746,0.08497255077732262,-0.5300618511218734,0.053717665267976465,-0.12788684980167747,-0.5433766904626295,0.0,0.0,-0.6,0.0,0.0019259452819824219,0.006339550018310547,0
0.8472521305084229,-0.024950983002781868,-0.040305640548467636,-0.42944371700286865,0.0846320994363309,-0.530729226730886,0.00488407271404218,-0.12810732770712205,-0.5412126056171997,0.0,0.0,-0.6,0.0,0.00640416145324707,0.010968446731567383,0
0.8598787784576416,-0.024950983002781868,-0.040305640548467636,-0.42944371700286865,0.0846320994363309,-0.530729226730886,0.00488407271404218,-0.12810732770712205,-0.5412126056171997,0.0,0.0,-0.6,0.0,0.0013689994812011719,0.005990266799926758,0
0.8690426349639893,-0.02435479871928692,-0.039376892149448395,-0.43418216705322266,0.08400107835579107,-0.5298780228911593,-0.04498519097097503,-0.11317922466306217,-0.5372111368696554,0.0,0.0,-0.6,0.0,0.006255626678466797,0.01093602180480957,0
0.8822927474975586,-0.02435479871928692,-0.039376892149448395,-0.43418216705322266,0.08400107835579107,-0.5298780228911593,-0.04498519097097503,-0.11317922466306217,-0.5372111368696554,0.0,0.0,-0.6,0.0,0.0013391971588134766,0.006132841110229492,0
0.8908562660217285,-0.0236129742115736,-0.038093749433755875,-0.4410320818424225,0.08299028647350758,-0.5295505856206905,-0.1406870105129425,-0.05588077074612861,-0.5307860272514676,0.0,0.0,-0.6,0.0,0.006112813949584961,0.01071929931640625,0
0.9041047096252441,-0.0236129742115736,-0.038093749433755875,-0.4410320818424225,0.08299028647350758,-0.5295505856206905,-0.1406870105129425,-0.05588077074612861,-0.5307860272514676,0.0,0.0,-0.6,0.0,0.0013885498046875,0.006472587585449219,0
0.9136631488800049,-0.023214437067508698,-0.03729565814137459,-0.4453829824924469,0.0821692760191083,-0.5294015059170486,-0.11690645645260396,0.016589784655686824,-0.5254665465114831,0.0,0.0,-0.6,0.0,0.0062220096588134766,0.011124372482299805,0
0.9264819622039795,-0.023214437067508698,-0.03729565814137459,-0.4453829824924469,0.0821692760191083,-0.5294015059170486,-0.11690645645260396,0.016589784655686824,-0.5254665465114831,0.0,0.0,-0.6,0.0,0.0013172626495361328,0.006705522537231445,0
0.9362480640411377,-0.022846389561891556,-0.03654208406805992,-0.44961243867874146,0.08134850257003334,-0.5301677652237207,-0.14131572497675163,-0.013311669935859728,-0.5202960702068447,0.0,0.0,-0.6,0.0,0.006291389465332031,0.010772466659545898,0
0.9491286277770996,-0.022846389561891556,-0.03654208406805992,-0.44961243867874146,0.08134850257003334,-0.5301677652237207,-0.14131572497675163,-0.013311669935859728,-0.5202960702068447,0.0,0.0,-0.6,0.0,0.0011782646179199219,0.005229949951171875,0
0.9572196006774902,-0.02249321900308132,-0.03582530468702316,-0.4537295401096344,0.08021712615952538,-0.5297150150048942,-0.1743926764071649,-0.01634770750622637,-0.5131245761273452,0.0,0.0,-0.6,0.0,0.0060536861419677734,0.01078486442565918,0
0.9694993495941162,-0.02249321900308132,-0.03582530468702316,-0.4537295401096344,0.08021712615952538,-0.5297150150048942,-0.1743926764071649,-0.01634770750622637,-0.5131245761273452,0.0,0.0,-0.6,0.0,0.0011456012725830078,0.005530118942260742,0
0.9780361652374268,-0.022162143141031265,-0.03510133922100067,-0.4576895833015442,0.07901287377811148,-0.5297655804506725,-0.185474219766605,0.07344644847404994,-0.5053208945228089,0.0,0.0,-0.6,0.0,0.005210161209106445,0.009424924850463867,0
0.9893991947174072,-0.022026758641004562,-0.03474697843194008,-0.4596090316772461,0.07827803890608553,-0.5299448984672561,-0.19343556291831088,0.08929528437738879,-0.5006200353701034,0.0,0.0,-0.6,0.0,0.004731416702270508,0.008594274520874023,0
1.0004377365112305,-0.022026758641004562,-0.03474697843194008,-0.4596090316772461,0.07827803890608553,-0.5299448984672561,-0.19343556291831088,0.08929528437738879,-0.5006200353701034,0.0,0.0,-0.6,0.0,0.0019969940185546875,0.006157398223876953,0
1.0101449489593506,-0.021755201742053032,-0.03391745686531067,-0.46379968523979187,0.076675395887689,-0.5306902155994537,-0.16844460366654165,0.07519822411995924,-0.4903794304601129,0.0,0.0,-0.6,0.0,0.0061190128326416016,0.011025190353393555,0
1.022674798965454,-0.021755201742053032,-0.03391745686531067,-0.46379968523979187,0.076675395887689,-0.5306902155994537,-0.16844460366654165,0.07519822411995924,-0.4903794304601129,0.0,0.0,-0.6,0.0,0.0012080669403076172,0.00619053840637207,0
1.0324597358703613,-0.021455351263284683,-0.03316105902194977,-0.4673670530319214,0.0751458356005161,-0.5305218647096319,-0.1867754141509204,0.10355292324306904,-0.48060292579396424,0.0,0.0,-0.6,0.0,0.006074190139770508,0.010658025741577148,0
1.0456981658935547,-0.021455351263284683,-0.03316105902194977,-0.4673670530319214,0.0751458356005161,-0.5305218647096319,-0.1867754141509204,0.10355292324306904,-0.48060292579396424,0.0,0.0,-0.6,0.0,0.0012896060943603516,0.0064585208892822266,0
1.0553231239318848,-0.02103269100189209,-0.032068654894828796,-0.4719390869140625,0.07278890359541383,-0.531440883872194,-0.17689404010214,0.14788712271391669,-0.4654833833941515,0.0,0.0,-0.6,0.0,0.006461620330810547,0.010625123977661133,0
1.0685322284698486,-0.02103269100189209,-0.032068654894828796,-0.4719390869140625,0.07278890359541383,-0.531440883872194,-0.17689404010214,0.14788712271391669,-0.4654833833941515,0.0,0.0,-0.6,0.0,0.0013885498046875,0.006256103515625,0
1.077087163925171,-0.02073848620057106,-0.031243514269590378,-0.4751001000404358,0.07136814499670134,-0.531173152762529,-0.20153731397219823,0.1869765009924525,-0.4564089791497042,0.0,0.0,-0.6,0.0,0.005641937255859375,0.011614799499511719,0
1.0905871391296387,-0.02073848620057106,-0.031243514269590378,-0.4751001000404358,0.07136814499670134,-0.531173152762529,-0.20153731397219823,0.1869765009924525,-0.4564089791497042,0.0,0.0,-0.6,0.0,0.0011010169982910156,0.005730390548706055,0
1.09952712059021,-0.020449180155992508,-0.030465608462691307,-0.4777773916721344,0.06990427655598659,-0.5321091025185761,-0.20545303462243455,0.17311722472448293,-0.44709804595447766,0.0,0.0,-0.6,0.0,0.005366325378417969,0.009996652603149414,0
1.1110191345214844,-0.020449180155992508,-0.030465608462691307,-0.4777773916721344,0.06990427655598659,-0.5321091025185761,-0.20545303462243455,0.17311722472448293,-0.44709804595447766,0.0,0.0,-0.6,0.0,0.0018553733825683594,0.006541728973388672,0
1.1211910247802734,-0.0199576448649168,-0.029205286875367165,-0.48182961344718933,0.06760024940989262,-0.5318719059416555,-0.20067174936593973,0.16310833066854724,-0.4323780977070628,0.0,0.0,-0.6,0.0,0.004608631134033203,0.009217023849487305,0
1.132204294204712,-0.0199576448649168,-0.029205286875367165,-0.48182961344718933,0.06760024940989262,-0.5318719059416555,-0.20067174936593973,0.16310833066854724,-0.4323780977070628,0.0,0.0,-0.6,0.0,0.0013794898986816406,0.006306648254394531,0
1.1419460773468018,-0.019656158983707428,-0.02830440178513527,-0.48464465141296387,0.06616963922451131,-0.5323720259773743,-0.14964697090655527,0.14841267428967556,-0.4231624992066968,0.0,0.0,-0.6,0.0,0.005110263824462891,0.010101795196533203,0
1.1546766757965088,-0.019656158983707428,-0.02830440178513527,-0.48464465141296387,0.06616963922451131,-0.5323720259773743,-0.14964697090655527,0.14841267428967556,-0.4231624992066968,0.0,0.0,-0.6,0.0,0.0013244152069091797,0.006150960922241211,0
1.1636579036712646,-0.01931953988969326,-0.027528485283255577,-0.48699623346328735,0.0647010297699085,-0.5326263954802565,-0.13572103022081047,0.14913408974489373,-0.4137528488497749,0.0,0.0,-0.6,0.0,0.004987239837646484,0.009640932083129883,0
1.1765999794006348,-0.01898009516298771,-0.026685694232583046,-0.48957303166389465,0.06333210359736817,-0.5329248417054719,-0.09685997066893447,0.08197312930601025,-0.404994767347149,0.0,0.0,-0.6,0.0,0.006558418273925781,0.010840415954589844,0
1.1893844604492188,-0.01898009516298771,-0.026685694232583046,-0.48957303166389465,0.06333210359736817,-0.5329248417054719,-0.09685997066893447,0.08197312930601025,-0.404994767347149,0.0,0.0,-0.6,0.0,0.0013458728790283203,0.006419181823730469,0
1.1989333629608154,-0.01865759864449501,-0.025974426418542862,-0.4917307496070862,0.061966235036940424,-0.5329998867845966,-0.03650355198708611,0.11866342017035608,-0.3961743984177843,0.0,0.0,-0.6,0.0,0.005650997161865234,0.009895563125610352,0
1.2106120586395264,-0.01865759864449501,-0.025974426418542862,-0.4917307496070862,0.061966235036940424,-0.5329998867845966,-0.03650355198708611,0.11866342017035608,-0.3961743984177843,0.0,0.0,-0.6,0.0,0.0014147758483886719,0.006613969802856445,0
1.2205626964569092,-0.01830148883163929,-0.025153925642371178,-0.49410077929496765,0.06066072084083968,-0.5336284100884802,-0.01613323943766756,0.06150073156900078,-0.3878340372159109,0.0,0.0,-0.6,0.0,0.004932880401611328,0.01023721694946289,0
1.2326149940490723,-0.01830148883163929,-0.025153925642371178,-0.49410077929496765,0.06066072084083968,-0.5336284100884802,-0.01613323943766756,0.06150073156900078,-0.3878340372159109,0.0,0.0,-0.6,0.0,0.0013821125030517578,0.00621795654296875,0
1.2422730922698975,-0.01771918311715126,-0.024034924805164337,-0.49722936749458313,0.058846206762466914,-0.534467579277422,0.017325445072032833,0.04893982748487903,-0.3762126991835764,0.0,0.0,-0.6,0.0,0.004923105239868164,0.010046005249023438,0
1.2538018226623535,-0.01771918311715126,-0.024034924805164337,-0.49722936749458313,0.058846206762466914,-0.534467579277422,0.017325445072032833,0.04893982748487903,-0.3762126991835764,0.0,0.0,-0.6,0.0,0.0013608932495117188,0.005968570709228516,0
1.2632465362548828,-0.017528260126709938,-0.023586219176650047,-0.49832794070243835,0.05813362945057565,-0.5347393406416905,0.0008678977871141452,0.00699029139802752,-0.3716735197058,0.0,0.0,-0.6,0.0,0.004710674285888672,0.010083436965942383,0
1.2759263515472412,-0.017144793644547462,-0.022652076557278633,-0.500373363494873,0.05680074926105394,-0.5345660926612131,0.018940682661753475,0.024431130578807064,-0.3631442262510065,0.0,0.0,-0.6,0.0,0.005093812942504883,0.009636163711547852,0
1.287013053894043,-0.017144793644547462,-0.022652076557278633,-0.500373363494873,0.05680074926105394,-0.5345660926612131,0.018940682661753475,0.024431130578807064,-0.3631442262510065,0.0,0.0,-0.6,0.0,0.0011708736419677734,0.006526947021484375,0
1.2979576587677002,-0.01680324412882328,-0.021736379712820053,-0.5022721886634827,0.05562758624063986,-0.5353180677885367,-0.024456905032555046,0.040635634187003736,-0.3556811396046461,0.0,0.0,-0.6,0.0,0.004626035690307617,0.009517431259155273,0
1.3103055953979492,-0.016458917409181595,-0.02089422568678856,-0.5040494203567505,0.05421354663702964,-0.5355258611177939,-0.03096666022586012,-0.0043142180158826805,-0.3466400512867819,0.0,0.0,-0.6,0.0,0.005166292190551758,0.009788990020751953,0
1.3223965167999268,-0.016458917409181595,-0.02089422568678856,-0.5040494203567505,0.05421354663702964,-0.5355258611177939,-0.03096666022586012,-0.0043142180158826805,-0.3466400512867819,0.0,0.0,-0.6,0.0,0.0015277862548828125,0.006546735763549805,0
1.3301799297332764,-0.016458917409181595,-0.02089422568678856,-0.5040494203567505,0.05421354663702964,-0.5355258611177939,-0.03096666022586012,-0.0043142180158826805,-0.3466400512867819,0.0,0.0,-0.6,0.0,0.001603841781616211,0.006338834762573242,0
1.3389208316802979,-0.015912571921944618,-0.019629308953881264,-0.5064817070960999,0.05245500403985885,-0.5370975416462312,0.03538821574663134,-0.0035057763622907876,-0.335358169923787,0.0,0.0,-0.6,0.0,0.004968881607055664,0.009468793869018555,0
1.3504505157470703,-0.015912571921944618,-0.019629308953881264,-0.5064817070960999,0.05245500403985885,-0.5370975416462312,0.03538821574663134,-0.0035057763622907876,-0.335358169923787,0.0,0.0,-0.6,0.0,0.0017862319946289062,0.0065784454345703125,0
1.3595151901245117,-0.015573790296912193,-0.018805086612701416,-0.5079354047775269,0.05158229680303074,-0.5384189338377313,0.019729801670930813,-0.03264933574991536,-0.32978942226663616,0.0,0.0,-0.6,0.0,0.005031585693359375,0.009793519973754883,0
1.371370553970337,-0.015573790296912193,-0.018805086612701416,-0.5079354047775269,0.05158229680303074,-0.5384189338377313,0.019729801670930813,-0.03264933574991536,-0.32978942226663616,0.0,0.0,-0.6,0.0,0.0015189647674560547,0.0063800811767578125,0
1.3808388710021973,-0.01539565995335579,-0.018422340974211693,-0.5086209177970886,0.051070362287418555,-0.5386547813191421,0.016342700990541255,-0.03793668512839049,-0.3265191829199524,0.0,0.0,-0.6,0.0,0.004842042922973633,0.009739160537719727,0
1.3916947841644287,-0.01539565995335579,-0.018422340974211693,-0.5086209177970886,0.051070362287418555,-0.5386547813191421,0.016342700990541255,-0.03793668512839049,-0.3265191829199524,0.0,0.0,-0.6,0.0,0.001148223876953125,0.006402254104614258,0
1.4015910625457764,-0.014923720620572567,-0.017359839752316475,-0.5103680491447449,0.0493949326272328,-0.5395551651455897,-0.005032393328412282,-0.014548359131477201,-0.31582210293666735,0.0,0.0,-0.6,0.0,0.004490375518798828,0.009680747985839844,0
1.413057804107666,-0.014923720620572567,-0.017359839752316475,-0.5103680491447449,0.0493949326272328,-0.5395551651455897,-0.005032393328412282,-0.014548359131477201,-0.31582210293666735,0.0,0.0,-0.6,0.0,0.0016553401947021484,0.0059282779693603516,0
1.4225132465362549,-0.014782712794840336,-0.017053917050361633,-0.5108837485313416,0.049040273366426926,-0.5404888835217798,-0.021145968557571317,-0.005914437506838885,-0.31356356656483286,0.0,0.0,-0.6,0.0,0.005102396011352539,0.010408163070678711,0
1.435410737991333,-0.014490088447928429,-0.016385996714234352,-0.5118135213851929,0.04825895713027503,-0.5407420457652666,0.0045833293198735735,0.0046162477132858605,-0.3085515611442174,0.0,0.0,-0.6,0.0,0.005372762680053711,0.00993037223815918,0
1.448047161102295,-0.014490088447928429,-0.016385996714234352,-0.5118135213851929,0.04825895713027503,-0.5407420457652666,0.0045833293198735735,0.0046162477132858605,-0.3085515611442174,0.0,0.0,-0.6,0.0,0.001226663589477539,0.00551915168762207,0
1.4579617977142334,-0.014196537435054779,-0.015703678131103516,-0.5126839280128479,0.04730449177287391,-0.5424064135308805,0.019721173650360562,-0.05250076461551633,-0.30243812638627005,0.0,0.0,-0.6,0.0,0.0059070587158203125,0.010350227355957031,0
1.4701313972473145,-0.014196537435054779,-0.015703678131103516,-0.5126839280128479,0.04730449177287391,-0.5424064135308805,0.019721173650360562,-0.05250076461551633,-0.30243812638627005,0.0,0.0,-0.6,0.0,0.00128936767578125,0.0062408447265625,0
1.4788739681243896,-0.014026028104126453,-0.015015398152172565,-0.5133213400840759,0.04605540581787403,-0.5433270875105661,0.01134143300269801,-0.003060073629459278,-0.2944580649219005,0.0,0.0,-0.6,0.0,0.004759073257446289,0.009443044662475586,0
1.4903390407562256,-0.014026028104126453,-0.015015398152172565,-0.5133213400840759,0.04605540581787403,-0.5433270875105661,0.01134143300269801,-0.003060073629459278,-0.2944580649219005,0.0,0.0,-0.6,0.0,0.0011615753173828125,0.005628347396850586,0
1.4996061325073242,-0.013949517160654068,-0.014710341580212116,-0.5135527849197388,0.045716024901315606,-0.544015960711749,0.016547689122763318,-0.0002561422748863397,-0.29228444951522714,0.0,0.0,-0.6,0.0,0.004893064498901367,0.009620904922485352,0
1.5113410949707031,-0.013949517160654068,-0.014710341580212116,-0.5135527849197388,0.045716024901315606,-0.544015960711749,0.016547689122763318,-0.0002561422748863397,-0.29228444951522714,0.0,0.0,-0.6,0.0,0.0017974376678466797,0.0058705806732177734,0
1.5199177265167236,-0.013703851960599422,-0.01396725419908762,-0.5141241550445557,0.04481393436135814,-0.5448594011199774,0.016512327450263563,-0.008505053831101159,-0.28651934607062085,0.0,0.0,-0.6,0.0,0.004899501800537109,0.009751081466674805,0
1.5328168869018555,-0.013703851960599422,-0.01396725419908762,-0.5141241550445557,0.04481393436135814,-0.5448594011199774,0.016512327450263563,-0.008505053831101159,-0.28651934607062085,0.0,0.0,-0.6,0.0,0.0013785362243652344,0.006844997406005859,0
1.542776346206665,-0.013594822026789188,-0.013516454957425594,-0.5144034624099731,0.04410178110888404,-0.5460483457692978,0.019958717679549202,-0.04213606019954854,-0.2819686973626715,0.0,0.0,-0.6,0.0,0.005673408508300781,0.01005864143371582,0
1.5552430152893066,-0.013594822026789188,-0.013516454957425594,-0.5144034624099731,0.04410178110888404,-0.5460483457692978,0.019958717679549202,-0.04213606019954854,-0.2819686973626715,0.0,0.0,-0.6,0.0,0.001306295394897461,0.00574040412902832,0
1.5629677772521973,-0.013505689799785614,-0.01294026616960764,-0.5145865678787231,0.043458440113396155,-0.5470560766218775,0.07367547007218124,-0.03772838149207657,-0.2778137308889983,0.0,0.0,-0.6,0.0,0.005515098571777344,0.009542703628540039,0
1.5737450122833252,-0.013505689799785614,-0.01294026616960764,-0.5145865678787231,0.043458440113396155,-0.5470560766218775,0.07367547007218124,-0.03772838149207657,-0.2778137308889983,0.0,0.0,-0.6,0.0,0.0010800361633300781,0.004837751388549805,0
1.5812125205993652,-0.013517910614609718,-0.012788601219654083,-0.5146064162254333,0.043153669921532654,-0.5475002357463392,0.1042005283770461,-0.05522287099342603,-0.2758409706751101,0.0,0.0,-0.6,0.0,0.005332469940185547,0.00942087173461914,0
1.5919291973114014,-0.013517910614609718,-0.012788601219654083,-0.5146064162254333,0.043153669921532654,-0.5475002357463392,0.1042005283770461,-0.05522287099342603,-0.2758409706751101,0.0,0.0,-0.6,0.0,0.001050710678100586,0.004838705062866211,0
1.599869966506958,-0.013604352250695229,-0.012409110553562641,-0.5145148634910583,0.042294229252524664,-0.548716754089261,0.06557742201950577,-0.06129664364474082,-0.2703793882271824,0.0,0.0,-0.6,0.0,0.005163431167602539,0.008915185928344727,0
1.6102232933044434,-0.013604352250695229,-0.012409110553562641,-0.5145148634910583,0.042294229252524664,-0.548716754089261,0.06557742201950577,-0.06129664364474082,-0.2703793882271824,0.0,0.0,-0.6,0.0,0.0010364055633544922,0.005183219909667969,0
1.6184990406036377,-0.013646630570292473,-0.012311668135225773,-0.5144494771957397,0.04196322075420637,-0.548544041273265,0.03173674128309132,-0.05855939287732776,-0.268290827930834,0.0,0.0,-0.6,0.0,0.005391359329223633,0.009179353713989258,0
1.6290090084075928,-0.013646630570292473,-0.012311668135225773,-0.5144494771957397,0.04196322075420637,-0.548544041273265,0.03173674128309132,-0.05855939287732776,-0.268290827930834,0.0,0.0,-0.6,0.0,0.001100778579711914,0.004912137985229492,0
1.6370654106140137,-0.013731413520872593,-0.012147057801485062,-0.5142278671264648,0.04133477991472018,-0.54937824741815,0.02638431627807744,-0.02597434090493302,-0.2642690300962971,0.0,0.0,-0.6,0.0,0.005609989166259766,0.009702682495117188,0
1.6480817794799805,-0.013731413520872593,-0.012147057801485062,-0.5142278671264648,0.04133477991472018,-0.54937824741815,0.02638431627807744,-0.02597434090493302,-0.2642690300962971,0.0,0.0,-0.6,0.0,0.0011138916015625,0.0049343109130859375,0
1.656874418258667,-0.013876491226255894,-0.012034815736114979,-0.513944149017334,0.04088993007580761,-0.5497559259265689,0.06578266513150514,-0.021418821977583376,-0.26138421548771273,0.0,0.0,-0.6,0.0,0.005339622497558594,0.009115934371948242,0
1.6673462390899658,-0.013876491226255894,-0.012034815736114979,-0.513944149017334,0.04088993007580761,-0.5497559259265689,0.06578266513150514,-0.021418821977583376,-0.26138421548771273,0.0,0.0,-0.6,0.0,0.001100301742553711,0.0051081180572509766,0
1.6768181324005127,-0.014038996770977974,-0.011984564363956451,-0.5136348009109497,0.04027789599053073,-0.5505429253309551,0.09926183421054315,-0.04852912526216251,-0.25744338425475716,0.0,0.0,-0.6,0.0,0.005753993988037109,0.009549140930175781,0
1.6878838539123535,-0.014038996770977974,-0.011984564363956451,-0.5136348009109497,0.04027789599053073,-0.5505429253309551,0.09926183421054315,-0.04852912526216251,-0.25744338425475716,0.0,0.0,-0.6,0.0,0.0010991096496582031,0.004951953887939453,0
1.69740629196167,-0.01423267275094986,-0.011913967318832874,-0.5132839679718018,0.039771167440160994,-0.5508124625580383,0.11529047918846033,-0.05546540279523174,-0.25418495444420475,0.0,0.0,-0.6,0.0,0.0055735111236572266,0.00946354866027832,0
1.7082388401031494,-0.01423267275094986,-0.011913967318832874,-0.5132839679718018,0.039771167440160994,-0.5508124625580383,0.11529047918846033,-0.05546540279523174,-0.25418495444420475,0.0,0.0,-0.6,0.0,0.0010709762573242188,0.004665374755859375,0
1.716900110244751,-0.014405734837055206,-0.011840559542179108,-0.5129405856132507,0.03942941754848661,-0.5509605650937485,0.0819602061681625,-0.03730503554398188,-0.2520277996339703,0.0,0.0,-0.6,0.0,0.0058362483978271484,0.009979963302612305,0
1.7284750938415527,-0.014405734837055206,-0.011840559542179108,-0.5129405856132507,0.03942941754848661,-0.5509605650937485,0.0819602061681625,-0.03730503554398188,-0.2520277996339703,0.0,0.0,-0.6,0.0,0.001277923583984375,0.005263090133666992,0
1.736849069595337,-0.014585212804377079,-0.011722557246685028,-0.5125634670257568,0.03906144798901163,-0.5509583078598991,0.005369191799902519,-0.031085478156528144,-0.24975925129308912,0.0,0.0,-0.6,0.0,0.00559687614440918,0.009552478790283203,0
1.747793197631836,-0.014585212804377079,-0.011722557246685028,-0.5125634670257568,0.03906144798901163,-0.5509583078598991,0.005369191799902519,-0.031085478156528144,-0.24975925129308912,0.0,0.0,-0.6,0.0,0.0010902881622314453,0.005076885223388672,0
1.7568845748901367,-0.014781889505684376,-0.011539707891643047,-0.5121812224388123,0.038558509365531506,-0.5511629883925291,-0.04442718438709314,-0.03423876848628275,-0.24660536009851963,0.0,0.0,-0.6,0.0,0.005554914474487305,0.00943303108215332,0
1.7678096294403076,-0.014781889505684376,-0.011539707891643047,-0.5121812224388123,0.038558509365531506,-0.5511629883925291,-0.04442718438709314,-0.03423876848628275,-0.24660536009851963,0.0,0.0,-0.6,0.0,0.0011162757873535156,0.0050678253173828125,0
1.7768495082855225,-0.014991885051131248,-0.011330211535096169,-0.5117947459220886,0.0382532854914332,-0.5512653821854073,-0.03360164730988989,-0.05848204167903764,-0.24466936559989783,0.0,0.0,-0.6,0.0,0.005575418472290039,0.009372949600219727,0
1.788149118423462,-0.014991885051131248,-0.011330211535096169,-0.5117947459220886,0.0382532854914332,-0.5512653821854073,-0.03360164730988989,-0.05848204167903764,-0.24466936559989783,0.0,0.0,-0.6,0.0,0.0011990070343017578,0.005646705627441406,0
1.7977232933044434,-0.015198065899312496,-0.011252986267209053,-0.5114645957946777,0.03798059273654714,-0.5513662646082639,-0.005106194561075594,-0.0021693695724512253,-0.24285775733597456,0.0,0.0,-0.6,0.0,0.005670785903930664,0.00977325439453125,0
1.8088579177856445,-0.015198065899312496,-0.011252986267209053,-0.5114645957946777,0.03798059273654714,-0.5513662646082639,-0.005106194561075594,-0.0021693695724512253,-0.24285775733597456,0.0,0.0,-0.6,0.0,0.0011179447174072266,0.005133628845214844,0
1.8167710304260254,-0.015381216071546078,-0.011098740622401237,-0.5111188888549805,0.037727806090474714,-0.5512873779633483,-0.02547001744915431,-0.016382656275253593,-0.24128082729974135,0.0,0.0,-0.6,0.0,0.005660533905029297,0.009478569030761719,0
1.8278217315673828,-0.015381216071546078,-0.011098740622401237,-0.5111188888549805,0.037727806090474714,-0.5512873779633483,-0.02547001744915431,-0.016382656275253593,-0.24128082729974135,0.0,0.0,-0.6,0.0,0.0010554790496826172,0.0050928592681884766,0
1.8368127346038818,-0.015607615932822227,-0.011076144874095917,-0.5108580589294434,0.03734533425151813,-0.5510309749271519,-0.029162032541368926,-0.03484022801113287,-0.23885905269005292,0.0,0.0,-0.6,0.0,0.005561113357543945,0.009315252304077148,0
1.8477535247802734,-0.015607615932822227,-0.011076144874095917,-0.5108580589294434,0.03734533425151813,-0.5510309749271519,-0.029162032541368926,-0.03484022801113287,-0.23885905269005292,0.0,0.0,-0.6,0.0,0.0010864734649658203,0.005028963088989258,0
1.8571791648864746,-0.015801478177309036,-0.010898652486503124,-0.5105367302894592,0.03699178282500185,-0.5503592254311325,-0.03427803520087689,-0.02081142687492891,-0.23659537360714994,0.0,0.0,-0.6,0.0,0.00410771369934082,0.008147954940795898,0
1.8673677444458008,-0.015801478177309036,-0.010898652486503124,-0.5105367302894592,0.03699178282500185,-0.5503592254311325,-0.03427803520087689,-0.02081142687492891,-0.23659537360714994,0.0,0.0,-0.6,0.0,0.0011243820190429688,0.005125761032104492,0
1.8767986297607422,-0.0159382913261652,-0.010901917703449726,-0.510398805141449,0.03672464744590749,-0.5500577333636938,-0.0592223609411268,0.006810120056242157,-0.23489604675284295,0.0,0.0,-0.6,0.0,0.005530834197998047,0.009463787078857422,0
1.8877060413360596,-0.0159382913261652,-0.010901917703449726,-0.510398805141449,0.03672464744590749,-0.5500577333636938,-0.0592223609411268,0.006810120056242157,-0.23489604675284295,0.0,0.0,-0.6,0.0,0.0010991096496582031,0.005443096160888672,0
1.8977694511413574,-0.015826532617211342,-0.010573655366897583,-0.5105084180831909,0.03629145126636539,-0.5482975535241876,-0.02972683942115549,0.07007640434417357,-0.23202751046896636,0.0,0.0,-0.6,0.0,0.005422353744506836,0.009398698806762695,0
1.9086015224456787,-0.015826532617211342,-0.010573655366897583,-0.5105084180831909,0.03629145126636539,-0.5482975535241876,-0.02972683942115549,0.07007640434417357,-0.23202751046896636,0.0,0.0,-0.6,0.0,0.0010838508605957031,0.004927635192871094,0
1.9173080921173096,-0.01577255316078663,-0.010394624434411526,-0.5106484889984131,0.03598644507322444,-0.5476416336552606,-0.032360942303612826,0.0447630316705774,-0.2301068119977239,0.0,0.0,-0.6,0.0,0.0056304931640625,0.009517669677734375,0
1.928227424621582,-0.01577255316078663,-0.010394624434411526,-0.5106484889984131,0.03598644507322444,-0.5476416336552606,-0.032360942303612826,0.0447630316705774,-0.2301068119977239,0.0,0.0,-0.6,0.0,0.0010914802551269531,0.0048830509185791016,0
1.9369370937347412,-0.015764160081744194,-0.010318818502128124,-0.5107234716415405,0.0358675327283113,-0.5483611863720078,-0.046389288389243714,0.019989421683204,-0.2293910520835335,0.0,0.0,-0.6,0.0,0.0055694580078125,0.009928226470947266,0
1.9482836723327637,-0.015764160081744194,-0.010318818502128124,-0.5107234716415405,0.0358675327283113,-0.5483611863720078,-0.046389288389243714,0.019989421683204,-0.2293910520835335,0.0,0.0,-0.6,0.0,0.0011284351348876953,0.005163669586181641,0
1.957000970840454,-0.01578235626220703,-0.010079978033900261,-0.5110198855400085,0.03536598630451825,-0.5473870279183959,-0.0322971577020025,0.043642632647533805,-0.22614450276278475,0.0,0.0,-0.6,0.0,0.00442957878112793,0.008309602737426758,0
1.9678759574890137,-0.01578235626220703,-0.010079978033900261,-0.5110198855400085,0.03536598630451825,-0.5473870279183959,-0.0322971577020025,0.043642632647533805,-0.22614450276278475,0.0,0.0,-0.6,0.0,0.001069784164428711,0.004913330078125,0
1.9773328304290771,-0.015826566144824028,-0.009891911409795284,-0.5112724900245667,0.03506117141195583,-0.5462323272711017,-0.03129591662251936,0.07505894941593436,-0.2241689214279775,0.0,0.0,-0.6,0.0,0.004590034484863281,0.008388042449951172,0
1.9871551990509033,-0.015826566144824028,-0.009891911409795284,-0.5112724900245667,0.03506117141195583,-0.5462323272711017,-0.03129591662251936,0.07505894941593436,-0.2241689214279775,0.0,0.0,-0.6,0.0,0.0010561943054199219,0.00489354133605957,0
1.9974160194396973,-0.01587163470685482,-0.009782744571566582,-0.5114163756370544,0.03488419940163649,-0.5460146040514767,-0.04703034451001169,0.07619605066104036,-0.22306120522476253,0.0,0.0,-0.6,0.0,0.005066394805908203,0.009096622467041016,0
2.008136749267578,-0.01587163470685482,-0.009782744571566582,-0.5114163756370544,0.03488419940163649,-0.5460146040514767,-0.04703034451001169,0.07619605066104036,-0.22306120522476253,0.0,0.0,-0.6,0.0,0.0011153221130371094,0.0051403045654296875,0
2.0175211429595947,-0.01593874953687191,-0.009506803005933762,-0.5120139718055725,0.034308445842833,-0.5449298443905634,-0.006673597069044624,0.04135907170029817,-0.21934794567156754,0.0,0.0,-0.6,0.0,0.004308938980102539,0.008456230163574219,0
2.0273849964141846,-0.01593874953687191,-0.009506803005933762,-0.5120139718055725,0.034308445842833,-0.5449298443905634,-0.006673597069044624,0.04135907170029817,-0.21934794567156754,0.0,0.0,-0.6,0.0,0.0010650157928466797,0.005060911178588867,0
2.036804676055908,-0.015968026593327522,-0.009390277788043022,-0.5122634172439575,0.034088626198149216,-0.5445191809657975,-0.04239911657277957,0.06499586587221465,-0.21797717089075047,0.0,0.0,-0.6,0.0,0.004685878753662109,0.008581876754760742,0
2.0467896461486816,-0.015968026593327522,-0.009390277788043022,-0.5122634172439575,0.034088626198149216,-0.5445191809657975,-0.04239911657277957,0.06499586587221465,-0.21797717089075047,0.0,0.0,-0.6,0.0,0.0010495185852050781,0.005003452301025391,0
2.0567872524261475,-0.01596762239933014,-0.009195514023303986,-0.5127712488174438,0.03378124654928857,-0.5442146216184379,0.007447283630561753,0.06836983213081917,-0.21594133372119065,0.0,0.0,-0.6,0.0,0.0047664642333984375,0.00865626335144043,0
2.0669121742248535,-0.01596762239933014,-0.009195514023303986,-0.5127712488174438,0.03378124654928857,-0.5442146216184379,0.007447283630561753,0.06836983213081917,-0.21594133372119065,0.0,0.0,-0.6,0.0,0.0011150836944580078,0.0052106380462646484,0
2.076817274093628,-0.015932418406009674,-0.009012477472424507,-0.5132778882980347,0.03339062794756387,-0.543324385517004,-0.043307751069912685,0.04576853210575088,-0.21352869131992824,0.0,0.0,-0.6,0.0,0.0047414302825927734,0.008513927459716797,0
2.0881435871124268,-0.01592763513326645,-0.008895516395568848,-0.5135555863380432,0.03317363134608259,-0.5434853048449764,-0.05010464593343927,0.005284297227772725,-0.2121768291210423,0.0,0.0,-0.6,0.0,0.004643440246582031,0.008647918701171875,0
2.09879469871521,-0.01592763513326645,-0.008895516395568848,-0.5135555863380432,0.03317363134608259,-0.5434853048449764,-0.05010464593343927,0.005284297227772725,-0.2121768291210423,0.0,0.0,-0.6,0.0,0.0010881423950195312,0.0049397945404052734,0
2.107510566711426,-0.015924206003546715,-0.008616229519248009,-0.5143334865570068,0.03267259245417324,-0.542967199752951,0.01721546028426564,0.03858413007557374,-0.20886646891885988,0.0,0.0,-0.6,0.0,0.005630016326904297,0.009435892105102539,0
2.1183340549468994,-0.015924206003546715,-0.008616229519248009,-0.5143334865570068,0.03267259245417324,-0.542967199752951,0.01721546028426564,0.03858413007557374,-0.20886646891885988,0.0,0.0,-0.6,0.0,0.001032114028930664,0.0047838687896728516,0
2.12693190574646,-0.015915920957922935,-0.00852665863931179,-0.5146022439002991,0.03251523430743871,-0.5432651644353537,0.005447765952523811,0.01486826239414045,-0.2078908890526015,0.0,0.0,-0.6,0.0,0.004803895950317383,0.008973121643066406,0
2.1372506618499756,-0.015915920957922935,-0.00852665863931179,-0.5146022439002991,0.03251523430743871,-0.5432651644353537,0.005447765952523811,0.01486826239414045,-0.2078908890526015,0.0,0.0,-0.6,0.0,0.0010995864868164062,0.005411386489868164,0
2.1474449634552,-0.015985269099473953,-0.008317713625729084,-0.5153566002845764,0.031961886746276875,-0.5430464324988401,-0.004539289825931627,-0.030555899697421167,-0.20439365283754302,0.0,0.0,-0.6,0.0,0.004613161087036133,0.008745431900024414,0
2.157501697540283,-0.015985269099473953,-0.008317713625729084,-0.5153566002845764,0.031961886746276875,-0.5430464324988401,-0.004539289825931627,-0.030555899697421167,-0.20439365283754302,0.0,0.0,-0.6,0.0,0.0010616779327392578,0.005095720291137695,0
2.1668481826782227,-0.015974367037415504,-0.008261033333837986,-0.5158499479293823,0.03162878793782512,-0.5426192041153334,0.01651396686587166,0.018160885406628073,-0.2022109012781572,0.0,0.0,-0.6,0.0,0.004475593566894531,0.008344650268554688,0
2.1773793697357178,-0.015974367037415504,-0.008261033333837986,-0.5158499479293823,0.03162878793782512,-0.5426192041153334,0.01651396686587166,0.018160885406628073,-0.2022109012781572,0.0,0.0,-0.6,0.0,0.0011365413665771484,0.005334615707397461,0
2.186828136444092,-0.016043640673160553,-0.008327441290020943,-0.5161564350128174,0.031129835148528826,-0.5432980539255039,0.00420196071666915,0.00262349268116232,-0.19904256407672752,0.0,0.0,-0.6,0.0,0.004638195037841797,0.00856781005859375,0
2.197458505630493,-0.016043640673160553,-0.008327441290020943,-0.5161564350128174,0.031129835148528826,-0.5432980539255039,0.00420196071666915,0.00262349268116232,-0.19904256407672752,0.0,0.0,-0.6,0.0,0.0010955333709716797,0.00506138801574707,0
2.206874132156372,-0.016046587377786636,-0.00836353562772274,-0.5164914131164551,0.030869696479888582,-0.5423202975462508,0.02655391506570516,0.03841185017312608,-0.19733476703703812,0.0,0.0,-0.6,0.0,0.004576444625854492,0.008342981338500977,0
2.2178821563720703,-0.01607910916209221,-0.008393622934818268,-0.5168444514274597,0.030655339975348122,-0.5423890053780688,0.011177273834952628,-0.010285455359325265,-0.1960070469955462,0.0,0.0,-0.6,0.0,0.004837989807128906,0.008648872375488281,0
2.227876663208008,-0.01607910916209221,-0.008393622934818268,-0.5168444514274597,0.030655339975348122,-0.5423890053780688,0.011177273834952628,-0.010285455359325265,-0.1960070469955462,0.0,0.0,-0.6,0.0,0.0010409355163574219,0.005064725875854492,0
2.2376115322113037,-0.016205938532948494,-0.00860199611634016,-0.5174332857131958,0.030010122815630036,-0.5427521644281731,0.051043468107414766,0.0044516498201941845,-0.19183156088427408,0.0,0.0,-0.6,0.0,0.00466156005859375,0.00855112075805664,0
2.247520685195923,-0.016205938532948494,-0.00860199611634016,-0.5174332857131958,0.030010122815630036,-0.5427521644281731,0.051043468107414766,0.0044516498201941845,-0.19183156088427408,0.0,0.0,-0.6,0.0,0.0010352134704589844,0.004749774932861328,0
2.256807327270508,-0.016211824491620064,-0.008550415746867657,-0.5177697539329529,0.029651743091053815,-0.5431792559212706,0.07199313920800679,-0.019233141520637844,-0.1895291153289471,0.0,0.0,-0.6,0.0,0.004342079162597656,0.008090019226074219,0
2.2681188583374023,-0.01623023860156536,-0.008512469008564949,-0.5179532170295715,0.029461257751934918,-0.5438684959510927,0.06561611326815568,-0.014200379579353592,-0.18831651919609915,0.0,0.0,-0.6,0.0,0.004850864410400391,0.008629560470581055,0
2.278042793273926,-0.01623023860156536,-0.008512469008564949,-0.5179532170295715,0.029461257751934918,-0.5438684959510927,0.06561611326815568,-0.014200379579353592,-0.18831651919609915,0.0,0.0,-0.6,0.0,0.0010232925415039062,0.004474639892578125,0
2.286853075027466,-0.016306860372424126,-0.00853999424725771,-0.5181233286857605,0.029125758262224615,-0.5436630523094864,0.0036198359481869305,-0.014359663962035425,-0.1862372040957966,0.0,0.0,-0.6,0.0,0.005469560623168945,0.009582042694091797,0
2.2985036373138428,-0.016306860372424126,-0.00853999424725771,-0.5181233286857605,0.029125758262224615,-0.5436630523094864,0.0036198359481869305,-0.014359663962035425,-0.1862372040957966,0.0,0.0,-0.6,0.0,0.0011827945709228516,0.005526065826416016,0
2.308002233505249,-0.016459226608276367,-0.00864921510219574,-0.518419086933136,0.028667395161555947,-0.5445215761157634,0.08369464754146441,-0.021281107700772045,-0.1832283776163891,0.0,0.0,-0.6,0.0,0.005192279815673828,0.009063959121704102,0
2.318932294845581,-0.016459226608276367,-0.00864921510219574,-0.518419086933136,0.028667395161555947,-0.5445215761157634,0.08369464754146441,-0.021281107700772045,-0.1832283776163891,0.0,0.0,-0.6,0.0,0.0010578632354736328,0.004842281341552734,0
2.327089309692383,-0.016556106507778168,-0.008777658455073833,-0.518535852432251,0.02831135168628038,-0.5442198866028456,0.009071992890197786,-0.004914952205824027,-0.18101984687798583,0.0,0.0,-0.6,0.0,0.0056307315826416016,0.009531497955322266,0
2.3379287719726562,-0.016556106507778168,-0.008777658455073833,-0.518535852432251,0.02831135168628038,-0.5442198866028456,0.009071992890197786,-0.004914952205824027,-0.18101984687798583,0.0,0.0,-0.6,0.0,0.001064300537109375,0.005059242248535156,0
2.3473315238952637,-0.016669565811753273,-0.00872774701565504,-0.5187219381332397,0.027877762455858858,-0.5448801250373565,0.03867443160773972,-0.05695447691290691,-0.17824954129738332,0.0,0.0,-0.6,0.0,0.005681276321411133,0.009482622146606445,0
2.35819673538208,-0.016669565811753273,-0.00872774701565504,-0.5187219381332397,0.027877762455858858,-0.5448801250373565,0.03867443160773972,-0.05695447691290691,-0.17824954129738332,0.0,0.0,-0.6,0.0,0.0010614395141601562,0.00508570671081543,0
2.366886615753174,-0.016775762662291527,-0.008710331283509731,-0.5187791585922241,0.027467435400407907,-0.5452924733920784,0.03068352918247909,-0.013971086104882442,-0.17561003146503312,0.0,0.0,-0.6,0.0,0.005455732345581055,0.009384393692016602,0
2.3777542114257812,-0.016775762662291527,-0.008710331283509731,-0.5187791585922241,0.027467435400407907,-0.5452924733920784,0.03068352918247909,-0.013971086104882442,-0.17561003146503312,0.0,0.0,-0.6,0.0,0.0011081695556640625,0.00527191162109375,0
2.386896848678589,-0.01695038564503193,-0.008692514151334763,-0.5188745260238647,0.026977396594088387,-0.5456848851803923,0.03622505858836105,-0.028507365524971132,-0.17247947017030382,0.0,0.0,-0.6,0.0,0.004614353179931641,0.008557319641113281,0
2.3974311351776123,-0.01695038564503193,-0.008692514151334763,-0.5188745260238647,0.026977396594088387,-0.5456848851803923,0.03622505858836105,-0.028507365524971132,-0.17247947017030382,0.0,0.0,-0.6,0.0,0.0011112689971923828,0.00525212287902832,0
2.408013343811035,-0.017215467989444733,-0.008622128516435623,-0.5187740921974182,0.02643616590329801,-0.546884112299739,0.010640964934920435,0.006337702781286294,-0.16902489035125742,0.0,0.0,-0.6,0.0,0.005423784255981445,0.009285688400268555,0
2.4187049865722656,-0.017215467989444733,-0.008622128516435623,-0.5187740921974182,0.02643616590329801,-0.546884112299739,0.010640964934920435,0.006337702781286294,-0.16902489035125742,0.0,0.0,-0.6,0.0,0.0010867118835449219,0.005166292190551758,0
2.4272022247314453,-0.01740463823080063,-0.008593439124524593,-0.5186334252357483,0.026089137202052793,-0.547946143476492,-0.07670357154858215,-0.035786421828579995,-0.16693843601181688,0.0,0.0,-0.6,0.0,0.005482912063598633,0.009261369705200195,0
2.4377851486206055,-0.01740463823080063,-0.008593439124524593,-0.5186334252357483,0.026089137202052793,-0.547946143476492,-0.07670357154858215,-0.035786421828579995,-0.16693843601181688,0.0,0.0,-0.6,0.0,0.0010585784912109375,0.005202293395996094,0
2.4468631744384766,-0.01766706444323063,-0.0086612394079566,-0.5183074474334717,0.02556822427094338,-0.5477830051230588,-0.017931874434032668,0.009874284118456271,-0.16350696173060486,0.0,0.0,-0.6,0.0,0.00550532341003418,0.009395837783813477,0
2.457587957382202,-0.01766706444323063,-0.0086612394079566,-0.5183074474334717,0.02556822427094338,-0.5477830051230588,-0.017931874434032668,0.009874284118456271,-0.16350696173060486,0.0,0.0,-0.6,0.0,0.0010747909545898438,0.00516819953918457,0
2.466822862625122,-0.017946140840649605,-0.00873264018446207,-0.517975926399231,0.025258773564686837,-0.5482839611487684,0.024352877441933873,0.013065572778897692,-0.16147232246104148,0.0,0.0,-0.6,0.0,0.005584716796875,0.009499549865722656,0
2.477654457092285,-0.017946140840649605,-0.00873264018446207,-0.517975926399231,0.025258773564686837,-0.5482839611487684,0.024352877441933873,0.013065572778897692,-0.16147232246104148,0.0,0.0,-0.6,0.0,0.001093149185180664,0.005194664001464844,0
2.4868428707122803,-0.018232444301247597,-0.008764002472162247,-0.5176148414611816,0.024854680365669114,-0.5490123173785338,0.0046831766265771615,-0.03160257399666599,-0.15894935217631775,0.0,0.0,-0.6,0.0,0.005352497100830078,0.009140491485595703,0
2.4978058338165283,-0.018232444301247597,-0.008764002472162247,-0.5176148414611816,0.024854680365669114,-0.5490123173785338,0.0046831766265771615,-0.03160257399666599,-0.15894935217631775,0.0,0.0,-0.6,0.0,0.0010509490966796875,0.0050852298736572266,0
2.507479429244995,-0.018528234213590622,-0.008767367340624332,-0.5172512531280518,0.024448175684943646,-0.5487271672107416,-0.002933985178742425,-0.024389404196195903,-0.15635471464746692,0.0,0.0,-0.6,0.0,0.0046062469482421875,0.008565902709960938,0
2.517314910888672,-0.018528234213590622,-0.008767367340624332,-0.5172512531280518,0.024448175684943646,-0.5487271672107416,-0.002933985178742425,-0.024389404196195903,-0.15635471464746692,0.0,0.0,-0.6,0.0,0.0010559558868408203,0.005079984664916992,0
