time,x,y,z,yaw,throttle,roll_rate,pitch_rate,yaw_rate,x_ref,y_ref,z_ref,yaw_ref,mpc_time,ctrl_callback_time_history,metadata
5.245208740234375e-06,-0.09662345051765442,-0.0791795626282692,-0.23867343366146088,-0.08666718894684818,-0.6246626166965575,0.6196979757164761,-0.6197652780995974,0.5544974792527325,0.0,0.0,-0.6,0.0,0.01600170135498047,0.022693395614624023,Hardware
0.02331852912902832,-0.09662345051765442,-0.0791795626282692,-0.23867343366146088,-0.08666718894684818,-0.6246626166965575,0.6196979757164761,-0.6197652780995974,0.5544974792527325,0.0,0.0,-0.6,0.0,0.001528024673461914,0.00619196891784668,1x Speed
0.03361701965332031,-0.09663024544715881,-0.07917705923318863,-0.23867717385292053,-0.08665721123113718,-0.6245552794013478,0.6264251877521969,-0.6155958202184341,0.554428622809338,0.0,0.0,-0.6,0.0,0.007850408554077148,0.01205587387084961,Horizon:3.0
0.04844236373901367,-0.09663638472557068,-0.07917443662881851,-0.238682821393013,-0.0866481946141848,-0.6244631261169246,0.6241995305265334,-0.6203802618524282,0.5543779685194931,0.0,0.0,-0.6,0.0,0.006960868835449219,0.012092113494873047,Num Steps:20
0.06230497360229492,-0.09663638472557068,-0.07917443662881851,-0.238682821393013,-0.0866481946141848,-0.6244631261169246,0.6241995305265334,-0.6203802618524282,0.5543779685194931,0.0,0.0,-0.6,0.0,0.0011527538299560547,0.0057756900787353516,No Pyjoules
0.07122993469238281,-0.09664168953895569,-0.07918089628219604,-0.23869922757148743,-0.08663388423475789,-0.6240102106353551,0.6281032127541304,-0.6133795445969754,0.5542851749533558,0.0,0.0,-0.6,0.0,0.005768537521362305,0.01041412353515625,0
0.08414244651794434,-0.09664168953895569,-0.07918089628219604,-0.23869922757148743,-0.08663388423475789,-0.6240102106353551,0.6281032127541304,-0.6133795445969754,0.5542851749533558,0.0,0.0,-0.6,0.0,0.001714944839477539,0.0067708492279052734,0
0.0947113037109375,-0.09665968269109726,-0.07919686287641525,-0.23873203992843628,-0.0866482059337261,-0.624283092621683,0.6376521176747658,-0.6250447790966495,0.5543792544017834,0.0,0.0,-0.6,0.0,0.00873112678527832,0.013390779495239258,0
0.11209940910339355,-0.09669698774814606,-0.07921581715345383,-0.2388058751821518,-0.08602258838950437,-0.6237449347475312,0.6379599483644816,-0.6273408289500614,0.5503824752279299,0.0,0.0,-0.6,0.0,0.007157802581787109,0.011864185333251953,0
0.12692570686340332,-0.09663022309541702,-0.07926817983388901,-0.2389601320028305,-0.08437748464564383,-0.6231124024620789,0.6491701801284581,-0.5690919835991506,0.5398850661453652,0.0,0.0,-0.6,0.0,0.00772547721862793,0.012984752655029297,0
0.14152097702026367,-0.09663022309541702,-0.07926817983388901,-0.2389601320028305,-0.08437748464564383,-0.6231124024620789,0.6491701801284581,-0.5690919835991506,0.5398850661453652,0.0,0.0,-0.6,0.0,0.0013461112976074219,0.005526304244995117,0
0.15029573440551758,-0.09625576436519623,-0.07930538803339005,-0.23919296264648438,-0.08351513481715833,-0.6217738455828506,0.5866954830912721,-0.4857696884751172,0.5343963168395371,0.0,0.0,-0.6,0.0,0.007565021514892578,0.013035297393798828,0
0.1648106575012207,-0.095488041639328,-0.07913218438625336,-0.23965615034103394,-0.08267745327677678,-0.6181091959796517,0.5182913962399617,-0.37076737349698285,0.5290623263800025,0.0,0.0,-0.6,0.0,0.008161783218383789,0.01269674301147461,0
0.18023920059204102,-0.095488041639328,-0.07913218438625336,-0.23965615034103394,-0.08267745327677678,-0.6181091959796517,0.5182913962399617,-0.37076737349698285,0.5290623263800025,0.0,0.0,-0.6,0.0,0.0011353492736816406,0.005392789840698242,0
0.18841004371643066,-0.09430386871099472,-0.07867179065942764,-0.24050962924957275,-0.08089889201468636,-0.6141215834992243,0.3811326080511905,-0.1759395407377453,0.5177187403267298,0.0,0.0,-0.6,0.0,0.007063865661621094,0.011811494827270508,0
0.2025003433227539,-0.09430386871099472,-0.07867179065942764,-0.24050962924957275,-0.08089889201468636,-0.6141215834992243,0.3811326080511905,-0.1759395407377453,0.5177187403267298,0.0,0.0,-0.6,0.0,0.0016551017761230469,0.006127357482910156,0
0.21201181411743164,-0.09275566041469574,-0.07786456495523453,-0.24205532670021057,-0.07816284999974049,-0.6084176234401953,0.3088897771309578,-0.05157670622336831,0.500296362129037,0.0,0.0,-0.6,0.0,0.008159637451171875,0.012557029724121094,0
0.22722125053405762,-0.09098853170871735,-0.07679780572652817,-0.24427911639213562,-0.07450561625277857,-0.6012874479826725,0.16700876106506626,0.10215246284530995,0.4769107179979279,0.0,0.0,-0.6,0.0,0.0076940059661865234,0.012232303619384766,0
0.24216246604919434,-0.09098853170871735,-0.07679780572652817,-0.24427911639213562,-0.07450561625277857,-0.6012874479826725,0.16700876106506626,0.10215246284530995,0.4769107179979279,0.0,0.0,-0.6,0.0,0.0014023780822753906,0.005858898162841797,0
0.25081491470336914,-0.08892613649368286,-0.07543747872114182,-0.24735158681869507,-0.06955118982457727,-0.5951584642174976,-0.07359751517706248,0.2610940299604521,0.44504219695669855,0.0,0.0,-0.6,0.0,0.007567405700683594,0.012470722198486328,0
0.2656404972076416,-0.08677349984645844,-0.07369730621576309,-0.2508683204650879,-0.06402061292116198,-0.5908201026379776,-0.3025098643083014,0.39521853445928845,0.4094248355863858,0.0,0.0,-0.6,0.0,0.008068561553955078,0.0126495361328125,0
0.280850887298584,-0.08677349984645844,-0.07369730621576309,-0.2508683204650879,-0.06402061292116198,-0.5908201026379776,-0.3025098643083014,0.39521853445928845,0.4094248355863858,0.0,0.0,-0.6,0.0,0.001165628433227539,0.005199909210205078,0
0.28844642639160156,-0.08452124148607254,-0.0719054788351059,-0.2550961673259735,-0.05744136670524504,-0.5818600111557192,-0.4262891807018278,0.5008496948395217,0.36733350777533597,0.0,0.0,-0.6,0.0,0.007959604263305664,0.012350320816040039,0
0.3024764060974121,-0.08452124148607254,-0.0719054788351059,-0.2550961673259735,-0.05744136670524504,-0.5818600111557192,-0.4262891807018278,0.5008496948395217,0.36733350777533597,0.0,0.0,-0.6,0.0,0.0014317035675048828,0.0064220428466796875,0
0.31171154975891113,-0.08098673075437546,-0.06885824352502823,-0.26260998845100403,-0.04641268012409866,-0.5751946331167369,-0.5232201827795875,0.6317754723857956,0.2970807309684029,0.0,0.0,-0.6,0.0,0.007651567459106445,0.012485265731811523,0
0.3262150287628174,-0.08098673075437546,-0.06885824352502823,-0.26260998845100403,-0.04641268012409866,-0.5751946331167369,-0.5232201827795875,0.6317754723857956,0.2970807309684029,0.0,0.0,-0.6,0.0,0.0012521743774414062,0.005911588668823242,0
0.33481526374816895,-0.07862690836191177,-0.06689859926700592,-0.26799166202545166,-0.03858219399783673,-0.5719048409624731,-0.6498008573412799,0.6689683014026211,0.246725893859412,0.0,0.0,-0.6,0.0,0.0072154998779296875,0.012184619903564453,0
0.34939098358154297,-0.07862690836191177,-0.06689859926700592,-0.26799166202545166,-0.03858219399783673,-0.5719048409624731,-0.6498008573412799,0.6689683014026211,0.246725893859412,0.0,0.0,-0.6,0.0,0.0012125968933105469,0.005684375762939453,0
0.35779428482055664,-0.07655271887779236,-0.06492499262094498,-0.27389848232269287,-0.03009504280411018,-0.563025476174287,-0.6278550254524686,0.562967203665409,0.1921965452920585,0.0,0.0,-0.6,0.0,0.007462978363037109,0.011814117431640625,0
0.37163233757019043,-0.07655271887779236,-0.06492499262094498,-0.27389848232269287,-0.03009504280411018,-0.563025476174287,-0.6278550254524686,0.562967203665409,0.1921965452920585,0.0,0.0,-0.6,0.0,0.001598358154296875,0.006384372711181641,0
0.3813769817352295,-0.07330932468175888,-0.06161757558584213,-0.28380346298217773,-0.016684933668768945,-0.555726134189768,-0.7790674087503212,0.5294086139097678,0.10588423629430513,0.0,0.0,-0.6,0.0,0.010883092880249023,0.015282392501831055,0
0.3992607593536377,-0.07330932468175888,-0.06161757558584213,-0.28380346298217773,-0.016684933668768945,-0.555726134189768,-0.7790674087503212,0.5294086139097678,0.10588423629430513,0.0,0.0,-0.6,0.0,0.0013957023620605469,0.00650477409362793,0
0.4081096649169922,-0.07110932469367981,-0.059477176517248154,-0.29074788093566895,-0.007452705827363374,-0.5519646887523421,-0.7112945548273993,0.555695543892337,0.04732299716521803,0.0,0.0,-0.6,0.0,0.00868082046508789,0.013441085815429688,0
0.42484045028686523,-0.06872936338186264,-0.05727943032979965,-0.29788801074028015,0.0015145246709457269,-0.5476567464387515,-0.7246187277498339,0.5349669712999626,-0.010066853786448683,0.0,0.0,-0.6,0.0,0.009470939636230469,0.01447606086730957,0
0.44126439094543457,-0.06872936338186264,-0.05727943032979965,-0.29788801074028015,0.0015145246709457269,-0.5476567464387515,-0.7246187277498339,0.5349669712999626,-0.010066853786448683,0.0,0.0,-0.6,0.0,0.0012221336364746094,0.0061490535736083984,0
0.45065808296203613,-0.06524535268545151,-0.05380236729979515,-0.30903029441833496,0.014508730136610056,-0.5421548069064506,-0.6119178659014212,0.4403551900041586,-0.09310149180125991,0.0,0.0,-0.6,0.0,0.006415367126464844,0.011775493621826172,0
0.4640681743621826,-0.06524535268545151,-0.05380236729979515,-0.30903029441833496,0.014508730136610056,-0.5421548069064506,-0.6119178659014212,0.4403551900041586,-0.09310149180125991,0.0,0.0,-0.6,0.0,0.0013642311096191406,0.005808830261230469,0
0.47294116020202637,-0.06294140219688416,-0.051466040313243866,-0.3166094422340393,0.022769606236243037,-0.5387353933638873,-0.45722777315233215,0.4452121998045904,-0.14564104651462148,0.0,0.0,-0.6,0.0,0.00814199447631836,0.012506961822509766,0
0.48754215240478516,-0.06294140219688416,-0.051466040313243866,-0.3166094422340393,0.022769606236243037,-0.5387353933638873,-0.45722777315233215,0.4452121998045904,-0.14564104651462148,0.0,0.0,-0.6,0.0,0.0011713504791259766,0.005294084548950195,0
0.49735522270202637,-0.05938725173473358,-0.04822713881731033,-0.3281141519546509,0.034558615822536436,-0.5372043859988057,-0.2271264158922457,0.3969840196088541,-0.22097887366017455,0.0,0.0,-0.6,0.0,0.008056402206420898,0.012167692184448242,0
0.5116865634918213,-0.05938725173473358,-0.04822713881731033,-0.3281141519546509,0.034558615822536436,-0.5372043859988057,-0.2271264158922457,0.3969840196088541,-0.22097887366017455,0.0,0.0,-0.6,0.0,0.0013580322265625,0.0059473514556884766,0
0.5212588310241699,-0.056886207312345505,-0.04618266597390175,-0.33560219407081604,0.04174005970945245,-0.5373270284966205,-0.038537775262489436,0.30312372013457833,-0.2669442821639549,0.0,0.0,-0.6,0.0,0.007297039031982422,0.012142658233642578,0
0.5348107814788818,-0.056886207312345505,-0.04618266597390175,-0.33560219407081604,0.04174005970945245,-0.5373270284966205,-0.038537775262489436,0.30312372013457833,-0.2669442821639549,0.0,0.0,-0.6,0.0,0.0018324851989746094,0.006722211837768555,0
0.5451226234436035,-0.05475394055247307,-0.04416998103260994,-0.34279003739356995,0.04816103277989224,-0.5363172444300143,0.04390707129033552,0.14781133860593423,-0.30799269235186205,0.0,0.0,-0.6,0.0,0.007338523864746094,0.011858940124511719,0
0.5590023994445801,-0.05260397866368294,-0.042243439704179764,-0.34992489218711853,0.05385614469229802,-0.5336490552905391,0.13669821248854722,0.13831659970342317,-0.3445279249192821,0.0,0.0,-0.6,0.0,0.006265878677368164,0.010697126388549805,0
0.5726242065429688,-0.05260397866368294,-0.042243439704179764,-0.34992489218711853,0.05385614469229802,-0.5336490552905391,0.13669821248854722,0.13831659970342317,-0.3445279249192821,0.0,0.0,-0.6,0.0,0.0012218952178955078,0.005389213562011719,0
0.5815129280090332,-0.050593506544828415,-0.040470197796821594,-0.35674163699150085,0.059100298314477384,-0.534266632764556,0.2131481520439436,-0.002588480409135162,-0.3778697170632002,0.0,0.0,-0.6,0.0,0.006440877914428711,0.01091146469116211,0
0.5945639610290527,-0.050593506544828415,-0.040470197796821594,-0.35674163699150085,0.059100298314477384,-0.534266632764556,0.2131481520439436,-0.002588480409135162,-0.3778697170632002,0.0,0.0,-0.6,0.0,0.001653432846069336,0.006512880325317383,0
0.6036443710327148,-0.04868503287434578,-0.038600482046604156,-0.36350810527801514,0.06375399073675399,-0.5310964933447864,0.24596733903114001,-0.0365656632164546,-0.4076705050415707,0.0,0.0,-0.6,0.0,0.0064198970794677734,0.011128902435302734,0
0.6174113750457764,-0.04679040238261223,-0.03681020438671112,-0.37018680572509766,0.06803901452860064,-0.534347268553526,0.3318231994002651,-0.22379016152177747,-0.4346280779044121,0.0,0.0,-0.6,0.0,0.007645368576049805,0.01212000846862793,0
0.6316025257110596,-0.04679040238261223,-0.03681020438671112,-0.37018680572509766,0.06803901452860064,-0.534347268553526,0.3318231994002651,-0.22379016152177747,-0.4346280779044121,0.0,0.0,-0.6,0.0,0.0015411376953125,0.005347490310668945,0
0.6399168968200684,-0.045252375304698944,-0.035004839301109314,-0.3765551447868347,0.07160494745367424,-0.5309458310037904,0.3772043877273081,-0.22890383039415493,-0.45765080359511723,0.0,0.0,-0.6,0.0,0.006249666213989258,0.011255502700805664,0
0.6523764133453369,-0.045252375304698944,-0.035004839301109314,-0.3765551447868347,0.07160494745367424,-0.5309458310037904,0.3772043877273081,-0.22890383039415493,-0.45765080359511723,0.0,0.0,-0.6,0.0,0.0016644001007080078,0.005789995193481445,0
0.6615707874298096,-0.043476272374391556,-0.03342956304550171,-0.38303622603416443,0.0750880945568136,-0.5313343290750727,0.3964106290556653,-0.261318237350458,-0.47993570247740136,0.0,0.0,-0.6,0.0,0.006186008453369141,0.012001752853393555,0
0.6747806072235107,-0.043476272374391556,-0.03342956304550171,-0.38303622603416443,0.0750880945568136,-0.5313343290750727,0.3964106290556653,-0.261318237350458,-0.47993570247740136,0.0,0.0,-0.6,0.0,0.001169443130493164,0.005309581756591797,0
0.6839160919189453,-0.042076852172613144,-0.031822800636291504,-0.38905683159828186,0.07808447965499252,-0.5297728699804148,0.4182126891461892,-0.25150787800920926,-0.49935653805298974,0.0,0.0,-0.6,0.0,0.005986213684082031,0.01050567626953125,0
0.6964600086212158,-0.04070115089416504,-0.030436206609010696,-0.3951859474182129,0.08067561043687002,-0.5293398004104591,0.35552008541788716,-0.2867294840184599,-0.5157688343773171,0.0,0.0,-0.6,0.0,0.006810188293457031,0.01113128662109375,0
0.7104771137237549,-0.04070115089416504,-0.030436206609010696,-0.3951859474182129,0.08067561043687002,-0.5293398004104591,0.35552008541788716,-0.2867294840184599,-0.5157688343773171,0.0,0.0,-0.6,0.0,0.0014879703521728516,0.0063304901123046875,0
0.7193334102630615,-0.03936377912759781,-0.029184982180595398,-0.401040643453598,0.08313924942420291,-0.5297859544071766,0.38028093105298644,-0.4311224701967551,-0.5312474771514366,0.0,0.0,-0.6,0.0,0.006471157073974609,0.01088261604309082,0
0.7330365180969238,-0.03936377912759781,-0.029184982180595398,-0.401040643453598,0.08313924942420291,-0.5297859544071766,0.38028093105298644,-0.4311224701967551,-0.5312474771514366,0.0,0.0,-0.6,0.0,0.0011284351348876953,0.005034923553466797,0
0.740283727645874,-0.03818809241056442,-0.028067531064152718,-0.40687820315361023,0.08536707286384654,-0.5275146062682842,0.27132745228091604,-0.3384532406840333,-0.5456109971909282,0.0,0.0,-0.6,0.0,0.005583524703979492,0.009896278381347656,0
0.7528009414672852,-0.03818809241056442,-0.028067531064152718,-0.40687820315361023,0.08536707286384654,-0.5275146062682842,0.27132745228091604,-0.3384532406840333,-0.5456109971909282,0.0,0.0,-0.6,0.0,0.0011336803436279297,0.005947113037109375,0
0.7606098651885986,-0.037001289427280426,-0.0271923765540123,-0.412541925907135,0.08691684974731005,-0.5302074704751679,0.21208709016970126,-0.31782675085656187,-0.5555148954837561,0.0,0.0,-0.6,0.0,0.0055255889892578125,0.009826183319091797,0
0.7723484039306641,-0.037001289427280426,-0.0271923765540123,-0.412541925907135,0.08691684974731005,-0.5302074704751679,0.21208709016970126,-0.31782675085656187,-0.5555148954837561,0.0,0.0,-0.6,0.0,0.0010361671447753906,0.004754304885864258,0
0.7797060012817383,-0.036118507385253906,-0.02644098363816738,-0.41785505414009094,0.08803054188991546,-0.526901692696193,0.2485316468416347,-0.30023004282563204,-0.5628269818597302,0.0,0.0,-0.6,0.0,0.0055735111236572266,0.009722471237182617,0
0.7909328937530518,-0.036118507385253906,-0.02644098363816738,-0.41785505414009094,0.08803054188991546,-0.526901692696193,0.2485316468416347,-0.30023004282563204,-0.5628269818597302,0.0,0.0,-0.6,0.0,0.001146554946899414,0.0047566890716552734,0
0.7981472015380859,-0.03514403477311134,-0.025753414258360863,-0.42323732376098633,0.08877352435317958,-0.5273122663437783,0.1631490274720986,-0.15708522231486816,-0.5676735722852202,0.0,0.0,-0.6,0.0,0.005899667739868164,0.009627342224121094,0
0.8096449375152588,-0.03514403477311134,-0.025753414258360863,-0.42323732376098633,0.08877352435317958,-0.5273122663437783,0.1631490274720986,-0.15708522231486816,-0.5676735722852202,0.0,0.0,-0.6,0.0,0.001089334487915039,0.004770040512084961,0
0.8168482780456543,-0.034406211227178574,-0.025296906009316444,-0.42819029092788696,0.08920520908508463,-0.53066583475847,0.130684292529284,-0.2660704063791883,-0.5703096290554492,0.0,0.0,-0.6,0.0,0.007846832275390625,0.011997699737548828,0
0.8309028148651123,-0.034406211227178574,-0.025296906009316444,-0.42819029092788696,0.08920520908508463,-0.53066583475847,0.130684292529284,-0.2660704063791883,-0.5703096290554492,0.0,0.0,-0.6,0.0,0.0012791156768798828,0.006073951721191406,0
0.8400745391845703,-0.033698730170726776,-0.024968061596155167,-0.4330701529979706,0.08929255503513019,-0.5286185864986503,0.15127722624466955,-0.16452835249020192,-0.570946607312519,0.0,0.0,-0.6,0.0,0.0068511962890625,0.01173090934753418,0
0.8543155193328857,-0.033056750893592834,-0.02456335723400116,-0.437661349773407,0.08910622287754011,-0.5303349348599186,0.0665409222842426,-0.09730437803688977,-0.5697547841354482,0.0,0.0,-0.6,0.0,0.006561279296875,0.010940790176391602,0
0.8676905632019043,-0.033056750893592834,-0.02456335723400116,-0.437661349773407,0.08910622287754011,-0.5303349348599186,0.0665409222842426,-0.09730437803688977,-0.5697547841354482,0.0,0.0,-0.6,0.0,0.0015761852264404297,0.006574869155883789,0
0.8778822422027588,-0.032714299857616425,-0.024367930367588997,-0.44204384088516235,0.08884076155859577,-0.5291586951623642,-0.05067834225951606,-0.03033539849193953,-0.568088262271778,0.0,0.0,-0.6,0.0,0.005502223968505859,0.010780096054077148,0
0.8907227516174316,-0.032714299857616425,-0.024367930367588997,-0.44204384088516235,0.08884076155859577,-0.5291586951623642,-0.05067834225951606,-0.03033539849193953,-0.568088262271778,0.0,0.0,-0.6,0.0,0.001352548599243164,0.005774259567260742,0
0.8986165523529053,-0.03226858004927635,-0.02415868639945984,-0.44625407457351685,0.08802975137436947,-0.5307535664140599,0.010232708535519502,0.02198869216688435,-0.5628502831331632,0.0,0.0,-0.6,0.0,0.0062448978424072266,0.010963201522827148,0
0.912163257598877,-0.03226858004927635,-0.02415868639945984,-0.44625407457351685,0.08802975137436947,-0.5307535664140599,0.010232708535519502,0.02198869216688435,-0.5628502831331632,0.0,0.0,-0.6,0.0,0.0014104843139648438,0.006063938140869141,0
0.9204297065734863,-0.032059360295534134,-0.023908108472824097,-0.4500909745693207,0.08711615212364111,-0.532739118004372,-0.04357646474567494,0.045528996331858675,-0.5570443015060546,0.0,0.0,-0.6,0.0,0.006131410598754883,0.010775327682495117,0
0.9338898658752441,-0.031784020364284515,-0.023770771920681,-0.45384088158607483,0.08609829557514523,-0.532800943456368,-0.09777039367092114,0.01947277115622488,-0.5506481465535853,0.0,0.0,-0.6,0.0,0.0065271854400634766,0.01103663444519043,0
0.9468426704406738,-0.031784020364284515,-0.023770771920681,-0.45384088158607483,0.08609829557514523,-0.532800943456368,-0.09777039367092114,0.01947277115622488,-0.5506481465535853,0.0,0.0,-0.6,0.0,0.0013415813446044922,0.0063860416412353516,0
0.9573278427124023,-0.03159421309828758,-0.023509548977017403,-0.45725324749946594,0.0847656167668002,-0.5353179901523737,-0.11304955296447462,0.1069886948918968,-0.5420649276100881,0.0,0.0,-0.6,0.0,0.006196022033691406,0.010684967041015625,0
0.9698379039764404,-0.03159421309828758,-0.023509548977017403,-0.45725324749946594,0.0847656167668002,-0.5353179901523737,-0.11304955296447462,0.1069886948918968,-0.5420649276100881,0.0,0.0,-0.6,0.0,0.0013964176177978516,0.006384372711181641,0
0.9791326522827148,-0.03152506425976753,-0.023315127938985825,-0.4604688584804535,0.08325497536159356,-0.5347882488517768,-0.2277691425696972,0.10973066541623483,-0.5326240863232587,0.0,0.0,-0.6,0.0,0.006041765213012695,0.01112055778503418,0
0.9920017719268799,-0.03152506425976753,-0.023315127938985825,-0.4604688584804535,0.08325497536159356,-0.5347882488517768,-0.2277691425696972,0.10973066541623483,-0.5326240863232587,0.0,0.0,-0.6,0.0,0.0013706684112548828,0.005736351013183594,0
1.0004017353057861,-0.03143693134188652,-0.023034226149320602,-0.4635090231895447,0.08154589265789977,-0.5362277883207346,-0.2211988070019623,0.15135289585663242,-0.5216331736741121,0.0,0.0,-0.6,0.0,0.006643533706665039,0.011260032653808594,0
1.0149564743041992,-0.03139788657426834,-0.022766750305891037,-0.46637770533561707,0.07973969557868654,-0.5373047079649573,-0.20333731737027871,0.14432834450745302,-0.5100634374676143,0.0,0.0,-0.6,0.0,0.00498509407043457,0.010202169418334961,0
1.0269064903259277,-0.03139788657426834,-0.022766750305891037,-0.46637770533561707,0.07973969557868654,-0.5373047079649573,-0.20333731737027871,0.14432834450745302,-0.5100634374676143,0.0,0.0,-0.6,0.0,0.0013890266418457031,0.00596165657043457,0
1.0371761322021484,-0.031250257045030594,-0.02244897186756134,-0.46913185715675354,0.0777739106793913,-0.5384994914239308,-0.1869179387831937,0.08255968172195675,-0.4975750230807086,0.0,0.0,-0.6,0.0,0.006182193756103516,0.010686635971069336,0
1.0506019592285156,-0.03116978518664837,-0.022129466757178307,-0.47171393036842346,0.0759512823606568,-0.5389003549071283,-0.2113611234403109,0.1096110877161194,-0.48592732181138576,0.0,0.0,-0.6,0.0,0.005155086517333984,0.009394407272338867,0
1.0628936290740967,-0.03116978518664837,-0.022129466757178307,-0.47171393036842346,0.0759512823606568,-0.5389003549071283,-0.2113611234403109,0.1096110877161194,-0.48592732181138576,0.0,0.0,-0.6,0.0,0.0014188289642333984,0.005486726760864258,0
1.0708286762237549,-0.031106334179639816,-0.022014768794178963,-0.4729296863079071,0.07497048323735465,-0.5393539418856231,-0.18210784822633228,0.14324541100005714,-0.47953881447878216,0.0,0.0,-0.6,0.0,0.0050814151763916016,0.010713815689086914,0
1.0848894119262695,-0.030980784446001053,-0.021724138408899307,-0.47539088129997253,0.07297083184378156,-0.538518162169304,-0.22620173517909437,0.1941678539392777,-0.46677410406488956,0.0,0.0,-0.6,0.0,0.006725788116455078,0.011171579360961914,0
1.0978431701660156,-0.030980784446001053,-0.021724138408899307,-0.47539088129997253,0.07297083184378156,-0.538518162169304,-0.22620173517909437,0.1941678539392777,-0.46677410406488956,0.0,0.0,-0.6,0.0,0.0010879039764404297,0.005032062530517578,0
1.1068816184997559,-0.030712850391864777,-0.021423103287816048,-0.477699339389801,0.07099894202160519,-0.5385338012165114,-0.19688803489154366,0.1774240014389577,-0.4541562824348242,0.0,0.0,-0.6,0.0,0.0051190853118896484,0.01007699966430664,0
1.1189887523651123,-0.030712850391864777,-0.021423103287816048,-0.477699339389801,0.07099894202160519,-0.5385338012165114,-0.19688803489154366,0.1774240014389577,-0.4541562824348242,0.0,0.0,-0.6,0.0,0.0014789104461669922,0.006198406219482422,0
1.1285972595214844,-0.030469365417957306,-0.020907774567604065,-0.4809582829475403,0.06815623188625691,-0.5383362684133679,-0.08126586220161591,0.16113615203677403,-0.4357850147668662,0.0,0.0,-0.6,0.0,0.0063745975494384766,0.010779857635498047,0
1.1414144039154053,-0.030469365417957306,-0.020907774567604065,-0.4809582829475403,0.06815623188625691,-0.5383362684133679,-0.08126586220161591,0.16113615203677403,-0.4357850147668662,0.0,0.0,-0.6,0.0,0.0012085437774658203,0.005915164947509766,0
1.149611234664917,-0.030223911628127098,-0.020461788401007652,-0.4831472933292389,0.06627413391692394,-0.5395374915623005,-0.08483591156695627,0.15519504759917196,-0.4237833877437484,0.0,0.0,-0.6,0.0,0.005121469497680664,0.009565591812133789,0
1.1612746715545654,-0.030223911628127098,-0.020461788401007652,-0.4831472933292389,0.06627413391692394,-0.5395374915623005,-0.08483591156695627,0.15519504759917196,-0.4237833877437484,0.0,0.0,-0.6,0.0,0.0014073848724365234,0.006407499313354492,0
1.1705443859100342,-0.029901517555117607,-0.020044423639774323,-0.48518091440200806,0.06466282720202349,-0.5399187102948741,-0.07864181999367051,0.08373551328092647,-0.41353133840611167,0.0,0.0,-0.6,0.0,0.0065937042236328125,0.011474609375,0
1.1850388050079346,-0.029901517555117607,-0.020044423639774323,-0.48518091440200806,0.06466282720202349,-0.5399187102948741,-0.07864181999367051,0.08373551328092647,-0.41353133840611167,0.0,0.0,-0.6,0.0,0.0014929771423339844,0.005424022674560547,0
1.1926448345184326,-0.029673459008336067,-0.019514579325914383,-0.4871467053890228,0.0630247835186871,-0.5405518956917055,-0.07844036073682385,0.14010170254461934,-0.4030353441318878,0.0,0.0,-0.6,0.0,0.006445407867431641,0.011696338653564453,0
1.205714225769043,-0.029673459008336067,-0.019514579325914383,-0.4871467053890228,0.0630247835186871,-0.5405518956917055,-0.07844036073682385,0.14010170254461934,-0.4030353441318878,0.0,0.0,-0.6,0.0,0.0010783672332763672,0.005203723907470703,0
1.2139530181884766,-0.029364079236984253,-0.01903648115694523,-0.48903384804725647,0.06124417882865718,-0.5396185863524517,-0.027397532767380776,0.18312853506274582,-0.39156446254019395,0.0,0.0,-0.6,0.0,0.006629467010498047,0.011200904846191406,0
1.2269997596740723,-0.029364079236984253,-0.01903648115694523,-0.48903384804725647,0.06124417882865718,-0.5396185863524517,-0.027397532767380776,0.18312853506274582,-0.39156446254019395,0.0,0.0,-0.6,0.0,0.0018138885498046875,0.006159543991088867,0
1.2371249198913574,-0.02892782725393772,-0.018208403140306473,-0.4914966821670532,0.058745103825803516,-0.5411981400741132,-0.018096367110545006,0.09831027676030503,-0.3756018488368891,0.0,0.0,-0.6,0.0,0.0051157474517822266,0.009967803955078125,0
1.24891996383667,-0.02892782725393772,-0.018208403140306473,-0.4914966821670532,0.058745103825803516,-0.5411981400741132,-0.018096367110545006,0.09831027676030503,-0.3756018488368891,0.0,0.0,-0.6,0.0,0.0012011528015136719,0.00568842887878418,0
1.2579693794250488,-0.028650693595409393,-0.017693735659122467,-0.4930441677570343,0.057305975075167076,-0.5421215859913636,-0.0017942041813744166,0.04370936168029364,-0.36638109950088554,0.0,0.0,-0.6,0.0,0.005350351333618164,0.009933710098266602,0
1.270456075668335,-0.028650693595409393,-0.017693735659122467,-0.4930441677570343,0.057305975075167076,-0.5421215859913636,-0.0017942041813744166,0.04370936168029364,-0.36638109950088554,0.0,0.0,-0.6,0.0,0.001195669174194336,0.005826473236083984,0
1.2796573638916016,-0.028207551687955856,-0.017081333324313164,-0.4944307804107666,0.055758888742289486,-0.5437812775735905,0.05115914493017285,0.0762180924045023,-0.35642856595235456,0.0,0.0,-0.6,0.0,0.005114555358886719,0.010091304779052734,0
1.29128098487854,-0.028207551687955856,-0.017081333324313164,-0.4944307804107666,0.055758888742289486,-0.5437812775735905,0.05115914493017285,0.0762180924045023,-0.35642856595235456,0.0,0.0,-0.6,0.0,0.0011754035949707031,0.005011558532714844,0
1.2994403839111328,-0.027928803116083145,-0.016570745036005974,-0.4957032799720764,0.05400218698357294,-0.5451910431246764,0.02720409768693915,-0.004456634368734158,-0.34521838410503297,0.0,0.0,-0.6,0.0,0.006159782409667969,0.010968685150146484,0
1.3123655319213867,-0.027928803116083145,-0.016570745036005974,-0.4957032799720764,0.05400218698357294,-0.5451910431246764,0.02720409768693915,-0.004456634368734158,-0.34521838410503297,0.0,0.0,-0.6,0.0,0.001390218734741211,0.006071329116821289,0
1.3216087818145752,-0.027626724913716316,-0.01599949225783348,-0.4967711865901947,0.0523114489215884,-0.5437547430650366,0.012574928917782285,0.06451328556018354,-0.33445002426208426,0.0,0.0,-0.6,0.0,0.00602412223815918,0.01136159896850586,0
1.3341257572174072,-0.027626724913716316,-0.01599949225783348,-0.4967711865901947,0.0523114489215884,-0.5437547430650366,0.012574928917782285,0.06451328556018354,-0.33445002426208426,0.0,0.0,-0.6,0.0,0.0010323524475097656,0.004611968994140625,0
1.3413472175598145,-0.027360178530216217,-0.015579648315906525,-0.49777525663375854,0.050609196717606914,-0.5448728044825258,-0.032071864646033725,-0.02235983293570235,-0.3235816101600107,0.0,0.0,-0.6,0.0,0.006009340286254883,0.010248899459838867,0
1.3531208038330078,-0.027360178530216217,-0.015579648315906525,-0.49777525663375854,0.050609196717606914,-0.5448728044825258,-0.032071864646033725,-0.02235983293570235,-0.3235816101600107,0.0,0.0,-0.6,0.0,0.0011186599731445312,0.005154848098754883,0
1.360755443572998,-0.02711397036910057,-0.01509116217494011,-0.4986174702644348,0.04882244800793496,-0.546157282357909,0.08002893527580635,0.019822886034208044,-0.31208498220045383,0.0,0.0,-0.6,0.0,0.0053272247314453125,0.00923466682434082,0
1.3713860511779785,-0.02711397036910057,-0.01509116217494011,-0.4986174702644348,0.04882244800793496,-0.546157282357909,0.08002893527580635,0.019822886034208044,-0.31208498220045383,0.0,0.0,-0.6,0.0,0.0011203289031982422,0.004862308502197266,0
1.379202127456665,-0.026881270110607147,-0.014746297150850296,-0.4995177090167999,0.04718046929011618,-0.5459288668203163,0.10788560247960192,-0.015508671515662665,-0.3015593756515138,0.0,0.0,-0.6,0.0,0.004364013671875,0.008202075958251953,0
1.3888304233551025,-0.026881270110607147,-0.014746297150850296,-0.4995177090167999,0.04718046929011618,-0.5459288668203163,0.10788560247960192,-0.015508671515662665,-0.3015593756515138,0.0,0.0,-0.6,0.0,0.0010981559753417969,0.005140781402587891,0
1.3971364498138428,-0.02653910033404827,-0.014315664768218994,-0.5003437399864197,0.04565455392511586,-0.5452349118544605,0.09268206027560112,-0.035697892284884555,-0.2918096981046065,0.0,0.0,-0.6,0.0,0.004630327224731445,0.00836491584777832,0
1.4067513942718506,-0.02653910033404827,-0.014315664768218994,-0.5003437399864197,0.04565455392511586,-0.5452349118544605,0.09268206027560112,-0.035697892284884555,-0.2918096981046065,0.0,0.0,-0.6,0.0,0.0011076927185058594,0.0046727657318115234,0
1.4169962406158447,-0.026192136108875275,-0.014039346016943455,-0.5011597275733948,0.044226883052073965,-0.5462780029842141,0.06036187895176633,-0.08344954963262935,-0.2826795671719012,0.0,0.0,-0.6,0.0,0.005672454833984375,0.009610414505004883,0
1.4280073642730713,-0.026192136108875275,-0.014039346016943455,-0.5011597275733948,0.044226883052073965,-0.5462780029842141,0.06036187895176633,-0.08344954963262935,-0.2826795671719012,0.0,0.0,-0.6,0.0,0.0011060237884521484,0.0051937103271484375,0
1.4368765354156494,-0.025927230715751648,-0.013743533752858639,-0.5017839670181274,0.04272752332056555,-0.5473340739634064,0.11104980280199324,-0.03164649408425183,-0.2730709513383177,0.0,0.0,-0.6,0.0,0.005480527877807617,0.009218931198120117,0
1.4474267959594727,-0.025927230715751648,-0.013743533752858639,-0.5017839670181274,0.04272752332056555,-0.5473340739634064,0.11104980280199324,-0.03164649408425183,-0.2730709513383177,0.0,0.0,-0.6,0.0,0.0010881423950195312,0.005216836929321289,0
1.4568281173706055,-0.025806529447436333,-0.01361484732478857,-0.502383291721344,0.041244436589451226,-0.5445651292587107,0.09257873142883155,-0.005495201525222081,-0.2636095284027723,0.0,0.0,-0.6,0.0,0.004571437835693359,0.008584976196289062,0
1.4675812721252441,-0.025806529447436333,-0.01361484732478857,-0.502383291721344,0.041244436589451226,-0.5445651292587107,0.09257873142883155,-0.005495201525222081,-0.2636095284027723,0.0,0.0,-0.6,0.0,0.0012116432189941406,0.005542755126953125,0
1.477381944656372,-0.02557774819433689,-0.01349817868322134,-0.5030467510223389,0.03961894193181509,-0.5453923869450275,0.2054406506788097,0.045706893323058134,-0.2531312573286759,0.0,0.0,-0.6,0.0,0.005661487579345703,0.009512186050415039,0
1.4884140491485596,-0.02557774819433689,-0.01349817868322134,-0.5030467510223389,0.03961894193181509,-0.5453923869450275,0.2054406506788097,0.045706893323058134,-0.2531312573286759,0.0,0.0,-0.6,0.0,0.0011317729949951172,0.005150556564331055,0
1.496809482574463,-0.025502793490886688,-0.013404886238276958,-0.5035466551780701,0.038351453822178055,-0.5467996446625819,0.1671633959298382,-0.04669134576038339,-0.24501546961710888,0.0,0.0,-0.6,0.0,0.0057604312896728516,0.009625434875488281,0
1.507800579071045,-0.025502793490886688,-0.013404886238276958,-0.5035466551780701,0.038351453822178055,-0.5467996446625819,0.1671633959298382,-0.04669134576038339,-0.24501546961710888,0.0,0.0,-0.6,0.0,0.0010502338409423828,0.004948616027832031,0
1.5167725086212158,-0.025392554700374603,-0.01322732213884592,-0.5040829181671143,0.037322879366812084,-0.546057828241654,0.13565425873029185,-0.07992852075043,-0.23845349473730731,0.0,0.0,-0.6,0.0,0.006008625030517578,0.009909629821777344,0
1.5281651020050049,-0.025392554700374603,-0.01322732213884592,-0.5040829181671143,0.037322879366812084,-0.546057828241654,0.13565425873029185,-0.07992852075043,-0.23845349473730731,0.0,0.0,-0.6,0.0,0.0011210441589355469,0.005135774612426758,0
1.536839246749878,-0.025387221947312355,-0.013094930909574032,-0.5046700239181519,0.036506118816191556,-0.547753419146431,0.08478371857136756,-0.1280877721841552,-0.23326471135723176,0.0,0.0,-0.6,0.0,0.005609989166259766,0.009370803833007812,0
1.5475432872772217,-0.025387221947312355,-0.013094930909574032,-0.5046700239181519,0.036506118816191556,-0.547753419146431,0.08478371857136756,-0.1280877721841552,-0.23326471135723176,0.0,0.0,-0.6,0.0,0.0011899471282958984,0.004879951477050781,0
1.5568532943725586,-0.02528323605656624,-0.012806043960154057,-0.5052146911621094,0.03599502231210861,-0.5473471460440561,0.10018990754703176,-0.04052769222495064,-0.23003221497831008,0.0,0.0,-0.6,0.0,0.005811452865600586,0.009800910949707031,0
1.5680694580078125,-0.02528323605656624,-0.012806043960154057,-0.5052146911621094,0.03599502231210861,-0.5473471460440561,0.10018990754703176,-0.04052769222495064,-0.23003221497831008,0.0,0.0,-0.6,0.0,0.0011928081512451172,0.005079746246337891,0
1.5772886276245117,-0.025296013802289963,-0.012530604377388954,-0.5057997107505798,0.0356348289056071,-0.5462376759906129,0.03859799213338745,-0.06879379400090119,-0.2277941666925556,0.0,0.0,-0.6,0.0,0.0046312808990478516,0.008853435516357422,0
1.5875754356384277,-0.025296013802289963,-0.012530604377388954,-0.5057997107505798,0.0356348289056071,-0.5462376759906129,0.03859799213338745,-0.06879379400090119,-0.2277941666925556,0.0,0.0,-0.6,0.0,0.0011487007141113281,0.005136013031005859,0
1.5967590808868408,-0.025296621024608612,-0.012139310128986835,-0.5063614845275879,0.035155828418710997,-0.5459683860543662,0.06898027795423094,0.037519893644807636,-0.22470939280395688,0.0,0.0,-0.6,0.0,0.005774021148681641,0.00954437255859375,0
1.6077871322631836,-0.025296621024608612,-0.012139310128986835,-0.5063614845275879,0.035155828418710997,-0.5459683860543662,0.06898027795423094,0.037519893644807636,-0.22470939280395688,0.0,0.0,-0.6,0.0,0.0010764598846435547,0.005108356475830078,0
1.6168313026428223,-0.025192243978381157,-0.01185578852891922,-0.5069734454154968,0.03492684294885217,-0.5465180922153209,0.050132896920439325,-0.012510973121935092,-0.2232732119845971,0.0,0.0,-0.6,0.0,0.005522489547729492,0.009293317794799805,0
1.6282854080200195,-0.025216665118932724,-0.0116635886952281,-0.5071967244148254,0.03487867130318292,-0.5479679279421507,-0.06132601372987852,-0.03511011451536054,-0.22309613699185032,0.0,0.0,-0.6,0.0,0.005426883697509766,0.009337902069091797,0
1.6389331817626953,-0.025216665118932724,-0.0116635886952281,-0.5071967244148254,0.03487867130318292,-0.5479679279421507,-0.06132601372987852,-0.03511011451536054,-0.22309613699185032,0.0,0.0,-0.6,0.0,0.0011281967163085938,0.005073070526123047,0
1.6472926139831543,-0.025104528293013573,-0.011294192634522915,-0.5076714754104614,0.03467559910559676,-0.547980564357181,-0.023872227821819875,-0.060925626689652415,-0.22178397390613913,0.0,0.0,-0.6,0.0,0.00534367561340332,0.009143352508544922,0
1.658517837524414,-0.025099195539951324,-0.01118041854351759,-0.5079167485237122,0.03460631761565306,-0.5478918911132972,-0.025359899370817562,-0.10468824527231393,-0.22137214139718112,0.0,0.0,-0.6,0.0,0.0056421756744384766,0.009548425674438477,0
1.6694815158843994,-0.025099195539951324,-0.01118041854351759,-0.5079167485237122,0.03460631761565306,-0.5478918911132972,-0.025359899370817562,-0.10468824527231393,-0.22137214139718112,0.0,0.0,-0.6,0.0,0.0010750293731689453,0.004913330078125,0
1.677478313446045,-0.025105992332100868,-0.0107487253844738,-0.5084220767021179,0.03454704247676502,-0.5488053480688261,-0.05435727408408925,-0.048343661543996,-0.2210090629103216,0.0,0.0,-0.6,0.0,0.005542755126953125,0.009383678436279297,0
1.688321590423584,-0.025105992332100868,-0.0107487253844738,-0.5084220767021179,0.03454704247676502,-0.5488053480688261,-0.05435727408408925,-0.048343661543996,-0.2210090629103216,0.0,0.0,-0.6,0.0,0.0011072158813476562,0.0048677921295166016,0
1.6968944072723389,-0.02499496191740036,-0.01041287649422884,-0.5088635683059692,0.034385906775501504,-0.5474721769914609,-0.04862310362236649,-0.038018347369424214,-0.21997405127966654,0.0,0.0,-0.6,0.0,0.004525184631347656,0.008452177047729492,0
1.7068350315093994,-0.02499496191740036,-0.01041287649422884,-0.5088635683059692,0.034385906775501504,-0.5474721769914609,-0.04862310362236649,-0.038018347369424214,-0.21997405127966654,0.0,0.0,-0.6,0.0,0.0011525154113769531,0.005294322967529297,0
1.7173316478729248,-0.02503901720046997,-0.00976631511002779,-0.5094200968742371,0.0339672110887005,-0.5468830447304399,-0.0940798154406961,0.07638745888043061,-0.21727140144838303,0.0,0.0,-0.6,0.0,0.0055692195892333984,0.009326696395874023,0
1.7280464172363281,-0.02503901720046997,-0.00976631511002779,-0.5094200968742371,0.0339672110887005,-0.5468830447304399,-0.0940798154406961,0.07638745888043061,-0.21727140144838303,0.0,0.0,-0.6,0.0,0.0010898113250732422,0.005209445953369141,0
1.7370688915252686,-0.025010058656334877,-0.00961343664675951,-0.5096592307090759,0.03395650656492843,-0.5459860043908417,-0.11760973715745213,0.06314930052546587,-0.21725588682617447,0.0,0.0,-0.6,0.0,0.004606962203979492,0.008409261703491211,0
1.7469384670257568,-0.025010058656334877,-0.00961343664675951,-0.5096592307090759,0.03395650656492843,-0.5459860043908417,-0.11760973715745213,0.06314930052546587,-0.21725588682617447,0.0,0.0,-0.6,0.0,0.0010907649993896484,0.005003929138183594,0
1.757197380065918,-0.02489849179983139,-0.008923264220356941,-0.5102998614311218,0.0339428945413039,-0.5463522493631253,-0.15671469917002231,0.0955445175325046,-0.21722051972533235,0.0,0.0,-0.6,0.0,0.005472421646118164,0.00927424430847168,0
1.7679221630096436,-0.02489849179983139,-0.008923264220356941,-0.5102998614311218,0.0339428945413039,-0.5463522493631253,-0.15671469917002231,0.0955445175325046,-0.21722051972533235,0.0,0.0,-0.6,0.0,0.0011200904846191406,0.005173921585083008,0
1.7783081531524658,-0.024864140897989273,-0.008539840579032898,-0.5106571912765503,0.03393406301475764,-0.5479803130374313,-0.1312165910277474,0.07704423156264296,-0.2171546169828143,0.0,0.0,-0.6,0.0,0.0055217742919921875,0.009151220321655273,0
1.7888288497924805,-0.024864140897989273,-0.008539840579032898,-0.5106571912765503,0.03393406301475764,-0.5479803130374313,-0.1312165910277474,0.07704423156264296,-0.2171546169828143,0.0,0.0,-0.6,0.0,0.0011434555053710938,0.005063056945800781,0
1.797201156616211,-0.024830007925629616,-0.008246934041380882,-0.5108296871185303,0.033955166656952904,-0.5481538446810477,-0.09781784429893281,0.10534035477421318,-0.2172038858266996,0.0,0.0,-0.6,0.0,0.005503177642822266,0.00938272476196289,0
1.8078503608703613,-0.024830007925629616,-0.008246934041380882,-0.5108296871185303,0.033955166656952904,-0.5481538446810477,-0.09781784429893281,0.10534035477421318,-0.2172038858266996,0.0,0.0,-0.6,0.0,0.0011515617370605469,0.005217552185058594,0
1.817143440246582,-0.024750560522079468,-0.007603079546242952,-0.5114451050758362,0.034334016341915165,-0.5483616296656925,-0.13086542155268127,0.01243996916500796,-0.21978325489473086,0.0,0.0,-0.6,0.0,0.005451202392578125,0.009433746337890625,0
1.8285658359527588,-0.024750560522079468,-0.007603079546242952,-0.5114451050758362,0.034334016341915165,-0.5483616296656925,-0.13086542155268127,0.01243996916500796,-0.21978325489473086,0.0,0.0,-0.6,0.0,0.0010864734649658203,0.005028724670410156,0
1.8368396759033203,-0.02473110519349575,-0.00733333732932806,-0.5115922689437866,0.034388966525353816,-0.5485228047680514,-0.1400354887017833,0.019963112876679817,-0.22014246331345275,0.0,0.0,-0.6,0.0,0.004547119140625,0.008687734603881836,0
1.8469328880310059,-0.02473110519349575,-0.00733333732932806,-0.5115922689437866,0.034388966525353816,-0.5485228047680514,-0.1400354887017833,0.019963112876679817,-0.22014246331345275,0.0,0.0,-0.6,0.0,0.001209259033203125,0.005246400833129883,0
1.8575332164764404,-0.024773843586444855,-0.00666140066459775,-0.5120087265968323,0.034479341787039396,-0.5477285955093009,-0.13481572132298905,0.04471269323002406,-0.2206779775317174,0.0,0.0,-0.6,0.0,0.0056040287017822266,0.009348154067993164,0
1.8682196140289307,-0.024773843586444855,-0.00666140066459775,-0.5120087265968323,0.034479341787039396,-0.5477285955093009,-0.13481572132298905,0.04471269323002406,-0.2206779775317174,0.0,0.0,-0.6,0.0,0.0011053085327148438,0.004868030548095703,0
1.8775722980499268,-0.024770287796854973,-0.0061240182258188725,-0.5122421383857727,0.03465071691342719,-0.5474678666866709,-0.08457728779143729,0.09469577857306795,-0.22165414951101403,0.0,0.0,-0.6,0.0,0.005524873733520508,0.009461641311645508,0
1.8883376121520996,-0.024770287796854973,-0.0061240182258188725,-0.5122421383857727,0.03465071691342719,-0.5474678666866709,-0.08457728779143729,0.09469577857306795,-0.22165414951101403,0.0,0.0,-0.6,0.0,0.0010645389556884766,0.00474858283996582,0
1.8970732688903809,-0.024875370785593987,-0.00565800815820694,-0.5125159025192261,0.03464979629375908,-0.5477800298497282,-0.09968493726538699,0.03197708999174769,-0.2216964619796948,0.0,0.0,-0.6,0.0,0.005542755126953125,0.009502172470092773,0
1.9078621864318848,-0.024875370785593987,-0.00565800815820694,-0.5125159025192261,0.03464979629375908,-0.5477800298497282,-0.09968493726538699,0.03197708999174769,-0.2216964619796948,0.0,0.0,-0.6,0.0,0.001062631607055664,0.004683971405029297,0
1.9173829555511475,-0.024882547557353973,-0.0051181805320084095,-0.5126950144767761,0.03461842388085674,-0.5475610500729794,-0.06751547426810599,0.02995986077880748,-0.22144154534244137,0.0,0.0,-0.6,0.0,0.004420280456542969,0.008195877075195312,0
1.926957368850708,-0.024882547557353973,-0.0051181805320084095,-0.5126950144767761,0.03461842388085674,-0.5475610500729794,-0.06751547426810599,0.02995986077880748,-0.22144154534244137,0.0,0.0,-0.6,0.0,0.0011060237884521484,0.005034446716308594,0
1.936814785003662,-0.024920640513300896,-0.0046074725687503815,-0.5129732489585876,0.03480385988631876,-0.548190717842389,-0.10790708323438332,-0.07334951745656117,-0.22269551652738923,0.0,0.0,-0.6,0.0,0.005641937255859375,0.009421348571777344,0
1.9477217197418213,-0.024920640513300896,-0.0046074725687503815,-0.5129732489585876,0.03480385988631876,-0.548190717842389,-0.10790708323438332,-0.07334951745656117,-0.22269551652738923,0.0,0.0,-0.6,0.0,0.0010752677917480469,0.005059480667114258,0
1.9568171501159668,-0.024887163192033768,-0.004110095091164112,-0.5131654143333435,0.034813681365895896,-0.5482693114498971,-0.006561511798617659,-0.08930857386738755,-0.22262058982515573,0.0,0.0,-0.6,0.0,0.005892515182495117,0.009910106658935547,0
1.9681553840637207,-0.024887163192033768,-0.004110095091164112,-0.5131654143333435,0.034813681365895896,-0.5482693114498971,-0.006561511798617659,-0.08930857386738755,-0.22262058982515573,0.0,0.0,-0.6,0.0,0.0010728836059570312,0.005060672760009766,0
1.9772312641143799,-0.025007162243127823,-0.0037066112272441387,-0.5133600831031799,0.034844747567492805,-0.5470925878529144,-0.004521889315100852,-0.08964612229557402,-0.22280344854492365,0.0,0.0,-0.6,0.0,0.004589080810546875,0.008278131484985352,0
1.9869911670684814,-0.025007162243127823,-0.0037066112272441387,-0.5133600831031799,0.034844747567492805,-0.5470925878529144,-0.004521889315100852,-0.08964612229557402,-0.22280344854492365,0.0,0.0,-0.6,0.0,0.0010950565338134766,0.0050373077392578125,0
1.997298240661621,-0.025088464841246605,-0.0033282784279435873,-0.5136078000068665,0.03475902897672087,-0.5457965140544182,0.03182997169259137,-0.0682424615219533,-0.22221176341077975,0.0,0.0,-0.6,0.0,0.004638195037841797,0.008484125137329102,0
2.0070998668670654,-0.025088464841246605,-0.0033282784279435873,-0.5136078000068665,0.03475902897672087,-0.5457965140544182,0.03182997169259137,-0.0682424615219533,-0.22221176341077975,0.0,0.0,-0.6,0.0,0.0010840892791748047,0.004767179489135742,0
2.016782283782959,-0.025172896683216095,-0.002960008569061756,-0.5139210224151611,0.03476445421712442,-0.545701451385194,-0.03921628000192115,-0.05931463918861433,-0.2222945880387045,0.0,0.0,-0.6,0.0,0.005593776702880859,0.009484052658081055,0
2.0275299549102783,-0.025172896683216095,-0.002960008569061756,-0.5139210224151611,0.03476445421712442,-0.545701451385194,-0.03921628000192115,-0.05931463918861433,-0.2222945880387045,0.0,0.0,-0.6,0.0,0.0011019706726074219,0.005179643630981445,0
2.0367867946624756,-0.025289038196206093,-0.002624504268169403,-0.5142453908920288,0.034721344320650126,-0.5456117651880728,-0.005276486443884207,-0.1601531345643822,-0.22195070657633317,0.0,0.0,-0.6,0.0,0.0056841373443603516,0.00964498519897461,0
2.04775333404541,-0.025289038196206093,-0.002624504268169403,-0.5142453908920288,0.034721344320650126,-0.5456117651880728,-0.005276486443884207,-0.1601531345643822,-0.22195070657633317,0.0,0.0,-0.6,0.0,0.001108407974243164,0.005001068115234375,0
2.05705189704895,-0.025474905967712402,-0.002199318492785096,-0.514569878578186,0.03467833664125345,-0.5467025529476591,0.030886958288718007,-0.1512627643810132,-0.2216491365242709,0.0,0.0,-0.6,0.0,0.00562739372253418,0.009373664855957031,0
2.0677359104156494,-0.025474905967712402,-0.002199318492785096,-0.514569878578186,0.03467833664125345,-0.5467025529476591,0.030886958288718007,-0.1512627643810132,-0.2216491365242709,0.0,0.0,-0.6,0.0,0.0010755062103271484,0.004785776138305664,0
2.077578067779541,-0.02561033144593239,-0.0018220507772639394,-0.5150105953216553,0.03455888899294479,-0.5465532005779066,0.013429888034323474,-0.1843999009064455,-0.22088342562478716,0.0,0.0,-0.6,0.0,0.0055544376373291016,0.009458780288696289,0
2.08845853805542,-0.02561033144593239,-0.0018220507772639394,-0.5150105953216553,0.03455888899294479,-0.5465532005779066,0.013429888034323474,-0.1843999009064455,-0.22088342562478716,0.0,0.0,-0.6,0.0,0.0010695457458496094,0.005141735076904297,0
2.0978119373321533,-0.025727875530719757,-0.0014080834807828069,-0.5153905749320984,0.03449906105724172,-0.5459801724444451,0.10386277951619712,-0.1227658243850851,-0.22045516521009642,0.0,0.0,-0.6,0.0,0.005658626556396484,0.009469270706176758,0
2.1086525917053223,-0.025727875530719757,-0.0014080834807828069,-0.5153905749320984,0.03449906105724172,-0.5459801724444451,0.10386277951619712,-0.1227658243850851,-0.22045516521009642,0.0,0.0,-0.6,0.0,0.0010499954223632812,0.004895687103271484,0
2.116785764694214,-0.02601820044219494,-0.0011504895519465208,-0.5156441330909729,0.03444161742476602,-0.5465393094791834,-0.007077209070454269,-0.1530062803825964,-0.22016328747333686,0.0,0.0,-0.6,0.0,0.0058515071868896484,0.01004481315612793,0
2.128298282623291,-0.02601820044219494,-0.0011504895519465208,-0.5156441330909729,0.03444161742476602,-0.5465393094791834,-0.007077209070454269,-0.1530062803825964,-0.22016328747333686,0.0,0.0,-0.6,0.0,0.0011241436004638672,0.005230903625488281,0
2.136838436126709,-0.026213018223643303,-0.0010689490009099245,-0.5158646106719971,0.03425000579159818,-0.5456019746831756,0.05673607169423458,-0.14406547364596506,-0.21886848964602781,0.0,0.0,-0.6,0.0,0.005812406539916992,0.009609222412109375,0
2.147804021835327,-0.026213018223643303,-0.0010689490009099245,-0.5158646106719971,0.03425000579159818,-0.5456019746831756,0.05673607169423458,-0.14406547364596506,-0.21886848964602781,0.0,0.0,-0.6,0.0,0.0011126995086669922,0.005010366439819336,0
2.1568238735198975,-0.026488611474633217,-0.0009665593970566988,-0.5159986615180969,0.034211151063514945,-0.5477337544299986,0.09146949637885643,-0.0755294974988522,-0.21860791183624945,0.0,0.0,-0.6,0.0,0.005850553512573242,0.009834766387939453,0
2.1683595180511475,-0.026488611474633217,-0.0009665593970566988,-0.5159986615180969,0.034211151063514945,-0.5477337544299986,0.09146949637885643,-0.0755294974988522,-0.21860791183624945,0.0,0.0,-0.6,0.0,0.0011627674102783203,0.005037546157836914,0
2.177295684814453,-0.026716867461800575,-0.000986862345598638,-0.5160155892372131,0.03424368084057765,-0.548265000238887,0.13846334806877106,-0.1616260263861784,-0.21870303910207603,0.0,0.0,-0.6,0.0,0.005701303482055664,0.00966501235961914,0
2.1884305477142334,-0.026716867461800575,-0.000986862345598638,-0.5160155892372131,0.03424368084057765,-0.548265000238887,0.13846334806877106,-0.1616260263861784,-0.21870303910207603,0.0,0.0,-0.6,0.0,0.0011856555938720703,0.005274057388305664,0
2.1967554092407227,-0.027028163895010948,-0.0008568953489884734,-0.5160178542137146,0.03398555270919336,-0.5482478444476908,0.20924975432292048,-0.11007274493158521,-0.21699923308931895,0.0,0.0,-0.6,0.0,0.005632638931274414,0.009532451629638672,0
2.2076220512390137,-0.027028163895010948,-0.0008568953489884734,-0.5160178542137146,0.03398555270919336,-0.5482478444476908,0.20924975432292048,-0.11007274493158521,-0.21699923308931895,0.0,0.0,-0.6,0.0,0.0010895729064941406,0.004900932312011719,0
2.216817855834961,-0.027299914509058,-0.0008304645889438689,-0.5160675048828125,0.033957516008047715,-0.5487344881931001,0.13969990820287553,-0.14246522944950768,-0.21687234821855014,0.0,0.0,-0.6,0.0,0.005466461181640625,0.00948476791381836,0
2.22761869430542,-0.027299914509058,-0.0008304645889438689,-0.5160675048828125,0.033957516008047715,-0.5487344881931001,0.13969990820287553,-0.14246522944950768,-0.21687234821855014,0.0,0.0,-0.6,0.0,0.001190185546875,0.005236148834228516,0
2.2368714809417725,-0.027485951781272888,-0.0007677835528738797,-0.5160103440284729,0.03389071461396608,-0.5487904162115813,0.10991654838061647,-0.13164813446225204,-0.2164875344693596,0.0,0.0,-0.6,0.0,0.005393266677856445,0.008961677551269531,0
2.247196674346924,-0.027485951781272888,-0.0007677835528738797,-0.5160103440284729,0.03389071461396608,-0.5487904162115813,0.10991654838061647,-0.13164813446225204,-0.2164875344693596,0.0,0.0,-0.6,0.0,0.0010895729064941406,0.004778623580932617,0
2.2567574977874756,-0.0278579443693161,-0.0007336752605624497,-0.515904426574707,0.03367067431590844,-0.5492753531459461,0.02650148159394067,-0.11148716564100486,-0.21521246456503934,0.0,0.0,-0.6,0.0,0.00583648681640625,0.009815454483032227,0
2.2680113315582275,-0.0278579443693161,-0.0007336752605624497,-0.515904426574707,0.03367067431590844,-0.5492753531459461,0.02650148159394067,-0.11148716564100486,-0.21521246456503934,0.0,0.0,-0.6,0.0,0.0011518001556396484,0.005476951599121094,0
2.2777535915374756,-0.028130369260907173,-0.0007208588067442179,-0.5157254338264465,0.033302183545434225,-0.548493004374513,0.039118851952924596,-0.010692843712527397,-0.21287255740509595,0.0,0.0,-0.6,0.0,0.005517482757568359,0.009382009506225586,0
2.2884633541107178,-0.028130369260907173,-0.0007208588067442179,-0.5157254338264465,0.033302183545434225,-0.548493004374513,0.039118851952924596,-0.010692843712527397,-0.21287255740509595,0.0,0.0,-0.6,0.0,0.001081228256225586,0.0047757625579833984,0
2.2969865798950195,-0.02835346944630146,-0.0006639938801527023,-0.5156633853912354,0.0328898689905507,-0.5497236585402298,0.016132246166347588,0.037526693947342496,-0.21027488415806536,0.0,0.0,-0.6,0.0,0.005349636077880859,0.008951187133789062,0
2.3072211742401123,-0.02835346944630146,-0.0006639938801527023,-0.5156633853912354,0.0328898689905507,-0.5497236585402298,0.016132246166347588,0.037526693947342496,-0.21027488415806536,0.0,0.0,-0.6,0.0,0.0010683536529541016,0.004682064056396484,0
2.3168044090270996,-0.02856306917965412,-0.0005800578510388732,-0.5154340863227844,0.03235016478070796,-0.5506051630362051,0.0590191693635119,-0.002454289007834583,-0.20675814732760886,0.0,0.0,-0.6,0.0,0.005534648895263672,0.009978294372558594,0
2.3284146785736084,-0.02856306917965412,-0.0005800578510388732,-0.5154340863227844,0.03235016478070796,-0.5506051630362051,0.0590191693635119,-0.002454289007834583,-0.20675814732760886,0.0,0.0,-0.6,0.0,0.0012149810791015625,0.005471229553222656,0
2.3373923301696777,-0.028896046802401543,-0.0005561853758990765,-0.5151432752609253,0.03179460665451181,-0.5505218714060335,-0.05555671368988656,-0.04101787811150698,-0.20345378086625213,0.0,0.0,-0.6,0.0,0.005652189254760742,0.009530782699584961,0
2.348310947418213,-0.028896046802401543,-0.0005561853758990765,-0.5151432752609253,0.03179460665451181,-0.5505218714060335,-0.05555671368988656,-0.04101787811150698,-0.20345378086625213,0.0,0.0,-0.6,0.0,0.0011341571807861328,0.004980802536010742,0
2.3569393157958984,-0.029016774147748947,-0.00059722107835114,-0.5150704979896545,0.031168203707843945,-0.550048094490199,-0.09255871175008,-0.004301421962123789,-0.19952011775761225,0.0,0.0,-0.6,0.0,0.0054891109466552734,0.009646177291870117,0
2.367851734161377,-0.029016774147748947,-0.00059722107835114,-0.5150704979896545,0.031168203707843945,-0.550048094490199,-0.09255871175008,-0.004301421962123789,-0.19952011775761225,0.0,0.0,-0.6,0.0,0.0010514259338378906,0.0049591064453125,0
2.377405881881714,-0.029071863740682602,-0.0005352080333977938,-0.5149255990982056,0.030451527041665722,-0.5499561681140978,-0.09817429258436448,0.08255924341869414,-0.19489504405964106,0.0,0.0,-0.6,0.0,0.00587010383605957,0.009810924530029297,0
2.3886375427246094,-0.029071863740682602,-0.0005352080333977938,-0.5149255990982056,0.030451527041665722,-0.5499561681140978,-0.09817429258436448,0.08255924341869414,-0.19489504405964106,0.0,0.0,-0.6,0.0,0.001092672348022461,0.004807949066162109,0
2.39794921875,-0.02912558801472187,-0.0004916010075248778,-0.5147603750228882,0.029243403783689392,-0.5481305649784531,-0.1471548126803917,0.21315318178107373,-0.18715733546021593,0.0,0.0,-0.6,0.0,0.005765199661254883,0.00965261459350586,0
2.4090309143066406,-0.02912558801472187,-0.0004916010075248778,-0.5147603750228882,0.029243403783689392,-0.5481305649784531,-0.1471548126803917,0.21315318178107373,-0.18715733546021593,0.0,0.0,-0.6,0.0,0.0011622905731201172,0.005021095275878906,0
2.417184829711914,-0.029068876057863235,-0.0004821513139177114,-0.514716625213623,0.02870378426384388,-0.5479221337483623,-0.1324477427331069,0.2472350100144549,-0.18363359292329076,0.0,0.0,-0.6,0.0,0.0055735111236572266,0.00938272476196289,0
2.4287009239196777,-0.029006190598011017,-0.00043007679050788283,-0.5147013664245605,0.028280173200624724,-0.5486926309361854,-0.201582110908864,0.2532684101933259,-0.181102297129948,0.0,0.0,-0.6,0.0,0.005412578582763672,0.009368419647216797,0
2.440706729888916,-0.02890375629067421,-0.0003079016169067472,-0.5145646333694458,0.027460761178809433,-0.549209679975148,-0.23483123228157443,0.2104854660415188,-0.1760261749132332,0.0,0.0,-0.6,0.0,0.0056171417236328125,0.009607791900634766,0
2.451631784439087,-0.02890375629067421,-0.0003079016169067472,-0.5145646333694458,0.027460761178809433,-0.549209679975148,-0.23483123228157443,0.2104854660415188,-0.1760261749132332,0.0,0.0,-0.6,0.0,0.0010786056518554688,0.004916191101074219,0
2.4590394496917725,-0.028714966028928757,-0.0001711648073978722,-0.5146156549453735,0.02680246212706581,-0.54933273653133,-0.2139579681678009,0.1918062817933222,-0.17180433973202036,0.0,0.0,-0.6,0.0,0.005571126937866211,0.009522199630737305,0
2.4700770378112793,-0.028714966028928757,-0.0001711648073978722,-0.5146156549453735,0.02680246212706581,-0.54933273653133,-0.2139579681678009,0.1918062817933222,-0.17180433973202036,0.0,0.0,-0.6,0.0,0.0011298656463623047,0.004973173141479492,0
2.477992057800293,-0.028521403670310974,7.137828652048483e-05,-0.5145756602287292,0.026263754322073514,-0.5483713539004346,-0.18552617531452134,0.25435823337712593,-0.1681847615533725,0.0,0.0,-0.6,0.0,0.005635499954223633,0.009423255920410156,0
2.48887300491333,-0.028521403670310974,7.137828652048483e-05,-0.5145756602287292,0.026263754322073514,-0.5483713539004346,-0.18552617531452134,0.25435823337712593,-0.1681847615533725,0.0,0.0,-0.6,0.0,0.0010950565338134766,0.004982471466064453,0
2.4972472190856934,-0.028495633974671364,0.00014930851466488093,-0.5144909620285034,0.025750204242705646,-0.5495105752725079,-0.1818667324478042,0.20423893961571526,-0.16495409390863172,0.0,0.0,-0.6,0.0,0.005596637725830078,0.009433746337890625,0
2.508535623550415,-0.028495633974671364,0.00014930851466488093,-0.5144909620285034,0.025750204242705646,-0.5495105752725079,-0.1818667324478042,0.20423893961571526,-0.16495409390863172,0.0,0.0,-0.6,0.0,0.0011115074157714844,0.0048944950103759766,0
2.51694393157959,-0.02834426425397396,0.0003887948696501553,-0.5144285559654236,0.02520124529362189,-0.5475992554416284,-0.2529755935396192,0.25732884041304777,-0.16155566844284117,0.0,0.0,-0.6,0.0,0.00550389289855957,0.00947260856628418,0
2.5284109115600586,-0.02834426425397396,0.0003887948696501553,-0.5144285559654236,0.02520124529362189,-0.5475992554416284,-0.2529755935396192,0.25732884041304777,-0.16155566844284117,0.0,0.0,-0.6,0.0,0.0010967254638671875,0.005021572113037109,0
2.5368645191192627,-0.028256559744477272,0.00041259414865635335,-0.5144221782684326,0.024906178272836064,-0.5482512626125666,-0.19602114672915102,0.19163059982091504,-0.1595999833860837,0.0,0.0,-0.6,0.0,0.005836009979248047,0.009887933731079102,0
2.5482306480407715,-0.028256559744477272,0.00041259414865635335,-0.5144221782684326,0.024906178272836064,-0.5482512626125666,-0.19602114672915102,0.19163059982091504,-0.1595999833860837,0.0,0.0,-0.6,0.0,0.001165628433227539,0.005242586135864258,0
2.5582082271575928,-0.028058115392923355,0.0007308687781915069,-0.5141016840934753,0.024157715137082002,-0.5494406615468751,-0.06900494610952654,0.2071316843599935,-0.15448115900456755,0.0,0.0,-0.6,0.0,0.005558490753173828,0.009226083755493164,0
2.5689079761505127,-0.028058115392923355,0.0007308687781915069,-0.5141016840934753,0.024157715137082002,-0.5494406615468751,-0.06900494610952654,0.2071316843599935,-0.15448115900456755,0.0,0.0,-0.6,0.0,0.0010883808135986328,0.004945516586303711,0
2.5773065090179443,-0.02802739478647709,0.0008460789686068892,-0.5138956308364868,0.023703032803499523,-0.5512988396065174,-0.11351751114673354,0.12847037800251107,-0.15172479918671122,0.0,0.0,-0.6,0.0,0.005446434020996094,0.009542226791381836,0
2.5882396697998047,-0.02802739478647709,0.0008460789686068892,-0.5138956308364868,0.023703032803499523,-0.5512988396065174,-0.11351751114673354,0.12847037800251107,-0.15172479918671122,0.0,0.0,-0.6,0.0,0.0011119842529296875,0.004942417144775391,0
2.596804618835449,-0.02769698016345501,0.0010114088654518127,-0.513584554195404,0.023302239916491302,-0.5513992770121833,-0.05385106986879142,0.008454774218562278,-0.14911122402311233,0.0,0.0,-0.6,0.0,0.005836963653564453,0.009827613830566406,0
2.6080288887023926,-0.02769698016345501,0.0010114088654518127,-0.513584554195404,0.023302239916491302,-0.5513992770121833,-0.05385106986879142,0.008454774218562278,-0.14911122402311233,0.0,0.0,-0.6,0.0,0.0011692047119140625,0.0052661895751953125,0
