time,x,y,z,yaw,throttle,roll_rate,pitch_rate,yaw_rate,x_ref,y_ref,z_ref,yaw_ref,mpc_time,ctrl_callback_time_history,metadata
3.814697265625e-06,-0.07650404423475266,-0.01680256985127926,-0.23979109525680542,0.07350419062764771,-0.5898103583396022,0.051131164813563924,-0.5274589688772755,-0.47015479993269743,0.0,0.0,-0.6,0.0,0.0160369873046875,0.022602319717407227,Hardware
0.023858070373535156,-0.07650404423475266,-0.01680256985127926,-0.23979109525680542,0.07350419062764771,-0.5898103583396022,0.051131164813563924,-0.5274589688772755,-0.47015479993269743,0.0,0.0,-0.6,0.0,0.0011928081512451172,0.005131721496582031,2x Speed
0.03250432014465332,-0.07652060687541962,-0.01680154539644718,-0.23980273306369781,0.07348672525429299,-0.5897450065037709,0.048694150486222686,-0.5309651534177333,-0.4700474082207198,0.0,0.0,-0.6,0.0,0.0065915584564208984,0.010979175567626953,Horizon:3.0
0.04583883285522461,-0.07651866227388382,-0.016801562160253525,-0.23980678617954254,0.07350679606162572,-0.5897869729039635,0.051137439873570015,-0.5305502677439223,-0.47017295307165713,0.0,0.0,-0.6,0.0,0.0064449310302734375,0.010935068130493164,Num Steps:20
0.05939149856567383,-0.07651866227388382,-0.016801562160253525,-0.23980678617954254,0.07350679606162572,-0.5897869729039635,0.051137439873570015,-0.5305502677439223,-0.47017295307165713,0.0,0.0,-0.6,0.0,0.0013341903686523438,0.006098747253417969,No Pyjoules
0.0696401596069336,-0.07652796059846878,-0.016799423843622208,-0.23982498049736023,0.07356668656528548,-0.5893741715868274,0.050974374132962345,-0.5319916724266313,-0.47055656173842014,0.0,0.0,-0.6,0.0,0.006282806396484375,0.011425971984863281,0
0.08277750015258789,-0.07652796059846878,-0.016799423843622208,-0.23982498049736023,0.07356668656528548,-0.5893741715868274,0.050974374132962345,-0.5319916724266313,-0.47055656173842014,0.0,0.0,-0.6,0.0,0.0014905929565429688,0.006340742111206055,0
0.09251546859741211,-0.07654400914907455,-0.016784543171525,-0.23991747200489044,0.07297953477724195,-0.5891588954953693,0.03230578111155548,-0.5317874154320847,-0.46681012379080367,0.0,0.0,-0.6,0.0,0.006272554397583008,0.010578155517578125,0
0.10512065887451172,-0.07654400914907455,-0.016784543171525,-0.23991747200489044,0.07297953477724195,-0.5891588954953693,0.03230578111155548,-0.5317874154320847,-0.46681012379080367,0.0,0.0,-0.6,0.0,0.0012631416320800781,0.006784915924072266,0
0.1142110824584961,-0.07647259533405304,-0.016754787415266037,-0.24005858600139618,0.07163719377329408,-0.5883486570340647,0.04977133480510303,-0.49201885048637606,-0.4582065860858125,0.0,0.0,-0.6,0.0,0.006368398666381836,0.011361837387084961,0
0.12768054008483887,-0.07647259533405304,-0.016754787415266037,-0.24005858600139618,0.07163719377329408,-0.5883486570340647,0.04977133480510303,-0.49201885048637606,-0.4582065860858125,0.0,0.0,-0.6,0.0,0.0012025833129882812,0.005773305892944336,0
0.1360185146331787,-0.07616221904754639,-0.016780443489551544,-0.2402755171060562,0.07198036626027081,-0.5872332367196121,0.07532271791702075,-0.40922072357273753,-0.46035690143715985,0.0,0.0,-0.6,0.0,0.007392168045043945,0.011935949325561523,0
0.15001201629638672,-0.07616221904754639,-0.016780443489551544,-0.2402755171060562,0.07198036626027081,-0.5872332367196121,0.07532271791702075,-0.40922072357273753,-0.46035690143715985,0.0,0.0,-0.6,0.0,0.0011637210845947266,0.005320310592651367,0
0.15942692756652832,-0.0755394920706749,-0.01686517708003521,-0.2406250536441803,0.07259451278829251,-0.5850472249178624,0.06556629048248024,-0.2953997643444716,-0.4642377435970067,0.0,0.0,-0.6,0.0,0.0072286128997802734,0.012038230895996094,0
0.17328739166259766,-0.0755394920706749,-0.01686517708003521,-0.2406250536441803,0.07259451278829251,-0.5850472249178624,0.06556629048248024,-0.2953997643444716,-0.4642377435970067,0.0,0.0,-0.6,0.0,0.001468658447265625,0.0064585208892822266,0
0.18243098258972168,-0.07395154237747192,-0.017068497836589813,-0.24188822507858276,0.07118767177304192,-0.5780411744766828,0.07161945548477798,-0.06828966188192455,-0.4551200828955779,0.0,0.0,-0.6,0.0,0.007759809494018555,0.012161493301391602,0
0.19746780395507812,-0.07395154237747192,-0.017068497836589813,-0.24188822507858276,0.07118767177304192,-0.5780411744766828,0.07161945548477798,-0.06828966188192455,-0.4551200828955779,0.0,0.0,-0.6,0.0,0.0015730857849121094,0.006095170974731445,0
0.2057962417602539,-0.07241000235080719,-0.01717560924589634,-0.2435896396636963,0.07021898732220005,-0.574602611872754,0.06544469852639528,0.08544883580769402,-0.4488542626287663,0.0,0.0,-0.6,0.0,0.0074346065521240234,0.012077808380126953,0
0.22066688537597656,-0.07241000235080719,-0.01717560924589634,-0.2435896396636963,0.07021898732220005,-0.574602611872754,0.06544469852639528,0.08544883580769402,-0.4488542626287663,0.0,0.0,-0.6,0.0,0.0014455318450927734,0.006032705307006836,0
0.22905468940734863,-0.06976398080587387,-0.01729467138648033,-0.24728302657604218,0.06784673220340799,-0.5633851802185005,0.08462646450111351,0.27955899391170863,-0.43350282104953325,0.0,0.0,-0.6,0.0,0.006409168243408203,0.010834932327270508,0
0.2426290512084961,-0.06976398080587387,-0.01729467138648033,-0.24728302657604218,0.06784673220340799,-0.5633851802185005,0.08462646450111351,0.27955899391170863,-0.43350282104953325,0.0,0.0,-0.6,0.0,0.001384735107421875,0.00614619255065918,0
0.2513465881347656,-0.06794346123933792,-0.017387274652719498,-0.2506418228149414,0.06555478846802601,-0.5582202681058228,0.03298025448237227,0.4115115312055572,-0.41886468964080903,0.0,0.0,-0.6,0.0,0.006536722183227539,0.011518239974975586,0
0.26459574699401855,-0.06794346123933792,-0.017387274652719498,-0.2506418228149414,0.06555478846802601,-0.5582202681058228,0.03298025448237227,0.4115115312055572,-0.41886468964080903,0.0,0.0,-0.6,0.0,0.0014247894287109375,0.005766391754150391,0
0.2743105888366699,-0.06612719595432281,-0.017396261915564537,-0.2547018229961395,0.062779069897392,-0.5529919857213736,0.02623925083375139,0.5167418991928214,-0.4010012107194486,0.0,0.0,-0.6,0.0,0.006598472595214844,0.011066436767578125,0
0.28713035583496094,-0.06612719595432281,-0.017396261915564537,-0.2547018229961395,0.062779069897392,-0.5529919857213736,0.02623925083375139,0.5167418991928214,-0.4010012107194486,0.0,0.0,-0.6,0.0,0.0012538433074951172,0.006663799285888672,0
0.2965877056121826,-0.06429188698530197,-0.01734938845038414,-0.2594188451766968,0.05985481492621203,-0.5468532650862988,-0.025481683583792356,0.579508409110417,-0.3823826943018867,0.0,0.0,-0.6,0.0,0.005791425704956055,0.01055455207824707,0
0.3092806339263916,-0.06429188698530197,-0.01734938845038414,-0.2594188451766968,0.05985481492621203,-0.5468532650862988,-0.025481683583792356,0.579508409110417,-0.3823826943018867,0.0,0.0,-0.6,0.0,0.00157928466796875,0.006399393081665039,0
0.32036828994750977,-0.06135028600692749,-0.01733938418328762,-0.26776373386383057,0.055229999291128457,-0.536429809501329,-0.015720092231764304,0.6568043738890272,-0.35261652765500656,0.0,0.0,-0.6,0.0,0.007609367370605469,0.012838125228881836,0
0.3341805934906006,-0.06135028600692749,-0.01733938418328762,-0.26776373386383057,0.055229999291128457,-0.536429809501329,-0.015720092231764304,0.6568043738890272,-0.35261652765500656,0.0,0.0,-0.6,0.0,0.0016064643859863281,0.005788564682006836,0
0.3425023555755615,-0.05930541455745697,-0.017319532111287117,-0.2740457057952881,0.05176616240293541,-0.5297484412075256,-0.02053129180901697,0.6285179264499245,-0.3304747956330433,0.0,0.0,-0.6,0.0,0.006261587142944336,0.011411190032958984,0
0.35535550117492676,-0.05930541455745697,-0.017319532111287117,-0.2740457057952881,0.05176616240293541,-0.5297484412075256,-0.02053129180901697,0.6285179264499245,-0.3304747956330433,0.0,0.0,-0.6,0.0,0.00113677978515625,0.0061893463134765625,0
0.3638465404510498,-0.057093724608421326,-0.017299043014645576,-0.28081372380256653,0.04832178321465618,-0.5245776641458186,-0.05209906571623624,0.6765192680810838,-0.3084663186638284,0.0,0.0,-0.6,0.0,0.007141828536987305,0.012333869934082031,0
0.3798985481262207,-0.057093724608421326,-0.017299043014645576,-0.28081372380256653,0.04832178321465618,-0.5245776641458186,-0.05209906571623624,0.6765192680810838,-0.3084663186638284,0.0,0.0,-0.6,0.0,0.0012180805206298828,0.006130218505859375,0
0.3907194137573242,-0.0537034273147583,-0.01721750758588314,-0.2918376326560974,0.04322870115487469,-0.5151272574275827,-0.03113251350101152,0.6303462756266462,-0.27581217406638114,0.0,0.0,-0.6,0.0,0.0072019100189208984,0.012451171875,0
0.40471887588500977,-0.0537034273147583,-0.01721750758588314,-0.2918376326560974,0.04322870115487469,-0.5151272574275827,-0.03113251350101152,0.6303462756266462,-0.27581217406638114,0.0,0.0,-0.6,0.0,0.0013763904571533203,0.005545854568481445,0
0.41341328620910645,-0.05250457674264908,-0.017205800861120224,-0.29577669501304626,0.04146073901010126,-0.5136957232548783,-0.024144755856949512,0.5612752707665928,-0.26457395712604986,0.0,0.0,-0.6,0.0,0.006390094757080078,0.011183500289916992,0
0.42767786979675293,-0.05015184357762337,-0.017148751765489578,-0.3036758303642273,0.038043822029956174,-0.5091671149541714,-0.030180924412502114,0.51019800046803,-0.2427903449404015,0.0,0.0,-0.6,0.0,0.00604557991027832,0.010664224624633789,0
0.44034385681152344,-0.05015184357762337,-0.017148751765489578,-0.3036758303642273,0.038043822029956174,-0.5091671149541714,-0.030180924412502114,0.51019800046803,-0.2427903449404015,0.0,0.0,-0.6,0.0,0.0011053085327148438,0.005599498748779297,0
0.44921445846557617,-0.04773739352822304,-0.017169998958706856,-0.31205129623413086,0.034632198649196706,-0.5051548061360006,-0.05274830423182595,0.4590107492347598,-0.22107810584544388,0.0,0.0,-0.6,0.0,0.005823850631713867,0.010698318481445312,0
0.46146416664123535,-0.04773739352822304,-0.017169998958706856,-0.31205129623413086,0.034632198649196706,-0.5051548061360006,-0.05274830423182595,0.4590107492347598,-0.22107810584544388,0.0,0.0,-0.6,0.0,0.0016345977783203125,0.005997896194458008,0
0.47136545181274414,-0.045435670763254166,-0.017117734998464584,-0.320314884185791,0.031278703608917345,-0.5019529330574755,-0.029935440385942407,0.3611174687072866,-0.19971010198578115,0.0,0.0,-0.6,0.0,0.005894184112548828,0.010266780853271484,0
0.48387956619262695,-0.04302303493022919,-0.017173336818814278,-0.32894325256347656,0.02801772544262576,-0.49593367123637666,0.026146249117925742,0.2575733915711894,-0.17899265372418993,0.0,0.0,-0.6,0.0,0.0075016021728515625,0.013236761093139648,0
0.4992637634277344,-0.04302303493022919,-0.017173336818814278,-0.32894325256347656,0.02801772544262576,-0.49593367123637666,0.026146249117925742,0.2575733915711894,-0.17899265372418993,0.0,0.0,-0.6,0.0,0.0013916492462158203,0.006636857986450195,0
0.509812593460083,-0.04059804975986481,-0.01714540459215641,-0.33751171827316284,0.024807012984052555,-0.49652856314959193,0.008804125380496068,0.14772235765891778,-0.1585909008947548,0.0,0.0,-0.6,0.0,0.006220579147338867,0.011350631713867188,0
0.5232346057891846,-0.038087911903858185,-0.017104975879192352,-0.3460327386856079,0.02177352922600914,-0.4937242205322192,0.018651149881722836,0.051217797869227054,-0.13930833940369172,0.0,0.0,-0.6,0.0,0.007922887802124023,0.012410163879394531,0
0.5376894474029541,-0.038087911903858185,-0.017104975879192352,-0.3460327386856079,0.02177352922600914,-0.4937242205322192,0.018651149881722836,0.051217797869227054,-0.13930833940369172,0.0,0.0,-0.6,0.0,0.0012602806091308594,0.006230831146240234,0
0.5460617542266846,-0.035669852048158646,-0.01703195460140705,-0.35451844334602356,0.01887448607492976,-0.4923574395428718,0.007008917325435662,-0.03212032862061226,-0.12082580140960297,0.0,0.0,-0.6,0.0,0.0063533782958984375,0.010951757431030273,0
0.5584964752197266,-0.035669852048158646,-0.01703195460140705,-0.35451844334602356,0.01887448607492976,-0.4923574395428718,0.007008917325435662,-0.03212032862061226,-0.12082580140960297,0.0,0.0,-0.6,0.0,0.0012378692626953125,0.005400657653808594,0
0.5668022632598877,-0.03334048390388489,-0.01691966876387596,-0.3629032373428345,0.01603728934367212,-0.49123341883760097,0.00757411888372531,-0.08696966851549325,-0.10272704406036152,0.0,0.0,-0.6,0.0,0.00589299201965332,0.010543346405029297,0
0.5808773040771484,-0.03219995275139809,-0.016848446801304817,-0.3670094907283783,0.014712899302249852,-0.49049433976075785,0.011207927111047252,-0.1084239815336069,-0.09428576986410124,0.0,0.0,-0.6,0.0,0.006399631500244141,0.011250495910644531,0
0.5951693058013916,-0.02996007353067398,-0.01667795144021511,-0.3750588893890381,0.012148482226148286,-0.4894129367256159,0.021316969375353798,-0.14405336812029837,-0.0779487027577883,0.0,0.0,-0.6,0.0,0.0064427852630615234,0.011416912078857422,0
0.6081504821777344,-0.02996007353067398,-0.01667795144021511,-0.3750588893890381,0.012148482226148286,-0.4894129367256159,0.021316969375353798,-0.14405336812029837,-0.0779487027577883,0.0,0.0,-0.6,0.0,0.001529693603515625,0.006041049957275391,0
0.6175482273101807,-0.027837349101901054,-0.016495976597070694,-0.38294681906700134,0.009678154344061433,-0.48803408682355764,0.025230538684186014,-0.1888255477999074,-0.062202316133852346,0.0,0.0,-0.6,0.0,0.006361722946166992,0.01139378547668457,0
0.6304292678833008,-0.027837349101901054,-0.016495976597070694,-0.38294681906700134,0.009678154344061433,-0.48803408682355764,0.025230538684186014,-0.1888255477999074,-0.062202316133852346,0.0,0.0,-0.6,0.0,0.0013773441314697266,0.006128549575805664,0
0.6394546031951904,-0.02583448216319084,-0.01632850244641304,-0.3905925154685974,0.007295770129619633,-0.48811281290038255,0.01596159309794477,-0.2134264246631736,-0.046964453238240715,0.0,0.0,-0.6,0.0,0.006387233734130859,0.010740280151367188,0
0.6528189182281494,-0.023894062265753746,-0.01617623120546341,-0.3980005383491516,0.005200818063402213,-0.4867863674556818,0.014918714216983837,-0.2299660281680606,-0.03356691940952222,0.0,0.0,-0.6,0.0,0.006022214889526367,0.010023832321166992,0
0.6649463176727295,-0.023894062265753746,-0.01617623120546341,-0.3980005383491516,0.005200818063402213,-0.4867863674556818,0.014918714216983837,-0.2299660281680606,-0.03356691940952222,0.0,0.0,-0.6,0.0,0.0015437602996826172,0.0068356990814208984,0
0.6747884750366211,-0.022067248821258545,-0.016062479466199875,-0.40519067645072937,0.0033615092320948637,-0.48735182699107504,0.004577819580437057,-0.240890819728505,-0.021761957449411676,0.0,0.0,-0.6,0.0,0.005910396575927734,0.010594367980957031,0
0.6881084442138672,-0.022067248821258545,-0.016062479466199875,-0.40519067645072937,0.0033615092320948637,-0.48735182699107504,0.004577819580437057,-0.240890819728505,-0.021761957449411676,0.0,0.0,-0.6,0.0,0.0014922618865966797,0.0065155029296875,0
0.6969473361968994,-0.020420752465724945,-0.015941351652145386,-0.412132203578949,0.0016818535067756298,-0.48734750268632865,-0.006468472022187953,-0.23238089982368684,-0.0109632674428911,0.0,0.0,-0.6,0.0,0.0061228275299072266,0.01114344596862793,0
0.71097731590271,-0.020420752465724945,-0.015941351652145386,-0.412132203578949,0.0016818535067756298,-0.48734750268632865,-0.006468472022187953,-0.23238089982368684,-0.0109632674428911,0.0,0.0,-0.6,0.0,0.0013568401336669922,0.0061681270599365234,0
0.7200155258178711,-0.018203185871243477,-0.01571027748286724,-0.4219900667667389,-0.0006291942860360385,-0.4877637801876783,-0.024883195453115684,-0.16729729784908998,0.003910413285746062,0.0,0.0,-0.6,0.0,0.0058956146240234375,0.011204242706298828,0
0.732818603515625,-0.018203185871243477,-0.01571027748286724,-0.4219900667667389,-0.0006291942860360385,-0.4877637801876783,-0.024883195453115684,-0.16729729784908998,0.003910413285746062,0.0,0.0,-0.6,0.0,0.0014011859893798828,0.006246089935302734,0
0.7418472766876221,-0.016836076974868774,-0.015463145449757576,-0.42819884419441223,-0.0020509895659986347,-0.4874701232520553,-0.04822196771524327,-0.11565108926989587,0.013075217036149103,0.0,0.0,-0.6,0.0,0.0061528682708740234,0.010677337646484375,0
0.7544050216674805,-0.016836076974868774,-0.015463145449757576,-0.42819884419441223,-0.0020509895659986347,-0.4874701232520553,-0.04822196771524327,-0.11565108926989587,0.013075217036149103,0.0,0.0,-0.6,0.0,0.0014119148254394531,0.0063855648040771484,0
0.7636044025421143,-0.015553394332528114,-0.015191500075161457,-0.4341689348220825,-0.0031219749536601313,-0.4880347586767192,-0.08031064607146982,-0.06265625182314774,0.019993229595936867,0.0,0.0,-0.6,0.0,0.006552696228027344,0.011099815368652344,0
0.7772455215454102,-0.015553394332528114,-0.015191500075161457,-0.4341689348220825,-0.0031219749536601313,-0.4880347586767192,-0.08031064607146982,-0.06265625182314774,0.019993229595936867,0.0,0.0,-0.6,0.0,0.0011281967163085938,0.005602836608886719,0
0.784844160079956,-0.014385480433702469,-0.014931376092135906,-0.4398505389690399,-0.004198763207477105,-0.48918179062629286,-0.11105169542198082,-0.024596127691545372,0.02691931942798473,0.0,0.0,-0.6,0.0,0.006575345993041992,0.011063337326049805,0
0.798593282699585,-0.014385480433702469,-0.014931376092135906,-0.4398505389690399,-0.004198763207477105,-0.48918179062629286,-0.11105169542198082,-0.024596127691545372,0.02691931942798473,0.0,0.0,-0.6,0.0,0.0014352798461914062,0.006421089172363281,0
0.8076362609863281,-0.013318638317286968,-0.014644390903413296,-0.4452381432056427,-0.005183178338172024,-0.4901237215120221,-0.14675768131950043,0.01164889701097145,0.03324213304922831,0.0,0.0,-0.6,0.0,0.005832195281982422,0.010750770568847656,0
0.8209912776947021,-0.01231521274894476,-0.014320548623800278,-0.4502953886985779,-0.006024617438368441,-0.4910747302990921,-0.14830290930822185,0.03205277988272124,0.038603826486789915,0.0,0.0,-0.6,0.0,0.005273342132568359,0.010158538818359375,0
0.833045482635498,-0.01231521274894476,-0.014320548623800278,-0.4502953886985779,-0.006024617438368441,-0.4910747302990921,-0.14830290930822185,0.03205277988272124,0.038603826486789915,0.0,0.0,-0.6,0.0,0.0014178752899169922,0.00592350959777832,0
0.8419575691223145,-0.011410226114094257,-0.01396538969129324,-0.4550454318523407,-0.006708652072065243,-0.49327698187818425,-0.14342874148784246,0.02769129361833894,0.04294665105744979,0.0,0.0,-0.6,0.0,0.004739284515380859,0.00963282585144043,0
0.8532850742340088,-0.011410226114094257,-0.01396538969129324,-0.4550454318523407,-0.006708652072065243,-0.49327698187818425,-0.14342874148784246,0.02769129361833894,0.04294665105744979,0.0,0.0,-0.6,0.0,0.001598358154296875,0.0060002803802490234,0
0.8626728057861328,-0.010606573894619942,-0.01357547752559185,-0.45946455001831055,-0.007300243350959909,-0.494883932857331,-0.1219603100102684,0.026767698353883262,0.04670476785546206,0.0,0.0,-0.6,0.0,0.004738569259643555,0.00924992561340332,0
0.874518632888794,-0.010606573894619942,-0.01357547752559185,-0.45946455001831055,-0.007300243350959909,-0.494883932857331,-0.1219603100102684,0.026767698353883262,0.04670476785546206,0.0,0.0,-0.6,0.0,0.0011157989501953125,0.00512385368347168,0
0.8822951316833496,-0.009853912517428398,-0.013167722150683403,-0.46359318494796753,-0.007855275643614946,-0.49537776093638075,-0.09640573367875355,0.014353569422362468,0.0502329807756599,0.0,0.0,-0.6,0.0,0.0051326751708984375,0.009401321411132812,0
0.8930149078369141,-0.009853912517428398,-0.013167722150683403,-0.46359318494796753,-0.007855275643614946,-0.49537776093638075,-0.09640573367875355,0.014353569422362468,0.0502329807756599,0.0,0.0,-0.6,0.0,0.0010831356048583984,0.004915475845336914,0
0.900475263595581,-0.009153355844318867,-0.012735686264932156,-0.4674820303916931,-0.008237415104096552,-0.49636328275729,-0.08571754048283635,0.01836029762947437,0.05267435162434267,0.0,0.0,-0.6,0.0,0.0043981075286865234,0.008376598358154297,0
0.9101223945617676,-0.009153355844318867,-0.012735686264932156,-0.4674820303916931,-0.008237415104096552,-0.49636328275729,-0.08571754048283635,0.01836029762947437,0.05267435162434267,0.0,0.0,-0.6,0.0,0.0011396408081054688,0.004850864410400391,0
0.9194777011871338,-0.008483602665364742,-0.012280402705073357,-0.47111406922340393,-0.008422862116438634,-0.4965006989183389,-0.07136346370866502,0.025169756121504634,0.053861507143276297,0.0,0.0,-0.6,0.0,0.004496097564697266,0.008479118347167969,0
0.9292750358581543,-0.008483602665364742,-0.012280402705073357,-0.47111406922340393,-0.008422862116438634,-0.4965006989183389,-0.07136346370866502,0.025169756121504634,0.053861507143276297,0.0,0.0,-0.6,0.0,0.001154184341430664,0.0048961639404296875,0
0.9389541149139404,-0.007830673828721046,-0.011870081536471844,-0.4745621383190155,-0.008587763695096742,-0.49671841075449275,-0.052474213795307346,0.054046604431475014,0.05492879858283064,0.0,0.0,-0.6,0.0,0.0045435428619384766,0.008344173431396484,0
0.9500186443328857,-0.0075054713524878025,-0.011694625951349735,-0.4762509763240814,-0.008676989946241019,-0.4964937851887574,-0.043721707224375746,0.06428825545563031,0.05550188610765635,0.0,0.0,-0.6,0.0,0.004571676254272461,0.008565902709960938,0
0.9603495597839355,-0.0075054713524878025,-0.011694625951349735,-0.4762509763240814,-0.008676989946241019,-0.4964937851887574,-0.043721707224375746,0.06428825545563031,0.05550188610765635,0.0,0.0,-0.6,0.0,0.0010960102081298828,0.004824399948120117,0
1.2623720169067383,-0.006864691618829966,-0.0113833574578166,-0.4796206057071686,-0.008869217949095877,-0.4956574415207631,-0.03396314750032897,0.09518029276797582,0.0567350537754159,0.0,0.0,-0.6,0.0,0.004557132720947266,0.008371353149414062,0
1.2726526260375977,-0.006864691618829966,-0.0113833574578166,-0.4796206057071686,-0.008869217949095877,-0.4956574415207631,-0.03396314750032897,0.09518029276797582,0.0567350537754159,0.0,0.0,-0.6,0.0,0.001069784164428711,0.004800319671630859,0
1.2802762985229492,0.0007331827073357999,-0.008090839721262455,-0.5131250619888306,-0.004470751943018628,-0.5099216280753259,0.07212319712456072,0.017336542573701402,0.028591758687650827,0.0,0.0,-0.6,0.0,0.005538225173950195,0.009515523910522461,0
1.2918152809143066,0.0007331827073357999,-0.008090839721262455,-0.5131250619888306,-0.004470751943018628,-0.5099216280753259,0.07212319712456072,0.017336542573701402,0.028591758687650827,0.0,0.0,-0.6,0.0,0.0010540485382080078,0.004859447479248047,0
1.2992310523986816,0.0009241230436600745,-0.008092650212347507,-0.513801097869873,-0.003675549347256551,-0.5109434409517354,0.06564944236697451,0.03250212939193588,0.02349734054826117,0.0,0.0,-0.6,0.0,0.004510641098022461,0.008379697799682617,0
1.3089439868927002,0.0009241230436600745,-0.008092650212347507,-0.513801097869873,-0.003675549347256551,-0.5109434409517354,0.06564944236697451,0.03250212939193588,0.02349734054826117,0.0,0.0,-0.6,0.0,0.001148223876953125,0.004990816116333008,0
1.3189890384674072,0.001102167647331953,-0.008109097369015217,-0.5143876671791077,-0.002793908418046724,-0.511884597097764,0.077596792183499,0.03317245318993124,0.017855288467881706,0.0,0.0,-0.6,0.0,0.004703521728515625,0.008743524551391602,0
1.3291478157043457,0.001102167647331953,-0.008109097369015217,-0.5143876671791077,-0.002793908418046724,-0.511884597097764,0.077596792183499,0.03317245318993124,0.017855288467881706,0.0,0.0,-0.6,0.0,0.0011734962463378906,0.005029201507568359,0
1.3390109539031982,0.0012119823368266225,-0.008154156617820263,-0.5148231983184814,-0.0021283912825885527,-0.512835248327812,0.09858554864589188,0.027309352073304503,0.013592189053668385,0.0,0.0,-0.6,0.0,0.004536151885986328,0.008496284484863281,0
1.3489151000976562,0.0012119823368266225,-0.008154156617820263,-0.5148231983184814,-0.0021283912825885527,-0.512835248327812,0.09858554864589188,0.027309352073304503,0.013592189053668385,0.0,0.0,-0.6,0.0,0.0011115074157714844,0.004967451095581055,0
1.358931303024292,0.0013354740804061294,-0.00826954934746027,-0.5152560472488403,-0.0015247837471403063,-0.512148400050267,0.1297929015866505,0.029154641285669018,0.009717127284444252,0.0,0.0,-0.6,0.0,0.004667758941650391,0.008859395980834961,0
1.3697843551635742,0.0013354740804061294,-0.00826954934746027,-0.5152560472488403,-0.0015247837471403063,-0.512148400050267,0.1297929015866505,0.029154641285669018,0.009717127284444252,0.0,0.0,-0.6,0.0,0.0011723041534423828,0.005152463912963867,0
1.379579782485962,0.0014506583102047443,-0.008425610139966011,-0.5157694816589355,-0.0008807491353354666,-0.5116908668732266,0.14269688396218214,0.006003694613068356,0.0055949489158017614,0.0,0.0,-0.6,0.0,0.004445075988769531,0.00851297378540039,0
1.3893096446990967,0.0014506583102047443,-0.008425610139966011,-0.5157694816589355,-0.0008807491353354666,-0.5116908668732266,0.14269688396218214,0.006003694613068356,0.0055949489158017614,0.0,0.0,-0.6,0.0,0.0011525154113769531,0.00486445426940918,0
1.3993818759918213,0.0015174716245383024,-0.008573602885007858,-0.5162937641143799,-0.0004917260615944114,-0.5113781060840342,0.13598998099716386,-0.005459993344787306,0.003104958263251856,0.0,0.0,-0.6,0.0,0.004473209381103516,0.008617877960205078,0
1.4092531204223633,0.0015174716245383024,-0.008573602885007858,-0.5162937641143799,-0.0004917260615944114,-0.5113781060840342,0.13598998099716386,-0.005459993344787306,0.003104958263251856,0.0,0.0,-0.6,0.0,0.0011987686157226562,0.004986763000488281,0
1.4194676876068115,0.001595413195900619,-0.008688648231327534,-0.5168616771697998,-0.0001748631385964464,-0.51072820731732,0.11114316043715701,-0.0036146896896685357,0.001081100147698386,0.0,0.0,-0.6,0.0,0.0045740604400634766,0.008673906326293945,0
1.4293866157531738,0.001595413195900619,-0.008688648231327534,-0.5168616771697998,-0.0001748631385964464,-0.51072820731732,0.11114316043715701,-0.0036146896896685357,0.001081100147698386,0.0,0.0,-0.6,0.0,0.0012176036834716797,0.004916191101074219,0
1.4390168190002441,0.0017023150576278567,-0.008784778416156769,-0.517471969127655,5.9945080647595254e-05,-0.5102809634097594,0.07725299781336277,0.003104295875926394,-0.0004106235262901053,0.0,0.0,-0.6,0.0,0.0044710636138916016,0.008486270904541016,0
1.4508018493652344,0.0017498693196102977,-0.008836090564727783,-0.5178043246269226,0.00014474771660450705,-0.5101577915832228,0.05803659180273961,0.004090862964366609,-0.0009462189515688287,0.0,0.0,-0.6,0.0,0.0044803619384765625,0.008265256881713867,0
1.4603898525238037,0.0017498693196102977,-0.008836090564727783,-0.5178043246269226,0.00014474771660450705,-0.5101577915832228,0.05803659180273961,0.004090862964366609,-0.0009462189515688287,0.0,0.0,-0.6,0.0,0.0011074542999267578,0.0049512386322021484,0
1.470564365386963,0.0018341636750847101,-0.008958558551967144,-0.5185269713401794,0.0002914198097481506,-0.5094523419977144,0.02247152023554515,0.01254463471855972,-0.0018685953505041357,0.0,0.0,-0.6,0.0,0.004418611526489258,0.008266687393188477,0
1.4801177978515625,0.0018341636750847101,-0.008958558551967144,-0.5185269713401794,0.0002914198097481506,-0.5094523419977144,0.02247152023554515,0.01254463471855972,-0.0018685953505041357,0.0,0.0,-0.6,0.0,0.0010676383972167969,0.004842996597290039,0
1.489656925201416,0.001842436846345663,-0.009099157527089119,-0.5193173885345459,0.0004024352448012657,-0.5087654232165835,-0.010548613263559303,-0.005973724731880586,-0.002575334899034545,0.0,0.0,-0.6,0.0,0.004583597183227539,0.008712530136108398,0
1.499725341796875,0.001842436846345663,-0.009099157527089119,-0.5193173885345459,0.0004024352448012657,-0.5087654232165835,-0.010548613263559303,-0.005973724731880586,-0.002575334899034545,0.0,0.0,-0.6,0.0,0.0010979175567626953,0.004899024963378906,0
1.5093739032745361,0.0017327903769910336,-0.009238360449671745,-0.5201076865196228,0.0004950873480855864,-0.5094656257639067,-0.04702612152734981,-0.03932422358902047,-0.003181277570637924,0.0,0.0,-0.6,0.0,0.004399299621582031,0.008339166641235352,0
1.5196619033813477,0.0017327903769910336,-0.009238360449671745,-0.5201076865196228,0.0004950873480855864,-0.5094656257639067,-0.04702612152734981,-0.03932422358902047,-0.003181277570637924,0.0,0.0,-0.6,0.0,0.001094818115234375,0.005147695541381836,0
1.5293033123016357,0.001557334209792316,-0.009370545856654644,-0.5207984447479248,0.0005168712957495646,-0.509523605392708,-0.05541346801177454,-0.06089980607816281,-0.0033381233578179325,0.0,0.0,-0.6,0.0,0.0043904781341552734,0.008342742919921875,0
1.5390071868896484,0.001557334209792316,-0.009370545856654644,-0.5207984447479248,0.0005168712957495646,-0.509523605392708,-0.05541346801177454,-0.06089980607816281,-0.0033381233578179325,0.0,0.0,-0.6,0.0,0.0011334419250488281,0.0050487518310546875,0
1.549225091934204,0.0013681427808478475,-0.00954658817499876,-0.5215303897857666,0.0006228998792703102,-0.5082607903574343,-0.05127229660076519,-0.08842899942408916,-0.004039113867337655,0.0,0.0,-0.6,0.0,0.00453495979309082,0.008583784103393555,0
1.5590579509735107,0.0013681427808478475,-0.00954658817499876,-0.5215303897857666,0.0006228998792703102,-0.5082607903574343,-0.05127229660076519,-0.08842899942408916,-0.004039113867337655,0.0,0.0,-0.6,0.0,0.0010755062103271484,0.004821300506591797,0
1.5701932907104492,0.0011605924228206277,-0.009724502451717854,-0.5223429203033447,0.0007098428645007656,-0.5075774734317501,-0.04863863879294856,-0.11537609717451751,-0.004614988030163897,0.0,0.0,-0.6,0.0,0.004601716995239258,0.008562803268432617,0
1.5800890922546387,0.0011605924228206277,-0.009724502451717854,-0.5223429203033447,0.0007098428645007656,-0.5075774734317501,-0.04863863879294856,-0.11537609717451751,-0.004614988030163897,0.0,0.0,-0.6,0.0,0.001058340072631836,0.004848957061767578,0
1.5890135765075684,0.0009269227739423513,-0.009867452085018158,-0.5231011509895325,0.0008596982060937417,-0.5078722333541381,-0.03961118702055132,-0.11332435362334474,-0.0055707568232656966,0.0,0.0,-0.6,0.0,0.004413604736328125,0.008851766586303711,0
1.5995171070098877,0.0009269227739423513,-0.009867452085018158,-0.5231011509895325,0.0008596982060937417,-0.5078722333541381,-0.03961118702055132,-0.11332435362334474,-0.0055707568232656966,0.0,0.0,-0.6,0.0,0.0012195110321044922,0.005705595016479492,0
1.6092374324798584,0.0006900933221913874,-0.010067208670079708,-0.5239721536636353,0.0011035981627549457,-0.5058804781052776,-0.005951733708340495,-0.09286184096117765,-0.007113464069464558,0.0,0.0,-0.6,0.0,0.004541158676147461,0.008503198623657227,0
1.619117021560669,0.0006900933221913874,-0.010067208670079708,-0.5239721536636353,0.0011035981627549457,-0.5058804781052776,-0.005951733708340495,-0.09286184096117765,-0.007113464069464558,0.0,0.0,-0.6,0.0,0.0011014938354492188,0.005058765411376953,0
1.6289286613464355,0.0004191770567558706,-0.010220234282314777,-0.5248960852622986,0.0012855238158229324,-0.5061938306688757,0.006917978791865999,-0.07065073215055108,-0.008255504660781097,0.0,0.0,-0.6,0.0,0.0044879913330078125,0.008490562438964844,0
1.640892744064331,0.00026495219208300114,-0.010281853377819061,-0.5253289937973022,0.0013370674930438698,-0.5063845727260377,0.026386238407187134,-0.05355331704631065,-0.008574531799263459,0.0,0.0,-0.6,0.0,0.004945039749145508,0.009060382843017578,0
1.6512629985809326,0.00026495219208300114,-0.010281853377819061,-0.5253289937973022,0.0013370674930438698,-0.5063845727260377,0.026386238407187134,-0.05355331704631065,-0.008574531799263459,0.0,0.0,-0.6,0.0,0.0011243820190429688,0.005183696746826172,0
1.6590840816497803,-3.1408235372509807e-06,-0.010417619720101357,-0.5262036919593811,0.001557499396627925,-0.5054694896257164,0.07211624811216649,0.009120693162112116,-0.009951154156605538,0.0,0.0,-0.6,0.0,0.004448652267456055,0.008584737777709961,0
1.6695504188537598,-3.1408235372509807e-06,-0.010417619720101357,-0.5262036919593811,0.001557499396627925,-0.5054694896257164,0.07211624811216649,0.009120693162112116,-0.009951154156605538,0.0,0.0,-0.6,0.0,0.0011463165283203125,0.004952430725097656,0
1.6790101528167725,-0.00018249303684569895,-0.010545714758336544,-0.5270676016807556,0.0018740829576946358,-0.5061400853803742,0.11194752632030429,0.07077464457741112,-0.01193667088055887,0.0,0.0,-0.6,0.0,0.004463911056518555,0.008570432662963867,0
1.6906754970550537,-0.00026402834919281304,-0.010614312253892422,-0.5274760723114014,0.0020127087798402607,-0.5058304548070633,0.13248793100050618,0.09353976616977829,-0.012802798224236443,0.0,0.0,-0.6,0.0,0.004572629928588867,0.008590936660766602,0
1.7007551193237305,-0.00026402834919281304,-0.010614312253892422,-0.5274760723114014,0.0020127087798402607,-0.5058304548070633,0.13248793100050618,0.09353976616977829,-0.012802798224236443,0.0,0.0,-0.6,0.0,0.0010783672332763672,0.004958629608154297,0
1.7089345455169678,-0.0004519530921243131,-0.010745301842689514,-0.5283014178276062,0.002233244958017513,-0.5056060571724886,0.1494226756689841,0.12272699333377268,-0.014179604504936745,0.0,0.0,-0.6,0.0,0.004523277282714844,0.00834965705871582,0
1.7199616432189941,-0.0005547309410758317,-0.010792196728289127,-0.5286965370178223,0.0023079202282165344,-0.5058129779315025,0.14987463313242927,0.13144604199883844,-0.014643851558919507,0.0,0.0,-0.6,0.0,0.004666328430175781,0.008712053298950195,0
1.730034589767456,-0.0005547309410758317,-0.010792196728289127,-0.5286965370178223,0.0023079202282165344,-0.5058129779315025,0.14987463313242927,0.13144604199883844,-0.014643851558919507,0.0,0.0,-0.6,0.0,0.0011148452758789062,0.005042076110839844,0
1.7390360832214355,-0.0008139630663208663,-0.010878419503569603,-0.5294413566589355,0.0023293384132485177,-0.5055860401268443,0.1511855058066333,0.12497625418372353,-0.014754634219437984,0.0,0.0,-0.6,0.0,0.00500178337097168,0.009059906005859375,0
1.7496702671051025,-0.0008139630663208663,-0.010878419503569603,-0.5294413566589355,0.0023293384132485177,-0.5055860401268443,0.1511855058066333,0.12497625418372353,-0.014754634219437984,0.0,0.0,-0.6,0.0,0.0011267662048339844,0.005178213119506836,0
1.7589104175567627,-0.0011306838132441044,-0.01090984046459198,-0.5300166010856628,0.0023177060515409756,-0.5072215632126431,0.11270549102796255,0.0862104419768614,-0.014694220998174462,0.0,0.0,-0.6,0.0,0.004689216613769531,0.00874638557434082,0
1.7696902751922607,-0.0011306838132441044,-0.01090984046459198,-0.5300166010856628,0.0023177060515409756,-0.5072215632126431,0.11270549102796255,0.0862104419768614,-0.014694220998174462,0.0,0.0,-0.6,0.0,0.0011210441589355469,0.005185127258300781,0
1.779017448425293,-0.0015597682213410735,-0.010891735553741455,-0.5303611159324646,0.0022854537751522248,-0.5086424080777264,0.07208951286938192,0.02056123569506603,-0.014533860338388372,0.0,0.0,-0.6,0.0,0.004796266555786133,0.008785724639892578,0
1.7892460823059082,-0.0015597682213410735,-0.010891735553741455,-0.5303611159324646,0.0022854537751522248,-0.5086424080777264,0.07208951286938192,0.02056123569506603,-0.014533860338388372,0.0,0.0,-0.6,0.0,0.001177072525024414,0.005320072174072266,0
1.7990121841430664,-0.002093050628900528,-0.010875362902879715,-0.5305166244506836,0.002108819176627495,-0.5107635276471303,0.01849745155570247,-0.04790647848033976,-0.013493374052729198,0.0,0.0,-0.6,0.0,0.00553584098815918,0.009613037109375,0
1.8099391460418701,-0.002093050628900528,-0.010875362902879715,-0.5305166244506836,0.002108819176627495,-0.5107635276471303,0.01849745155570247,-0.04790647848033976,-0.013493374052729198,0.0,0.0,-0.6,0.0,0.0010981559753417969,0.005059242248535156,0
1.8192126750946045,-0.0027001702692359686,-0.010847052559256554,-0.5304877758026123,0.0019222912808471277,-0.512612246024273,-0.04710609110700574,-0.10037462925281425,-0.012402316631533817,0.0,0.0,-0.6,0.0,0.004549980163574219,0.008309125900268555,0
1.8288469314575195,-0.0027001702692359686,-0.010847052559256554,-0.5304877758026123,0.0019222912808471277,-0.512612246024273,-0.04710609110700574,-0.10037462925281425,-0.012402316631533817,0.0,0.0,-0.6,0.0,0.0011157989501953125,0.004884004592895508,0
1.83907151222229,-0.0033183800987899303,-0.010820523835718632,-0.5303530693054199,0.0017083306004436255,-0.5131258560425923,-0.0923628391515275,-0.12990098552863852,-0.011104075058886557,0.0,0.0,-0.6,0.0,0.004584550857543945,0.008638381958007812,0
1.8490395545959473,-0.0033183800987899303,-0.010820523835718632,-0.5303530693054199,0.0017083306004436255,-0.5131258560425923,-0.0923628391515275,-0.12990098552863852,-0.011104075058886557,0.0,0.0,-0.6,0.0,0.0011413097381591797,0.005055427551269531,0
1.8590211868286133,-0.003962380811572075,-0.010821572504937649,-0.5302199721336365,0.0015835711416639158,-0.5128529041913732,-0.1325879962223515,-0.16025579112557878,-0.010370980647861742,0.0,0.0,-0.6,0.0,0.004681587219238281,0.008730649948120117,0
1.8695943355560303,-0.003962380811572075,-0.010821572504937649,-0.5302199721336365,0.0015835711416639158,-0.5128529041913732,-0.1325879962223515,-0.16025579112557878,-0.010370980647861742,0.0,0.0,-0.6,0.0,0.0011875629425048828,0.005242824554443359,0
1.8793296813964844,-0.004622828681021929,-0.010808855295181274,-0.5300965309143066,0.0014564989869438095,-0.5132888550654485,-0.17251835243261796,-0.16308500965731074,-0.009585765856830068,0.0,0.0,-0.6,0.0,0.0045735836029052734,0.008481979370117188,0
1.8892223834991455,-0.004622828681021929,-0.010808855295181274,-0.5300965309143066,0.0014564989869438095,-0.5132888550654485,-0.17251835243261796,-0.16308500965731074,-0.009585765856830068,0.0,0.0,-0.6,0.0,0.0011146068572998047,0.004854917526245117,0
1.8990833759307861,-0.005225467029958963,-0.010765735991299152,-0.5299190878868103,0.0013741839464969695,-0.5132691099820224,-0.19856473325555113,-0.13002083460517755,-0.009031178620291801,0.0,0.0,-0.6,0.0,0.004582643508911133,0.008550167083740234,0
1.910109281539917,-0.005485168192535639,-0.01074422337114811,-0.5298470854759216,0.0013475285395281066,-0.5125154821977956,-0.19015296775842316,-0.11769821872659413,-0.00884685332787534,0.0,0.0,-0.6,0.0,0.004621744155883789,0.008589982986450195,0
1.9200048446655273,-0.005485168192535639,-0.01074422337114811,-0.5298470854759216,0.0013475285395281066,-0.5125154821977956,-0.19015296775842316,-0.11769821872659413,-0.00884685332787534,0.0,0.0,-0.6,0.0,0.0011138916015625,0.005041599273681641,0
1.9289255142211914,-0.006019879132509232,-0.010741423815488815,-0.5298029184341431,0.0012135332575224388,-0.5119723128254544,-0.165459659580795,-0.11902214366767783,-0.00799119695289906,0.0,0.0,-0.6,0.0,0.004456758499145508,0.008281230926513672,0
1.9401113986968994,-0.006304186303168535,-0.010735967196524143,-0.5297819375991821,0.0011377477675471315,-0.5115426296879242,-0.15831070661850227,-0.10343340971076888,-0.00748525140997448,0.0,0.0,-0.6,0.0,0.004488229751586914,0.008540868759155273,0
1.9498684406280518,-0.006304186303168535,-0.010735967196524143,-0.5297819375991821,0.0011377477675471315,-0.5115426296879242,-0.15831070661850227,-0.10343340971076888,-0.00748525140997448,0.0,0.0,-0.6,0.0,0.0011749267578125,0.005066633224487305,0
1.9589836597442627,-0.006813171785324812,-0.010716702789068222,-0.529814600944519,0.0010510480041191056,-0.5107728506620033,-0.13310057507839188,-0.04532701448397427,-0.006853760106203211,0.0,0.0,-0.6,0.0,0.004683017730712891,0.00881505012512207,0
1.9697370529174805,-0.006813171785324812,-0.010716702789068222,-0.529814600944519,0.0010510480041191056,-0.5107728506620033,-0.13310057507839188,-0.04532701448397427,-0.006853760106203211,0.0,0.0,-0.6,0.0,0.0011718273162841797,0.004977703094482422,0
1.9792075157165527,-0.0072755818255245686,-0.010680337436497211,-0.5298782587051392,0.0010125779323929918,-0.5104371340757723,-0.09455997404984073,0.007594509511529935,-0.006540700826682425,0.0,0.0,-0.6,0.0,0.0047054290771484375,0.008603334426879883,0
1.9890108108520508,-0.0072755818255245686,-0.010680337436497211,-0.5298782587051392,0.0010125779323929918,-0.5104371340757723,-0.09455997404984073,0.007594509511529935,-0.006540700826682425,0.0,0.0,-0.6,0.0,0.0011227130889892578,0.0048940181732177734,0
1.9992296695709229,-0.007787209935486317,-0.010616338811814785,-0.5299808382987976,0.0010974775641882503,-0.5104731419819313,-0.057506224708548985,0.04780522188502838,-0.007036477994628567,0.0,0.0,-0.6,0.0,0.0047457218170166016,0.009060144424438477,0
2.009526491165161,-0.007787209935486317,-0.010616338811814785,-0.5299808382987976,0.0010974775641882503,-0.5104731419819313,-0.057506224708548985,0.04780522188502838,-0.007036477994628567,0.0,0.0,-0.6,0.0,0.0011434555053710938,0.005122184753417969,0
2.0192463397979736,-0.008328443393111229,-0.010493484325706959,-0.5300233960151672,0.0012113476297035107,-0.510657501393239,-0.00846708262417807,0.08536890275871227,-0.007708938542117931,0.0,0.0,-0.6,0.0,0.004618406295776367,0.008435964584350586,0
2.0290112495422363,-0.008328443393111229,-0.010493484325706959,-0.5300233960151672,0.0012113476297035107,-0.510657501393239,-0.00846708262417807,0.08536890275871227,-0.007708938542117931,0.0,0.0,-0.6,0.0,0.0011532306671142578,0.0049686431884765625,0
2.039036273956299,-0.008846762590110302,-0.010367138311266899,-0.5300225615501404,0.0012601096682973876,-0.5109099667320097,0.05240152954737917,0.12252310054322899,-0.007953732645664917,0.0,0.0,-0.6,0.0,0.004534721374511719,0.008469104766845703,0
2.0489180088043213,-0.008846762590110302,-0.010367138311266899,-0.5300225615501404,0.0012601096682973876,-0.5109099667320097,0.05240152954737917,0.12252310054322899,-0.007953732645664917,0.0,0.0,-0.6,0.0,0.0011627674102783203,0.005213737487792969,0
2.058928966522217,-0.009305236861109734,-0.01025936659425497,-0.529959499835968,0.0012320887742654713,-0.5113361298477027,0.11928671301790135,0.14844488482411833,-0.007700527007824906,0.0,0.0,-0.6,0.0,0.004519939422607422,0.008340835571289062,0
2.0707926750183105,-0.009516811929643154,-0.010217935778200626,-0.5299115180969238,0.0012019733869639492,-0.5114416977899011,0.14770756198414553,0.15542398682549952,-0.007475922261405887,0.0,0.0,-0.6,0.0,0.004695415496826172,0.008772611618041992,0
2.080932378768921,-0.009516811929643154,-0.010217935778200626,-0.5299115180969238,0.0012019733869639492,-0.5114416977899011,0.14770756198414553,0.15542398682549952,-0.007475922261405887,0.0,0.0,-0.6,0.0,0.0010836124420166016,0.004911899566650391,0
2.0889904499053955,-0.009909012354910374,-0.010126855224370956,-0.5297786593437195,0.0011402787339406587,-0.5121960957268489,0.18382812137571083,0.1594095132858308,-0.007041387548607983,0.0,0.0,-0.6,0.0,0.004575967788696289,0.008652925491333008,0
2.0988872051239014,-0.009909012354910374,-0.010126855224370956,-0.5297786593437195,0.0011402787339406587,-0.5121960957268489,0.18382812137571083,0.1594095132858308,-0.007041387548607983,0.0,0.0,-0.6,0.0,0.0010619163513183594,0.00509953498840332,0
2.108929395675659,-0.010326892137527466,-0.009968691505491734,-0.5295351147651672,0.0009157914896403937,-0.5135461621872481,0.1955462162495232,0.1484403703027222,-0.005594587936861261,0.0,0.0,-0.6,0.0,0.0044863224029541016,0.008560657501220703,0
2.1191046237945557,-0.010326892137527466,-0.009968691505491734,-0.5295351147651672,0.0009157914896403937,-0.5135461621872481,0.1955462162495232,0.1484403703027222,-0.005594587936861261,0.0,0.0,-0.6,0.0,0.0012822151184082031,0.0055925846099853516,0
2.128964424133301,-0.01075448002666235,-0.009709127247333527,-0.5291575193405151,0.0006502427131132228,-0.5144159451224086,0.17409399863972172,0.11695052027947565,-0.003927048378632007,0.0,0.0,-0.6,0.0,0.004554033279418945,0.008630037307739258,0
2.1390538215637207,-0.01075448002666235,-0.009709127247333527,-0.5291575193405151,0.0006502427131132228,-0.5144159451224086,0.17409399863972172,0.11695052027947565,-0.003927048378632007,0.0,0.0,-0.6,0.0,0.0012063980102539062,0.005136251449584961,0
2.149475574493408,-0.01118400041013956,-0.009389806538820267,-0.5287250876426697,0.0002620849899444922,-0.5146999373402441,0.14497798195315295,0.07111857115450525,-0.0014808923077358092,0.0,0.0,-0.6,0.0,0.0045201778411865234,0.008437395095825195,0
2.1592905521392822,-0.01118400041013956,-0.009389806538820267,-0.5287250876426697,0.0002620849899444922,-0.5146999373402441,0.14497798195315295,0.07111857115450525,-0.0014808923077358092,0.0,0.0,-0.6,0.0,0.0011470317840576172,0.0051653385162353516,0
2.169426918029785,-0.01157408207654953,-0.009101290255784988,-0.5283393263816833,-0.00011215468319719768,-0.5145954909312508,0.12188349585349904,0.0355866597705971,0.000875579162548847,0.0,0.0,-0.6,0.0,0.004527568817138672,0.008636474609375,0
2.179565668106079,-0.01157408207654953,-0.009101290255784988,-0.5283393263816833,-0.00011215468319719768,-0.5145954909312508,0.12188349585349904,0.0355866597705971,0.000875579162548847,0.0,0.0,-0.6,0.0,0.0012407302856445312,0.005637645721435547,0
2.189375400543213,-0.011908426880836487,-0.008908981457352638,-0.5280687212944031,-0.0004113865483784791,-0.5134463660052043,0.11002929439374508,0.00011421798957358243,0.0027616291027001013,0.0,0.0,-0.6,0.0,0.004529714584350586,0.008506059646606445,0
2.1992149353027344,-0.011908426880836487,-0.008908981457352638,-0.5280687212944031,-0.0004113865483784791,-0.5134463660052043,0.11002929439374508,0.00011421798957358243,0.0027616291027001013,0.0,0.0,-0.6,0.0,0.0010876655578613281,0.00508427619934082,0
2.2089645862579346,-0.012212554924190044,-0.008786995895206928,-0.5279515385627747,-0.0006790631541917803,-0.5131669468620496,0.07529138155488076,-0.018742074964007188,0.004422167859940018,0.0,0.0,-0.6,0.0,0.004494905471801758,0.008443355560302734,0
2.220179319381714,-0.012356353923678398,-0.008737115189433098,-0.5279233455657959,-0.0007515333236597683,-0.5129863024919025,0.05334832395685701,-0.0308065594999146,0.004856338478317532,0.0,0.0,-0.6,0.0,0.004967212677001953,0.009050846099853516,0
2.2306697368621826,-0.012356353923678398,-0.008737115189433098,-0.5279233455657959,-0.0007515333236597683,-0.5129863024919025,0.05334832395685701,-0.0308065594999146,0.004856338478317532,0.0,0.0,-0.6,0.0,0.0011150836944580078,0.0050580501556396484,0
2.239039421081543,-0.012637355364859104,-0.008616508916020393,-0.5278465747833252,-0.0007227425520268704,-0.5131857578081823,0.004512865175114809,-0.03984536188358824,0.004614009140082,0.0,0.0,-0.6,0.0,0.004629611968994141,0.008649826049804688,0
2.249018669128418,-0.012637355364859104,-0.008616508916020393,-0.5278465747833252,-0.0007227425520268704,-0.5131857578081823,0.004512865175114809,-0.03984536188358824,0.004614009140082,0.0,0.0,-0.6,0.0,0.0011563301086425781,0.004919528961181641,0
2.2590134143829346,-0.01287841796875,-0.008488453924655914,-0.5278107523918152,-0.0007301725833636439,-0.5127413199984935,-0.015254900600822947,-0.04827936465253274,0.004630262540796018,0.0,0.0,-0.6,0.0,0.004743814468383789,0.008779048919677734,0
2.2699296474456787,-0.01287841796875,-0.008488453924655914,-0.5278107523918152,-0.0007301725833636439,-0.5127413199984935,-0.015254900600822947,-0.04827936465253274,0.004630262540796018,0.0,0.0,-0.6,0.0,0.001115560531616211,0.00521087646484375,0
2.2790699005126953,-0.01308655645698309,-0.008395278826355934,-0.5278279781341553,-0.0008698681763249364,-0.512081587333201,-0.035447248310317786,-0.057473700752774096,0.005492858749818074,0.0,0.0,-0.6,0.0,0.004935264587402344,0.008827447891235352,0
2.2892355918884277,-0.01308655645698309,-0.008395278826355934,-0.5278279781341553,-0.0008698681763249364,-0.512081587333201,-0.035447248310317786,-0.057473700752774096,0.005492858749818074,0.0,0.0,-0.6,0.0,0.0011734962463378906,0.005192756652832031,0
2.2994065284729004,-0.013272296637296677,-0.00824780110269785,-0.5278956890106201,-0.0008412421817275494,-0.5121303961777462,-0.07541263360088091,-0.0681788178915323,0.0052579580430381695,0.0,0.0,-0.6,0.0,0.004663228988647461,0.008695840835571289,0
2.309379816055298,-0.013272296637296677,-0.00824780110269785,-0.5278956890106201,-0.0008412421817275494,-0.5121303961777462,-0.07541263360088091,-0.0681788178915323,0.0052579580430381695,0.0,0.0,-0.6,0.0,0.0011396408081054688,0.0050258636474609375,0
2.3190245628356934,-0.01348156202584505,-0.007990219630300999,-0.5278897881507874,-0.0008844094939946432,-0.5123662546294148,-0.11629705836345655,-0.06619241820473126,0.0054849838606909505,0.0,0.0,-0.6,0.0,0.004511356353759766,0.008505582809448242,0
2.3302388191223145,-0.01356460340321064,-0.007850484922528267,-0.5278744101524353,-0.0009055506325752586,-0.5122039115782709,-0.1304409688525171,-0.05596800160351851,0.005608551852459478,0.0,0.0,-0.6,0.0,0.004514455795288086,0.00852203369140625,0
2.3401567935943604,-0.01356460340321064,-0.007850484922528267,-0.5278744101524353,-0.0009055506325752586,-0.5122039115782709,-0.1304409688525171,-0.05596800160351851,0.005608551852459478,0.0,0.0,-0.6,0.0,0.00112152099609375,0.005140781402587891,0
2.3489577770233154,-0.013713385909795761,-0.007539237849414349,-0.5278117656707764,-0.0009077555933593531,-0.5126182363492393,-0.14625236619860685,-0.0400138102707405,0.005608043295927832,0.0,0.0,-0.6,0.0,0.004792213439941406,0.008814334869384766,0
2.3591458797454834,-0.013713385909795761,-0.007539237849414349,-0.5278117656707764,-0.0009077555933593531,-0.5126182363492393,-0.14625236619860685,-0.0400138102707405,0.005608043295927832,0.0,0.0,-0.6,0.0,0.0012094974517822266,0.005128622055053711,0
2.3704042434692383,-0.013866735622286797,-0.0072492193430662155,-0.527726948261261,-0.0010253873852327617,-0.5128049931627596,-0.1501968263838406,-0.029464011932747773,0.006357633153287166,0.0,0.0,-0.6,0.0,0.005066394805908203,0.009184598922729492,0
2.381056547164917,-0.013866735622286797,-0.0072492193430662155,-0.527726948261261,-0.0010253873852327617,-0.5128049931627596,-0.1501968263838406,-0.029464011932747773,0.006357633153287166,0.0,0.0,-0.6,0.0,0.0011641979217529297,0.005152702331542969,0
2.3889877796173096,-0.014005167409777641,-0.0069216350093483925,-0.5275939702987671,-0.0011010094661677685,-0.5130227895034262,-0.15410848019526371,-0.0011108393019531562,0.006853804808750159,0.0,0.0,-0.6,0.0,0.004508018493652344,0.008495330810546875,0
2.4007694721221924,-0.014073479920625687,-0.006767739541828632,-0.5275399684906006,-0.00116993308469657,-0.512950841088641,-0.15253954583878554,0.0005444643436444773,0.007293752983399656,0.0,0.0,-0.6,0.0,0.004143476486206055,0.008116006851196289,0
2.4103341102600098,-0.014073479920625687,-0.006767739541828632,-0.5275399684906006,-0.00116993308469657,-0.512950841088641,-0.15253954583878554,0.0005444643436444773,0.007293752983399656,0.0,0.0,-0.6,0.0,0.0010960102081298828,0.005247592926025391,0
2.4193484783172607,-0.014216108247637749,-0.006441294681280851,-0.5273250341415405,-0.0012670320938609203,-0.5140115746306818,-0.14442226250103776,0.025742029122001166,0.007934619787691001,0.0,0.0,-0.6,0.0,0.004626274108886719,0.008420944213867188,0
2.429041624069214,-0.014216108247637749,-0.006441294681280851,-0.5273250341415405,-0.0012670320938609203,-0.5140115746306818,-0.14442226250103776,0.025742029122001166,0.007934619787691001,0.0,0.0,-0.6,0.0,0.0011453628540039062,0.005056858062744141,0
2.4389989376068115,-0.014287606813013554,-0.006117420736700296,-0.5270382165908813,-0.0013786769196551855,-0.5144145757890934,-0.12475715140742681,0.05471287225037524,0.0086797788740173,0.0,0.0,-0.6,0.0,0.00472569465637207,0.008989572525024414,0
2.449413299560547,-0.014287606813013554,-0.006117420736700296,-0.5270382165908813,-0.0013786769196551855,-0.5144145757890934,-0.12475715140742681,0.05471287225037524,0.0086797788740173,0.0,0.0,-0.6,0.0,0.0011897087097167969,0.005328655242919922,0
2.459009885787964,-0.014337554574012756,-0.005802753381431103,-0.5267537236213684,-0.0013663498469105885,-0.5141336206268026,-0.09431429067531395,0.06884830502286879,0.008634545189377073,0.0,0.0,-0.6,0.0,0.0046885013580322266,0.00853872299194336,0
2.470917224884033,-0.014367875643074512,-0.005642259493470192,-0.5266075134277344,-0.0013180713901106162,-0.5143106812691992,-0.08289703754084493,0.070928112999788,0.008335637883747575,0.0,0.0,-0.6,0.0,0.00462031364440918,0.008802652359008789,0
2.481074333190918,-0.014367875643074512,-0.005642259493470192,-0.5266075134277344,-0.0013180713901106162,-0.5143106812691992,-0.08289703754084493,0.070928112999788,0.008335637883747575,0.0,0.0,-0.6,0.0,0.0011322498321533203,0.004984378814697266,0
2.4890143871307373,-0.014403308741748333,-0.005283832550048828,-0.5263100862503052,-0.0011829456495521388,-0.5142868259536993,-0.05638483819038788,0.08317409737427996,0.007501140178634814,0.0,0.0,-0.6,0.0,0.0047473907470703125,0.008594274520874023,0
2.4989795684814453,-0.014403308741748333,-0.005283832550048828,-0.5263100862503052,-0.0011829456495521388,-0.5142868259536993,-0.05638483819038788,0.08317409737427996,0.007501140178634814,0.0,0.0,-0.6,0.0,0.0010952949523925781,0.0050945281982421875,0
2.5089645385742188,-0.014397876337170601,-0.004894924350082874,-0.526032567024231,-0.0012339529553035049,-0.5141107784152434,-0.03456102858730512,0.09532216672546158,0.007848865420261334,0.0,0.0,-0.6,0.0,0.0050144195556640625,0.009228944778442383,0
2.519773006439209,-0.014397876337170601,-0.004894924350082874,-0.526032567024231,-0.0012339529553035049,-0.5141107784152434,-0.03456102858730512,0.09532216672546158,0.007848865420261334,0.0,0.0,-0.6,0.0,0.001249551773071289,0.005480289459228516,0
2.52915358543396,-0.014376753941178322,-0.004471087362617254,-0.5257502794265747,-0.0012446464804062435,-0.5143864628910777,-0.01871264747088485,0.10069738862751572,0.007929265784317964,0.0,0.0,-0.6,0.0,0.004735469818115234,0.009058952331542969,0
2.539947748184204,-0.014376753941178322,-0.004471087362617254,-0.5257502794265747,-0.0012446464804062435,-0.5143864628910777,-0.01871264747088485,0.10069738862751572,0.007929265784317964,0.0,0.0,-0.6,0.0,0.0013933181762695312,0.005945444107055664,0
2.549093723297119,-0.01436355896294117,-0.004030573647469282,-0.5254337191581726,-0.0011760646107594796,-0.5150987218441728,-0.0031374938468731618,0.09790540985906956,0.00750446902681188,0.0,0.0,-0.6,0.0,0.004363298416137695,0.00827932357788086,0
2.559995651245117,-0.014363978058099747,-0.0037974962033331394,-0.525255024433136,-0.0011071172859220125,-0.5154644289217455,0.0004127127878149695,0.09196592897177569,0.007066481930417739,0.0,0.0,-0.6,0.0,0.004445791244506836,0.008260726928710938,0
2.5701777935028076,-0.014363978058099747,-0.0037974962033331394,-0.525255024433136,-0.0011071172859220125,-0.5154644289217455,0.0004127127878149695,0.09196592897177569,0.007066481930417739,0.0,0.0,-0.6,0.0,0.0011532306671142578,0.0051114559173583984,0
2.579045057296753,-0.014387821778655052,-0.003305948106572032,-0.5248264074325562,-0.0009229169339981489,-0.5161215885723938,0.00749788829255925,0.07552378846833067,0.005898402639170737,0.0,0.0,-0.6,0.0,0.004743099212646484,0.008824348449707031,0
2.5892152786254883,-0.014387821778655052,-0.003305948106572032,-0.5248264074325562,-0.0009229169339981489,-0.5161215885723938,0.00749788829255925,0.07552378846833067,0.005898402639170737,0.0,0.0,-0.6,0.0,0.001260519027709961,0.005224466323852539,0
2.5990474224090576,-0.014379823580384254,-0.0027872759383171797,-0.5243373513221741,-0.0009219691383705051,-0.5163992399971237,0.018096099878428463,0.06508187036470421,0.0059045727277833035,0.0,0.0,-0.6,0.0,0.004841804504394531,0.009297609329223633,0
2.6097962856292725,-0.014379823580384254,-0.0027872759383171797,-0.5243373513221741,-0.0009219691383705051,-0.5163992399971237,0.018096099878428463,0.06508187036470421,0.0059045727277833035,0.0,0.0,-0.6,0.0,0.0012271404266357422,0.005303621292114258,0
2.6191351413726807,-0.0143050542101264,-0.0022718836553394794,-0.5238251686096191,-0.0008664714381775002,-0.5164805216259469,0.033803367117839066,0.059457605796540434,0.005563201050533801,0.0,0.0,-0.6,0.0,0.004698038101196289,0.009025335311889648,0
2.629706859588623,-0.0143050542101264,-0.0022718836553394794,-0.5238251686096191,-0.0008664714381775002,-0.5164805216259469,0.033803367117839066,0.059457605796540434,0.005563201050533801,0.0,0.0,-0.6,0.0,0.0013751983642578125,0.005892753601074219,0
2.6390018463134766,-0.0141609450802207,-0.0018077094573527575,-0.5233412981033325,-0.00072738223918048,-0.5160154895933926,0.057831938673375154,0.04173341719189359,0.004695544630759994,0.0,0.0,-0.6,0.0,0.004521369934082031,0.008329391479492188,0
2.6501104831695557,-0.014080638997256756,-0.0015880895080044866,-0.5231120586395264,-0.0006438922603219415,-0.5160354287375887,0.0647907917012364,0.028518561822953103,0.00416756158803543,0.0,0.0,-0.6,0.0,0.004546403884887695,0.008477210998535156,0
2.6599178314208984,-0.014080638997256756,-0.0015880895080044866,-0.5231120586395264,-0.0006438922603219415,-0.5160354287375887,0.0647907917012364,0.028518561822953103,0.00416756158803543,0.0,0.0,-0.6,0.0,0.0010809898376464844,0.005034446716308594,0
2.6702165603637695,-0.013925113715231419,-0.0011425625998526812,-0.5226402878761292,-0.0005429946781675685,-0.5163472707799005,0.0635741518096161,0.01165989649692918,0.0035167633983074907,0.0,0.0,-0.6,0.0,0.004598379135131836,0.008636713027954102,0
2.6804161071777344,-0.013925113715231419,-0.0011425625998526812,-0.5226402878761292,-0.0005429946781675685,-0.5163472707799005,0.0635741518096161,0.01165989649692918,0.0035167633983074907,0.0,0.0,-0.6,0.0,0.0011322498321533203,0.005196332931518555,0
2.6889970302581787,-0.013723501935601234,-0.0006884546019136906,-0.5221912860870361,-0.0005361826634900864,-0.5159600211359722,0.06070958362570072,0.01639913193716961,0.003460475628914785,0.0,0.0,-0.6,0.0,0.004724025726318359,0.008672952651977539,0
2.6990158557891846,-0.013723501935601234,-0.0006884546019136906,-0.5221912860870361,-0.0005361826634900864,-0.5159600211359722,0.06070958362570072,0.01639913193716961,0.003460475628914785,0.0,0.0,-0.6,0.0,0.001093149185180664,0.004961252212524414,0
2.7090582847595215,-0.013462375849485397,-0.0002421551034785807,-0.5218322277069092,-0.0006068914685679167,-0.5152003919291953,0.05356842031846553,0.022176195813203528,0.0039007083979285934,0.0,0.0,-0.6,0.0,0.0047070980072021484,0.008601903915405273,0
2.7192749977111816,-0.013462375849485397,-0.0002421551034785807,-0.5218322277069092,-0.0006068914685679167,-0.5152003919291953,0.05356842031846553,0.022176195813203528,0.0039007083979285934,0.0,0.0,-0.6,0.0,0.0012660026550292969,0.00632476806640625,0
2.7290844917297363,-0.01314864307641983,0.00019702179997693747,-0.5215679407119751,-0.0006510666388604504,-0.5147431690096533,0.04366038535357441,0.044457440516133186,0.004172608205611728,0.0,0.0,-0.6,0.0,0.00469660758972168,0.008619546890258789,0
2.7391655445098877,-0.01314864307641983,0.00019702179997693747,-0.5215679407119751,-0.0006510666388604504,-0.5147431690096533,0.04366038535357441,0.044457440516133186,0.004172608205611728,0.0,0.0,-0.6,0.0,0.0011105537414550781,0.005112171173095703,0
2.7489943504333496,-0.012808583676815033,0.0006217309855856001,-0.5213683843612671,-0.000691097323608676,-0.5144640973079527,0.030411626693813705,0.05504207372774756,0.004424555077449942,0.0,0.0,-0.6,0.0,0.004701137542724609,0.008869171142578125,0
2.759295701980591,-0.012808583676815033,0.0006217309855856001,-0.5213683843612671,-0.000691097323608676,-0.5144640973079527,0.030411626693813705,0.05504207372774756,0.004424555077449942,0.0,0.0,-0.6,0.0,0.0011692047119140625,0.00521397590637207,0
2.769552230834961,-0.012439883314073086,0.0009891459485515952,-0.5212738513946533,-0.0008728922295667825,-0.513375794595599,0.03766496067019078,0.07492519276763061,0.00558868847994607,0.0,0.0,-0.6,0.0,0.004736900329589844,0.008671998977661133,0
2.779590368270874,-0.012439883314073086,0.0009891459485515952,-0.5212738513946533,-0.0008728922295667825,-0.513375794595599,0.03766496067019078,0.07492519276763061,0.00558868847994607,0.0,0.0,-0.6,0.0,0.001146554946899414,0.005256175994873047,0
2.789001703262329,-0.012003873474895954,0.0013220109976828098,-0.5213152766227722,-0.0010090707172574105,-0.5119581372906205,0.04380916665804062,0.08023739212150223,0.006460472281360843,0.0,0.0,-0.6,0.0,0.004472970962524414,0.008393526077270508,0
2.8000807762145996,-0.011778878048062325,0.0014791907742619514,-0.5213746428489685,-0.0011083981707409652,-0.5117855652735895,0.03697152731875913,0.07509611088374034,0.007094379186910492,0.0,0.0,-0.6,0.0,0.004441022872924805,0.00839090347290039,0
