time,x,y,z,yaw,throttle,roll_rate,pitch_rate,yaw_rate,x_ref,y_ref,z_ref,yaw_ref,mpc_time,ctrl_callback_time_history,metadata
5.9604644775390625e-06,-0.16115912795066833,0.027316266670823097,-0.24196745455265045,0.04673815561356931,-0.6352876867884055,-0.31394307694934037,-0.7999999369982685,-0.29729066133122384,0.0,0.0,-0.6,0.0,0.02280139923095703,0.029303789138793945,Hardware
0.03135347366333008,-0.16115912795066833,0.027316266670823097,-0.24196745455265045,0.04673815561356931,-0.6352876867884055,-0.31394307694934037,-0.7999999369982685,-0.29729066133122384,0.0,0.0,-0.6,0.0,0.0015721321105957031,0.006577968597412109,2x Speed
0.040686607360839844,-0.16120047867298126,0.02732573263347149,-0.24195925891399384,0.0467185886960594,-0.6352876867968377,-0.3145943231949246,-0.7999999305808624,-0.29721421730547576,0.0,0.0,-0.6,0.0,0.008227348327636719,0.012956619262695312,Horizon:3.0
0.055757761001586914,-0.16120047867298126,0.02732573263347149,-0.24195925891399384,0.0467185886960594,-0.6352876867968377,-0.3145943231949246,-0.7999999305808624,-0.29721421730547576,0.0,0.0,-0.6,0.0,0.0015888214111328125,0.006173610687255859,Num Steps:20
0.06524872779846191,-0.16121669113636017,0.027315661311149597,-0.2419625073671341,0.046716170227011085,-0.6352876867471019,-0.31403303120701365,-0.7999999680776078,-0.29706931940498066,0.0,0.0,-0.6,0.0,0.008262872695922852,0.012333869934082031,No Pyjoules
0.08038115501403809,-0.16124650835990906,0.0273236483335495,-0.24197538197040558,0.046757141568106224,-0.6352876867425666,-0.3172071143085576,-0.7999999733864734,-0.29728458727018314,0.0,0.0,-0.6,0.0,0.009569644927978516,0.014042854309082031,0
0.09680747985839844,-0.16124650835990906,0.0273236483335495,-0.24197538197040558,0.046757141568106224,-0.6352876867425666,-0.3172071143085576,-0.7999999733864734,-0.29728458727018314,0.0,0.0,-0.6,0.0,0.0016531944274902344,0.006326913833618164,0
0.10552048683166504,-0.16127704083919525,0.027329714968800545,-0.24201175570487976,0.04669491234167717,-0.6352876864022302,-0.3231355059721149,-0.7999999989682689,-0.2966755377393573,0.0,0.0,-0.6,0.0,0.009085655212402344,0.013555765151977539,0
0.12128448486328125,-0.16130580008029938,0.027336489409208298,-0.24211634695529938,0.04633205746836194,-0.6352876867122601,-0.3207037057181025,-0.7999999887352475,-0.2948517529958295,0.0,0.0,-0.6,0.0,0.009629011154174805,0.014171838760375977,0
0.13846373558044434,-0.16130580008029938,0.027336489409208298,-0.24211634695529938,0.04633205746836194,-0.6352876867122601,-0.3207037057181025,-0.7999999887352475,-0.2948517529958295,0.0,0.0,-0.6,0.0,0.0014002323150634766,0.006037235260009766,0
0.14729881286621094,-0.1608222872018814,0.027272386476397514,-0.24241936206817627,0.044911335641467584,-0.6352876868336765,-0.2838478004437196,-0.730642508940309,-0.28769077079933325,0.0,0.0,-0.6,0.0,0.011614561080932617,0.01650547981262207,0
0.16621804237365723,-0.1608222872018814,0.027272386476397514,-0.24241936206817627,0.044911335641467584,-0.6352876868336765,-0.2838478004437196,-0.730642508940309,-0.28769077079933325,0.0,0.0,-0.6,0.0,0.0011563301086425781,0.005227804183959961,0
0.17519688606262207,-0.15992778539657593,0.027048761025071144,-0.2428978681564331,0.044872605974128746,-0.6352876868334156,-0.2423868562295273,-0.6173022007183632,-0.2874632329981186,0.0,0.0,-0.6,0.0,0.009711503982543945,0.014180898666381836,0
0.1921403408050537,-0.15851517021656036,0.026621883735060692,-0.24388642609119415,0.04422133308983995,-0.6352876868031704,-0.19042836450277392,-0.46943215604278354,-0.2832753309606278,0.0,0.0,-0.6,0.0,0.010111093521118164,0.014975547790527344,0
0.20951223373413086,-0.15851517021656036,0.026621883735060692,-0.24388642609119415,0.04422133308983995,-0.6352876868031704,-0.19042836450277392,-0.46943215604278354,-0.2832753309606278,0.0,0.0,-0.6,0.0,0.0015773773193359375,0.005721092224121094,0
0.21831369400024414,-0.1552451103925705,0.025864964351058006,-0.2468603104352951,0.04477191029634936,-0.6264182839066917,-0.04300234518171124,-0.15612267777926847,-0.2865462754625147,0.0,0.0,-0.6,0.0,0.008897066116333008,0.014055013656616211,0
0.2340686321258545,-0.1552451103925705,0.025864964351058006,-0.2468603104352951,0.04477191029634936,-0.6264182839066917,-0.04300234518171124,-0.15612267777926847,-0.2865462754625147,0.0,0.0,-0.6,0.0,0.001499176025390625,0.006455659866333008,0
0.24376606941223145,-0.15248838067054749,0.02509278804063797,-0.24977470934391022,0.04509442324854452,-0.6191356049388104,0.056367412913758234,0.09630678541843254,-0.28828164710960485,0.0,0.0,-0.6,0.0,0.008293628692626953,0.01246333122253418,0
0.2596011161804199,-0.14935530722141266,0.024215174838900566,-0.25343751907348633,0.04497082324847902,-0.6141906702157865,0.10596412589062955,0.38080216801259564,-0.2873538201880057,0.0,0.0,-0.6,0.0,0.0075244903564453125,0.012096166610717773,0
0.2736985683441162,-0.14935530722141266,0.024215174838900566,-0.25343751907348633,0.04497082324847902,-0.6141906702157865,0.10596412589062955,0.38080216801259564,-0.2873538201880057,0.0,0.0,-0.6,0.0,0.0010466575622558594,0.005802154541015625,0
0.2820272445678711,-0.14599885046482086,0.023307662457227707,-0.25760969519615173,0.04436013029362605,-0.6043549438334318,0.20019722322898692,0.6654207920751543,-0.2831732202233168,0.0,0.0,-0.6,0.0,0.007905721664428711,0.012875556945800781,0
0.29679322242736816,-0.14599885046482086,0.023307662457227707,-0.25760969519615173,0.04436013029362605,-0.6043549438334318,0.20019722322898692,0.6654207920751543,-0.2831732202233168,0.0,0.0,-0.6,0.0,0.0016350746154785156,0.0068683624267578125,0
0.3060147762298584,-0.14059031009674072,0.021880323067307472,-0.2653794586658478,0.04307230264012302,-0.592838379247375,0.29362152545733206,0.7999990261387266,-0.27365228465863944,0.0,0.0,-0.6,0.0,0.00909113883972168,0.014381647109985352,0
0.3225548267364502,-0.14059031009674072,0.021880323067307472,-0.2653794586658478,0.04307230264012302,-0.592838379247375,0.29362152545733206,0.7999990261387266,-0.27365228465863944,0.0,0.0,-0.6,0.0,0.0011670589447021484,0.0053310394287109375,0
0.32975053787231445,-0.13682225346565247,0.020868195220828056,-0.27149873971939087,0.04177090900058614,-0.5854655162627588,0.32615467030312184,0.799999999759592,-0.26334090172718966,0.0,0.0,-0.6,0.0,0.011806726455688477,0.01656484603881836,0
0.3485293388366699,-0.13682225346565247,0.020868195220828056,-0.27149873971939087,0.04177090900058614,-0.5854655162627588,0.32615467030312184,0.799999999759592,-0.26334090172718966,0.0,0.0,-0.6,0.0,0.0011398792266845703,0.004974842071533203,0
0.3586888313293457,-0.1306925266981125,0.019134866073727608,-0.2820814549922943,0.03903840604680946,-0.573089209409867,0.3985792417908022,0.7999999989735799,-0.2390618064390204,0.0,0.0,-0.6,0.0,0.009309530258178711,0.013970136642456055,0
0.3742947578430176,-0.1306925266981125,0.019134866073727608,-0.2820814549922943,0.03903840604680946,-0.573089209409867,0.3985792417908022,0.7999999989735799,-0.2390618064390204,0.0,0.0,-0.6,0.0,0.0012543201446533203,0.0052165985107421875,0
0.3822364807128906,-0.12624020874500275,0.01803894340991974,-0.2898329496383667,0.03686292287176657,-0.5665311499197302,0.33581215689988564,0.7999999999411205,-0.225159986814338,0.0,0.0,-0.6,0.0,0.01093149185180664,0.015457868576049805,0
0.40105676651000977,-0.12146014720201492,0.016975687816739082,-0.2980629503726959,0.034308688563348094,-0.5594015465605157,0.3427904213683039,0.7999999999999976,-0.20509035920939117,0.0,0.0,-0.6,0.0,0.012118101119995117,0.016105175018310547,0
0.4194905757904053,-0.12146014720201492,0.016975687816739082,-0.2980629503726959,0.034308688563348094,-0.5594015465605157,0.3427904213683039,0.7999999999999976,-0.20509035920939117,0.0,0.0,-0.6,0.0,0.0013430118560791016,0.006231546401977539,0
0.42789125442504883,-0.1138293668627739,0.0154374148696661,-0.3109937310218811,0.03051946469082776,-0.5535536301635172,0.25386641887357686,0.7999999999707281,-0.18295199111095403,0.0,0.0,-0.6,0.0,0.009554624557495117,0.01416921615600586,0
0.4440028667449951,-0.1138293668627739,0.0154374148696661,-0.3109937310218811,0.03051946469082776,-0.5535536301635172,0.25386641887357686,0.7999999999707281,-0.18295199111095403,0.0,0.0,-0.6,0.0,0.001329660415649414,0.00637054443359375,0
0.45296430587768555,-0.10833275318145752,0.014305733144283295,-0.3199521005153656,0.028113510477092513,-0.5488588547520403,0.2056564439720699,0.7999999997901951,-0.16711259113523258,0.0,0.0,-0.6,0.0,0.009607315063476562,0.013826608657836914,0
0.47032904624938965,-0.10265065729618073,0.013115119189023972,-0.3291049301624298,0.025818627062630196,-0.5450365004611142,0.14649352007646232,0.7999999924593257,-0.1538670332425164,0.0,0.0,-0.6,0.0,0.009306192398071289,0.013843774795532227,0
0.48705625534057617,-0.10265065729618073,0.013115119189023972,-0.3291049301624298,0.025818627062630196,-0.5450365004611142,0.14649352007646232,0.7999999924593257,-0.1538670332425164,0.0,0.0,-0.6,0.0,0.0014710426330566406,0.006276607513427734,0
0.4975705146789551,-0.09360762685537338,0.011354460380971432,-0.34284690022468567,0.022506703095750587,-0.5416408391257709,0.10520610833774151,0.7999999999877319,-0.13446915437826856,0.0,0.0,-0.6,0.0,0.015104293823242188,0.019808053970336914,0
0.5191559791564941,-0.09360762685537338,0.011354460380971432,-0.34284690022468567,0.022506703095750587,-0.5416408391257709,0.10520610833774151,0.7999999999877319,-0.13446915437826856,0.0,0.0,-0.6,0.0,0.0013875961303710938,0.006487607955932617,0
0.5282156467437744,-0.08437278121709824,0.009610041044652462,-0.3566362261772156,0.01934863123877202,-0.5388912032529342,0.021281573404818982,0.7999999999173761,-0.11666576673031394,0.0,0.0,-0.6,0.0,0.00958395004272461,0.014186620712280273,0
0.5441527366638184,-0.08437278121709824,0.009610041044652462,-0.3566362261772156,0.01934863123877202,-0.5388912032529342,0.021281573404818982,0.7999999999173761,-0.11666576673031394,0.0,0.0,-0.6,0.0,0.0014126300811767578,0.006253242492675781,0
0.55283522605896,-0.0780240073800087,0.008542683906853199,-0.3658422827720642,0.017435857859756456,-0.5358367963197083,-0.04732719636941428,0.799999999993213,-0.1051274719888808,0.0,0.0,-0.6,0.0,0.00934600830078125,0.01396799087524414,0
0.5696160793304443,-0.0780240073800087,0.008542683906853199,-0.3658422827720642,0.017435857859756456,-0.5358367963197083,-0.04732719636941428,0.799999999993213,-0.1051274719888808,0.0,0.0,-0.6,0.0,0.0016243457794189453,0.005967617034912109,0
0.5787472724914551,-0.06841745972633362,0.006933477707207203,-0.3797546923160553,0.014766999970325621,-0.5337956323082483,-0.13800737604364763,0.7999999999813658,-0.0898498929641712,0.0,0.0,-0.6,0.0,0.008954286575317383,0.014296293258666992,0
0.5944705009460449,-0.06841745972633362,0.006933477707207203,-0.3797546923160553,0.014766999970325621,-0.5337956323082483,-0.13800737604364763,0.7999999999813658,-0.0898498929641712,0.0,0.0,-0.6,0.0,0.001409769058227539,0.006330251693725586,0
0.6037750244140625,-0.05917474627494812,0.0055302404798567295,-0.3930453360080719,0.012294721131982033,-0.5329560425971239,-0.23121559737297748,0.7999996638585588,-0.07538052334494559,0.0,0.0,-0.6,0.0,0.009716033935546875,0.014292716979980469,0
0.6203553676605225,-0.05917474627494812,0.0055302404798567295,-0.3930453360080719,0.012294721131982033,-0.5329560425971239,-0.23121559737297748,0.7999996638585588,-0.07538052334494559,0.0,0.0,-0.6,0.0,0.001332998275756836,0.005755186080932617,0
0.629187822341919,-0.05314020439982414,0.004648646805435419,-0.4017159640789032,0.01089380278584362,-0.5308916493072835,-0.24549349610801774,0.7939404134587582,-0.06710474629025293,0.0,0.0,-0.6,0.0,0.011803388595581055,0.016330242156982422,0
0.6473333835601807,-0.05314020439982414,0.004648646805435419,-0.4017159640789032,0.01089380278584362,-0.5308916493072835,-0.24549349610801774,0.7939404134587582,-0.06710474629025293,0.0,0.0,-0.6,0.0,0.0014247894287109375,0.006631374359130859,0
0.6578874588012695,-0.044577259570360184,0.0033648672979325056,-0.41454049944877625,0.0090012465754181,-0.5280977884685847,-0.24850870345253032,0.5290828891439322,-0.055354394174155296,0.0,0.0,-0.6,0.0,0.0071451663970947266,0.012094736099243164,0
0.6718802452087402,-0.044577259570360184,0.0033648672979325056,-0.41454049944877625,0.0090012465754181,-0.5280977884685847,-0.24850870345253032,0.5290828891439322,-0.055354394174155296,0.0,0.0,-0.6,0.0,0.0013899803161621094,0.006075382232666016,0
0.6800644397735596,-0.03922385722398758,0.0026024680119007826,-0.4228346645832062,0.007760541406613927,-0.5277736057274496,-0.2388478799327523,0.33886101466232926,-0.04777831569212095,0.0,0.0,-0.6,0.0,0.007820367813110352,0.012232780456542969,0
0.6946711540222168,-0.03922385722398758,0.0026024680119007826,-0.4228346645832062,0.007760541406613927,-0.5277736057274496,-0.2388478799327523,0.33886101466232926,-0.04777831569212095,0.0,0.0,-0.6,0.0,0.0015451908111572266,0.00648188591003418,0
0.7035195827484131,-0.03419078513979912,0.0019110828870907426,-0.43083831667900085,0.006486072519458114,-0.5275657909588766,-0.19685626624528818,0.12262339201126904,-0.040208078950453745,0.0,0.0,-0.6,0.0,0.007616996765136719,0.011800527572631836,0
0.7188096046447754,-0.02956530824303627,0.0012075821869075298,-0.43858659267425537,0.005231594548579016,-0.5264374841561087,-0.135937004264989,-0.09158540785241012,-0.03287637678439876,0.0,0.0,-0.6,0.0,0.007323741912841797,0.012503385543823242,0
0.7328734397888184,-0.02956530824303627,0.0012075821869075298,-0.43858659267425537,0.005231594548579016,-0.5264374841561087,-0.135937004264989,-0.09158540785241012,-0.03287637678439876,0.0,0.0,-0.6,0.0,0.0010633468627929688,0.004797220230102539,0
0.7401344776153564,-0.02530675195157528,0.0005027722800150514,-0.44616255164146423,0.004122961517738202,-0.5246705991504128,-0.08715976679943233,-0.2857369066056091,-0.026351045200301116,0.0,0.0,-0.6,0.0,0.006312370300292969,0.011199474334716797,0
0.753319263458252,-0.02530675195157528,0.0005027722800150514,-0.44616255164146423,0.004122961517738202,-0.5246705991504128,-0.08715976679943233,-0.2857369066056091,-0.026351045200301116,0.0,0.0,-0.6,0.0,0.0013494491577148438,0.005494356155395508,0
0.7616252899169922,-0.02144436724483967,-0.00012119331222493201,-0.4536043107509613,0.003072502829526894,-0.5242702935055277,-0.06348583813375082,-0.4454634890607567,-0.019892611447160757,0.0,0.0,-0.6,0.0,0.006667613983154297,0.01114511489868164,0
0.7760205268859863,-0.017872169613838196,-0.0006281964015215635,-0.460735946893692,0.0019321403977135298,-0.523959679568812,-0.026190728417223617,-0.5351047004745988,-0.012811936526854245,0.0,0.0,-0.6,0.0,0.006372928619384766,0.010612249374389648,0
0.7887322902679443,-0.017872169613838196,-0.0006281964015215635,-0.460735946893692,0.0019321403977135298,-0.523959679568812,-0.026190728417223617,-0.5351047004745988,-0.012811936526854245,0.0,0.0,-0.6,0.0,0.0014226436614990234,0.006107330322265625,0
0.797553300857544,-0.014599851332604885,-0.001074578845873475,-0.46758711338043213,0.0007582739136697092,-0.5239323073569868,0.0019209061142586373,-0.5804540522649889,-0.005407229164207944,0.0,0.0,-0.6,0.0,0.005526304244995117,0.010194778442382812,0
0.8101248741149902,-0.014599851332604885,-0.001074578845873475,-0.46758711338043213,0.0007582739136697092,-0.5239323073569868,0.0019209061142586373,-0.5804540522649889,-0.005407229164207944,0.0,0.0,-0.6,0.0,0.0011773109436035156,0.0069828033447265625,0
0.8195149898529053,-0.011660250835120678,-0.0014693159610033035,-0.4743210971355438,-0.0003095263643343061,-0.5216142829779631,0.030540398836079036,-0.6349071272786818,0.0012997121437562276,0.0,0.0,-0.6,0.0,0.0058383941650390625,0.011240959167480469,0
0.83290696144104,-0.011660250835120678,-0.0014693159610033035,-0.4743210971355438,-0.0003095263643343061,-0.5216142829779631,0.030540398836079036,-0.6349071272786818,0.0012997121437562276,0.0,0.0,-0.6,0.0,0.0011639595031738281,0.005499124526977539,0
0.8411819934844971,-0.009129497222602367,-0.0017648064531385899,-0.4807897210121155,-0.0012664070283226435,-0.523880307529199,0.025330601856670045,-0.6949084789255491,0.00755766335326858,0.0,0.0,-0.6,0.0,0.008007049560546875,0.012424945831298828,0
0.8562943935394287,-0.009129497222602367,-0.0017648064531385899,-0.4807897210121155,-0.0012664070283226435,-0.523880307529199,0.025330601856670045,-0.6949084789255491,0.00755766335326858,0.0,0.0,-0.6,0.0,0.0016210079193115234,0.006220579147338867,0
0.8651037216186523,-0.00586857320740819,-0.002134855603799224,-0.4899515211582184,-0.0025350471505658553,-0.524342609937508,0.053946200259419826,-0.7574902526079472,0.01559491391809039,0.0,0.0,-0.6,0.0,0.010462284088134766,0.014627218246459961,0
0.8819615840911865,-0.00586857320740819,-0.002134855603799224,-0.4899515211582184,-0.0025350471505658553,-0.524342609937508,0.053946200259419826,-0.7574902526079472,0.01559491391809039,0.0,0.0,-0.6,0.0,0.001169443130493164,0.005520820617675781,0
0.8901479244232178,-0.0040990873239934444,-0.0023403179366141558,-0.49562105536460876,-0.0032891449240314238,-0.5276760346747639,0.0587273653535487,-0.7661882618966416,0.02048050295299374,0.0,0.0,-0.6,0.0,0.008455991744995117,0.013358592987060547,0
0.9057834148406982,-0.0040990873239934444,-0.0023403179366141558,-0.49562105536460876,-0.0032891449240314238,-0.5276760346747639,0.0587273653535487,-0.7661882618966416,0.02048050295299374,0.0,0.0,-0.6,0.0,0.0015969276428222656,0.005939483642578125,0
0.9138393402099609,-0.002031926065683365,-0.002611522562801838,-0.5031115412712097,-0.0042160607109571055,-0.5296483559833957,0.056870058194650144,-0.6438693169752786,0.026520280407903326,0.0,0.0,-0.6,0.0,0.00663304328918457,0.010961055755615234,0
0.9266796112060547,-0.002031926065683365,-0.002611522562801838,-0.5031115412712097,-0.0042160607109571055,-0.5296483559833957,0.056870058194650144,-0.6438693169752786,0.026520280407903326,0.0,0.0,-0.6,0.0,0.0015072822570800781,0.006340742111206055,0
0.9356582164764404,-0.0009798029204830527,-0.002824137220159173,-0.507820188999176,-0.004661606694197645,-0.5301739342365586,0.052657179154113,-0.5476223671578859,0.029476770186531293,0.0,0.0,-0.6,0.0,0.006763458251953125,0.010702848434448242,0
0.948401927947998,-0.0009798029204830527,-0.002824137220159173,-0.507820188999176,-0.004661606694197645,-0.5301739342365586,0.052657179154113,-0.5476223671578859,0.029476770186531293,0.0,0.0,-0.6,0.0,0.0015938282012939453,0.0068781375885009766,0
1.275406837463379,-0.0002468431193847209,-0.0030581685714423656,-0.5119585990905762,-0.004918631015984867,-0.5363911444948379,0.0188902763846199,-0.45971040093478205,0.0313102797808199,0.0,0.0,-0.6,0.0,0.006259441375732422,0.010908365249633789,0
1.2895033359527588,0.01316909771412611,-0.006761850323528051,-0.5357120037078857,-0.008960070073205914,-0.5580462517285689,-0.2233809865626072,0.8,0.05214141901120686,0.0,0.0,-0.6,0.0,0.02015209197998047,0.02499556541442871,0
1.316176176071167,0.01316909771412611,-0.006761850323528051,-0.5357120037078857,-0.008960070073205914,-0.5580462517285689,-0.2233809865626072,0.8,0.05214141901120686,0.0,0.0,-0.6,0.0,0.0011610984802246094,0.0054662227630615234,0
1.3245713710784912,0.018659017980098724,-0.006860919296741486,-0.5350335240364075,-0.009430357502389816,-0.5490631345216748,-0.19954196900336135,0.8,0.06720865387673972,0.0,0.0,-0.6,0.0,0.033479928970336914,0.03823709487915039,0
1.365870475769043,0.030814550817012787,-0.006926967296749353,-0.5334458351135254,-0.009881849254807768,-0.5306145880559028,-0.11788691593264773,0.8,0.1238259128366584,0.0,0.0,-0.6,0.0,0.1983957290649414,0.20340800285339355,0
1.5726447105407715,0.030814550817012787,-0.006926967296749353,-0.5334458351135254,-0.009881849254807768,-0.5306145880559028,-0.11788691593264773,0.8,0.1238259128366584,0.0,0.0,-0.6,0.0,0.0013957023620605469,0.005517482757568359,0
1.580556869506836,0.10735909640789032,-0.009381094947457314,-0.5203485488891602,-0.005325609679000989,-0.5731759432326625,0.4550548842815712,0.7999999999616386,0.16442963538086233,0.0,0.0,-0.6,0.0,0.03519845008850098,0.04051327705383301,0
1.623676061630249,0.13042445480823517,-0.011150341480970383,-0.5152556300163269,-0.004045628656383911,-0.5885874001774527,0.6225704803228476,0.7999999999999661,0.1585006440634704,0.0,0.0,-0.6,0.0,0.02968001365661621,0.03412175178527832,0
1.661059856414795,0.13042445480823517,-0.011150341480970383,-0.5152556300163269,-0.004045628656383911,-0.5885874001774527,0.6225704803228476,0.7999999999999661,0.1585006440634704,0.0,0.0,-0.6,0.0,0.001150369644165039,0.006386756896972656,0
1.6705834865570068,0.1489902138710022,-0.013106917962431908,-0.5098914504051208,-0.0023832253509285216,-0.6011368176880488,0.7385278600639701,0.7999999999873217,0.13202714462709672,0.0,0.0,-0.6,0.0,0.02208232879638672,0.027202606201171875,0
1.7005839347839355,0.16264870762825012,-0.014558142051100731,-0.5054269433021545,-0.0007733156426974677,-0.6079074743780387,0.6824763383037751,0.799999999903609,0.07258337651678377,0.0,0.0,-0.6,0.0,0.015538454055786133,0.020698070526123047,0
1.7246582508087158,0.1757928729057312,-0.015823878347873688,-0.501196563243866,0.0011350982235618342,-0.6106623328502988,0.5636837364902406,0.7999999999526862,0.048110077763095026,0.0,0.0,-0.6,0.0,0.01580357551574707,0.020703792572021484,0
1.7468302249908447,0.1757928729057312,-0.015823878347873688,-0.501196563243866,0.0011350982235618342,-0.6106623328502988,0.5636837364902406,0.7999999999526862,0.048110077763095026,0.0,0.0,-0.6,0.0,0.001875162124633789,0.006353616714477539,0
1.755666732788086,0.18824641406536102,-0.016994964331388474,-0.4971269369125366,0.0033741810589496403,-0.6113791709577155,0.36563796101923063,0.7999999999999678,0.018055947415927684,0.0,0.0,-0.6,0.0,0.013592004776000977,0.018145084381103516,0
1.7759108543395996,0.18824641406536102,-0.016994964331388474,-0.4971269369125366,0.0033741810589496403,-0.6113791709577155,0.36563796101923063,0.7999999999999678,0.018055947415927684,0.0,0.0,-0.6,0.0,0.0011370182037353516,0.005307912826538086,0
1.7834930419921875,0.19973056018352509,-0.018210116773843765,-0.49356839060783386,0.005314116385390291,-0.6089771849872204,0.15616747907287482,0.7999999999991614,-0.0036755607442958502,0.0,0.0,-0.6,0.0,0.01140594482421875,0.015450239181518555,0
1.8008925914764404,0.19973056018352509,-0.018210116773843765,-0.49356839060783386,0.005314116385390291,-0.6089771849872204,0.15616747907287482,0.7999999999991614,-0.0036755607442958502,0.0,0.0,-0.6,0.0,0.001108407974243164,0.004796504974365234,0
1.8082687854766846,0.20667825639247894,-0.01892099529504776,-0.4917784631252289,0.006489174423454113,-0.6049383459686049,0.01016532175725462,0.7999999998235809,-0.01724110150805937,0.0,0.0,-0.6,0.0,0.011203289031982422,0.015065908432006836,0
1.8263368606567383,0.20667825639247894,-0.01892099529504776,-0.4917784631252289,0.006489174423454113,-0.6049383459686049,0.01016532175725462,0.7999999998235809,-0.01724110150805937,0.0,0.0,-0.6,0.0,0.00150299072265625,0.006254434585571289,0
1.834749698638916,0.21606922149658203,-0.019890381023287773,-0.48993980884552,0.008535458501695925,-0.5993491654768173,-0.0996108246030418,0.6905132800081942,-0.03769902707122782,0.0,0.0,-0.6,0.0,0.011020898818969727,0.016390323638916016,0
1.853837251663208,0.21606922149658203,-0.019890381023287773,-0.48993980884552,0.008535458501695925,-0.5993491654768173,-0.0996108246030418,0.6905132800081942,-0.03769902707122782,0.0,0.0,-0.6,0.0,0.0016396045684814453,0.005997419357299805,0
1.8629570007324219,0.22371244430541992,-0.0208754725754261,-0.48882535099983215,0.010378872489459942,-0.5948003813942663,-0.2630854062520479,0.36633471195723377,-0.05251029937576148,0.0,0.0,-0.6,0.0,0.01114511489868164,0.01661372184753418,0
1.8813815116882324,0.22371244430541992,-0.0208754725754261,-0.48882535099983215,0.010378872489459942,-0.5948003813942663,-0.2630854062520479,0.36633471195723377,-0.05251029937576148,0.0,0.0,-0.6,0.0,0.0011348724365234375,0.005109071731567383,0
1.8892121315002441,0.2277149111032486,-0.021494131535291672,-0.48894479870796204,0.011541002178034663,-0.5881200433177137,-0.33360576208056464,0.11416465168642904,-0.062020589115733195,0.0,0.0,-0.6,0.0,0.010640382766723633,0.014484167098999023,0
1.9054639339447021,0.2277149111032486,-0.021494131535291672,-0.48894479870796204,0.011541002178034663,-0.5881200433177137,-0.33360576208056464,0.11416465168642904,-0.062020589115733195,0.0,0.0,-0.6,0.0,0.0011796951293945312,0.005456209182739258,0
1.9142446517944336,0.23205220699310303,-0.02222161926329136,-0.4897403120994568,0.013238509460469243,-0.5812745485876062,-0.4016703676998439,-0.22666094496575243,-0.0749987156023767,0.0,0.0,-0.6,0.0,0.009379148483276367,0.01461482048034668,0
1.931542158126831,0.23205220699310303,-0.02222161926329136,-0.4897403120994568,0.013238509460469243,-0.5812745485876062,-0.4016703676998439,-0.22666094496575243,-0.0749987156023767,0.0,0.0,-0.6,0.0,0.0011234283447265625,0.006317853927612305,0
1.9407110214233398,0.23378023505210876,-0.022508149966597557,-0.4907058775424957,0.014148771890762945,-0.5797273867431366,-0.47537652323844937,-0.44991468335014145,-0.08221501790307817,0.0,0.0,-0.6,0.0,0.009607315063476562,0.014138460159301758,0
1.9585256576538086,0.23464681208133698,-0.022668039426207542,-0.49209076166152954,0.014676170099243447,-0.5702545277329865,-0.4431975784528096,-0.6395234042755887,-0.08707777553637923,0.0,0.0,-0.6,0.0,0.008564949035644531,0.01376795768737793,0
1.9749529361724854,0.23464681208133698,-0.022668039426207542,-0.49209076166152954,0.014676170099243447,-0.5702545277329865,-0.4431975784528096,-0.6395234042755887,-0.08707777553637923,0.0,0.0,-0.6,0.0,0.0015933513641357422,0.006088733673095703,0
1.9839138984680176,0.23446358740329742,-0.022600309923291206,-0.4945853650569916,0.014510412773453163,-0.563330530712941,-0.4069795789358165,-0.7999999996461993,-0.08964540356485841,0.0,0.0,-0.6,0.0,0.008648395538330078,0.013721466064453125,0
2.0006189346313477,0.23446358740329742,-0.022600309923291206,-0.4945853650569916,0.014510412773453163,-0.563330530712941,-0.4069795789358165,-0.7999999996461993,-0.08964540356485841,0.0,0.0,-0.6,0.0,0.001313924789428711,0.005898952484130859,0
2.0093564987182617,0.23330101370811462,-0.022369517013430595,-0.4963812530040741,0.013892774474734781,-0.5594424285547924,-0.4013541303291596,-0.7999999821140465,-0.08838275144351926,0.0,0.0,-0.6,0.0,0.011154413223266602,0.01595616340637207,0
2.0279064178466797,0.23330101370811462,-0.022369517013430595,-0.4963812530040741,0.013892774474734781,-0.5594424285547924,-0.4013541303291596,-0.7999999821140465,-0.08838275144351926,0.0,0.0,-0.6,0.0,0.0014336109161376953,0.006679058074951172,0
2.037463903427124,0.23008213937282562,-0.02191775292158127,-0.49937546253204346,0.012385214076257036,-0.5531710822135759,-0.3298604093031243,-0.8,-0.07991523389258973,0.0,0.0,-0.6,0.0,0.013933658599853516,0.01785564422607422,0
2.056671619415283,0.23008213937282562,-0.02191775292158127,-0.49937546253204346,0.012385214076257036,-0.5531710822135759,-0.3298604093031243,-0.8,-0.07991523389258973,0.0,0.0,-0.6,0.0,0.0011622905731201172,0.005097627639770508,0
2.0646955966949463,0.22543014585971832,-0.021329203620553017,-0.5021728277206421,0.010347161828854801,-0.5512733852908804,-0.25323017607040116,-0.799999999798322,-0.0642465042044859,0.0,0.0,-0.6,0.0,0.012491941452026367,0.016373634338378906,0
2.082418441772461,0.22543014585971832,-0.021329203620553017,-0.5021728277206421,0.010347161828854801,-0.5512733852908804,-0.25323017607040116,-0.799999999798322,-0.0642465042044859,0.0,0.0,-0.6,0.0,0.0011243820190429688,0.004773378372192383,0
2.0896823406219482,0.22146554291248322,-0.020886555314064026,-0.5038730502128601,0.008839497989220655,-0.5495410270389348,-0.15890101149903585,-0.7999999991219761,-0.05846286072243174,0.0,0.0,-0.6,0.0,0.01142120361328125,0.01526951789855957,0
2.106313943862915,0.22146554291248322,-0.020886555314064026,-0.5038730502128601,0.008839497989220655,-0.5495410270389348,-0.15890101149903585,-0.7999999991219761,-0.05846286072243174,0.0,0.0,-0.6,0.0,0.001111745834350586,0.0050373077392578125,0
2.1137988567352295,0.2142469584941864,-0.02006939984858036,-0.5060104727745056,0.006717001010997791,-0.5529697328480908,-0.07097471719934782,-0.7999999999983884,-0.04236798412225425,0.0,0.0,-0.6,0.0,0.012906312942504883,0.016703367233276367,0
2.131948471069336,0.2142469584941864,-0.02006939984858036,-0.5060104727745056,0.006717001010997791,-0.5529697328480908,-0.07097471719934782,-0.7999999999983884,-0.04236798412225425,0.0,0.0,-0.6,0.0,0.0010709762573242188,0.0048863887786865234,0
2.1387739181518555,0.20865488052368164,-0.019508594647049904,-0.5072808265686035,0.005391515127751069,-0.5534469861160607,0.021034114935118347,-0.7999999978605188,-0.03626729433209039,0.0,0.0,-0.6,0.0,0.010088205337524414,0.013937711715698242,0
2.1546342372894287,0.20865488052368164,-0.019508594647049904,-0.5072808265686035,0.005391515127751069,-0.5534469861160607,0.021034114935118347,-0.7999999978605188,-0.03626729433209039,0.0,0.0,-0.6,0.0,0.0011587142944335938,0.004834175109863281,0
2.1622214317321777,0.20244383811950684,-0.018947819247841835,-0.5084660649299622,0.004176800293298205,-0.5556626245132696,0.09766877747970618,-0.8,-0.028808359866512763,0.0,0.0,-0.6,0.0,0.011234283447265625,0.014995813369750977,0
2.179231643676758,0.1957244575023651,-0.018394438549876213,-0.50954669713974,0.0032443627485239726,-0.5562230934976189,0.16993279062703076,-0.7999999999999851,-0.023256416233333403,0.0,0.0,-0.6,0.0,0.010720968246459961,0.014838695526123047,0
2.1952931880950928,0.1957244575023651,-0.018394438549876213,-0.50954669713974,0.0032443627485239726,-0.5562230934976189,0.16993279062703076,-0.7999999999999851,-0.023256416233333403,0.0,0.0,-0.6,0.0,0.0011029243469238281,0.004927635192871094,0
2.2028026580810547,0.18483377993106842,-0.01762738823890686,-0.5110383629798889,0.002089139764761613,-0.5576682200202264,0.2476215213896466,-0.7999999999412254,-0.01558567638542069,0.0,0.0,-0.6,0.0,0.008423328399658203,0.012259244918823242,0
2.2164411544799805,0.18483377993106842,-0.01762738823890686,-0.5110383629798889,0.002089139764761613,-0.5576682200202264,0.2476215213896466,-0.7999999999412254,-0.01558567638542069,0.0,0.0,-0.6,0.0,0.0010919570922851562,0.00510716438293457,0
2.2235898971557617,0.1770382523536682,-0.01718059554696083,-0.5119248032569885,0.0013384044654772902,-0.5593039507656138,0.2860479736238959,-0.7999999998427049,-0.010808300569417452,0.0,0.0,-0.6,0.0,0.008159160614013672,0.01210641860961914,0
2.237689733505249,0.1770382523536682,-0.01718059554696083,-0.5119248032569885,0.0013384044654772902,-0.5593039507656138,0.2860479736238959,-0.7999999998427049,-0.010808300569417452,0.0,0.0,-0.6,0.0,0.0010673999786376953,0.004938602447509766,0
2.2472360134124756,0.1688440442085266,-0.016824660822749138,-0.512672483921051,0.0006004141298177945,-0.5610221417494005,0.32928479079333306,-0.7999999496972695,-0.006777265927905177,0.0,0.0,-0.6,0.0,0.008254528045654297,0.012291908264160156,0
2.261672258377075,0.1688440442085266,-0.016824660822749138,-0.512672483921051,0.0006004141298177945,-0.5610221417494005,0.32928479079333306,-0.7999999496972695,-0.006777265927905177,0.0,0.0,-0.6,0.0,0.0011265277862548828,0.005111217498779297,0
2.26872181892395,0.1603900045156479,-0.01656384952366352,-0.513353705406189,8.305875234895016e-05,-0.5625876968889924,0.34781173250857667,-0.7999999999498182,-0.002919320216464559,0.0,0.0,-0.6,0.0,0.00964212417602539,0.013460397720336914,0
2.284172534942627,0.1603900045156479,-0.01656384952366352,-0.513353705406189,8.305875234895016e-05,-0.5625876968889924,0.34781173250857667,-0.7999999999498182,-0.002919320216464559,0.0,0.0,-0.6,0.0,0.0010952949523925781,0.005204439163208008,0
2.2913033962249756,0.14734774827957153,-0.016253193840384483,-0.5141708850860596,-0.0005749684594453332,-0.5647461683515327,0.3427111153588422,-0.7999999999278693,0.0016067594132636277,0.0,0.0,-0.6,0.0,0.008419513702392578,0.012253284454345703,0
2.305495500564575,0.14734774827957153,-0.016253193840384483,-0.5141708850860596,-0.0005749684594453332,-0.5647461683515327,0.3427111153588422,-0.7999999999278693,0.0016067594132636277,0.0,0.0,-0.6,0.0,0.0011103153228759766,0.005179405212402344,0
2.3131814002990723,0.13846828043460846,-0.01607147790491581,-0.5145876407623291,-0.0010869897779402136,-0.5657616148241656,0.33205375699777,-0.7999999999968782,0.004987172687187576,0.0,0.0,-0.6,0.0,0.008165597915649414,0.012160301208496094,0
2.3272249698638916,0.13846828043460846,-0.01607147790491581,-0.5145876407623291,-0.0010869897779402136,-0.5657616148241656,0.33205375699777,-0.7999999999968782,0.004987172687187576,0.0,0.0,-0.6,0.0,0.0011243820190429688,0.005173206329345703,0
2.338258981704712,0.12502911686897278,-0.01590150222182274,-0.5152229070663452,-0.0020901469733598005,-0.5664207059417324,0.3139370797314329,-0.7999999997532891,0.012322498943827071,0.0,0.0,-0.6,0.0,0.008519649505615234,0.012750864028930664,0
2.352440357208252,0.12502911686897278,-0.01590150222182274,-0.5152229070663452,-0.0020901469733598005,-0.5664207059417324,0.3139370797314329,-0.7999999997532891,0.012322498943827071,0.0,0.0,-0.6,0.0,0.0010592937469482422,0.00497889518737793,0
2.3604209423065186,0.11616124957799911,-0.01589595340192318,-0.5156976580619812,-0.002689679854915777,-0.5670982153298231,0.2850249295182596,-0.7999999991432366,0.01777728917479155,0.0,0.0,-0.6,0.0,0.007889509201049805,0.011591196060180664,0
2.373420476913452,0.11616124957799911,-0.01589595340192318,-0.5156976580619812,-0.002689679854915777,-0.5670982153298231,0.2850249295182596,-0.7999999991432366,0.01777728917479155,0.0,0.0,-0.6,0.0,0.0010645389556884766,0.005043506622314453,0
2.3805148601531982,0.1074448674917221,-0.01594984531402588,-0.5161749124526978,-0.0032296297873028097,-0.5674884838326171,0.24626173793517678,-0.7126771442436214,0.021821526423447327,0.0,0.0,-0.6,0.0,0.0061376094818115234,0.010121345520019531,0
2.392507314682007,0.1074448674917221,-0.01594984531402588,-0.5161749124526978,-0.0032296297873028097,-0.5674884838326171,0.24626173793517678,-0.7126771442436214,0.021821526423447327,0.0,0.0,-0.6,0.0,0.0010528564453125,0.004954099655151367,0
2.3994128704071045,0.10314806550741196,-0.016012033447623253,-0.5164265632629395,-0.0034774360204402497,-0.5676765355206542,0.21449837244647513,-0.6452456667808141,0.023316556032823156,0.0,0.0,-0.6,0.0,0.005482673645019531,0.009453535079956055,0
2.4108352661132812,0.10314806550741196,-0.016012033447623253,-0.5164265632629395,-0.0034774360204402497,-0.5676765355206542,0.21449837244647513,-0.6452456667808141,0.023316556032823156,0.0,0.0,-0.6,0.0,0.0011074542999267578,0.004666805267333984,0
2.417564630508423,0.09469689428806305,-0.016189521178603172,-0.5169956684112549,-0.003987991750976097,-0.5666405477414554,0.16326182741319975,-0.509546830314,0.026431154710134283,0.0,0.0,-0.6,0.0,0.005565643310546875,0.009485244750976562,0
2.428494691848755,0.09469689428806305,-0.016189521178603172,-0.5169956684112549,-0.003987991750976097,-0.5666405477414554,0.16326182741319975,-0.509546830314,0.026431154710134283,0.0,0.0,-0.6,0.0,0.0011124610900878906,0.004876613616943359,0
2.437293291091919,0.08654764294624329,-0.016444241628050804,-0.5177997350692749,-0.004632199441274363,-0.5651962406975386,0.10227196013252574,-0.3415027041218846,0.030348005885807983,0.0,0.0,-0.6,0.0,0.005381584167480469,0.009495973587036133,0
2.4483046531677246,0.08654764294624329,-0.016444241628050804,-0.5177997350692749,-0.004632199441274363,-0.5651962406975386,0.10227196013252574,-0.3415027041218846,0.030348005885807983,0.0,0.0,-0.6,0.0,0.001146078109741211,0.005099773406982422,0
2.457796812057495,0.07880005985498428,-0.016694126650691032,-0.5187041759490967,-0.005454319519718606,-0.564590650822485,0.025025427587177775,-0.14015863349403831,0.03529026205700631,0.0,0.0,-0.6,0.0,0.005656719207763672,0.010046958923339844,0
2.4692904949188232,0.07880005985498428,-0.016694126650691032,-0.5187041759490967,-0.005454319519718606,-0.564590650822485,0.025025427587177775,-0.14015863349403831,0.03529026205700631,0.0,0.0,-0.6,0.0,0.0011043548583984375,0.0050241947174072266,0
2.477397918701172,0.07152171432971954,-0.016895722597837448,-0.5196397304534912,-0.0062777828111157735,-0.564166366151342,-0.04727579217669983,0.09426247090781176,0.04030669476381868,0.0,0.0,-0.6,0.0,0.005817890167236328,0.009818553924560547,0
2.488593101501465,0.07152171432971954,-0.016895722597837448,-0.5196397304534912,-0.0062777828111157735,-0.564166366151342,-0.04727579217669983,0.09426247090781176,0.04030669476381868,0.0,0.0,-0.6,0.0,0.0010380744934082031,0.004727363586425781,0
2.4973273277282715,0.0647268071770668,-0.01705259084701538,-0.5205966234207153,-0.007081869015211723,-0.5634920437255033,-0.11069107699432115,0.3387049606870662,0.04531803448367423,0.0,0.0,-0.6,0.0,0.005510091781616211,0.009607315063476562,0
2.508382558822632,0.0647268071770668,-0.01705259084701538,-0.5205966234207153,-0.007081869015211723,-0.5634920437255033,-0.11069107699432115,0.3387049606870662,0.04531803448367423,0.0,0.0,-0.6,0.0,0.001146554946899414,0.0052416324615478516,0
2.517362356185913,0.058472007513046265,-0.017158634960651398,-0.5216401219367981,-0.007767489172091532,-0.5622035175104453,-0.1809610082187229,0.579475106803155,0.049512115825986594,0.0,0.0,-0.6,0.0,0.00465703010559082,0.008610248565673828,0
2.5274605751037598,0.058472007513046265,-0.017158634960651398,-0.5216401219367981,-0.007767489172091532,-0.5622035175104453,-0.1809610082187229,0.579475106803155,0.049512115825986594,0.0,0.0,-0.6,0.0,0.0011374950408935547,0.005238533020019531,0
2.537849187850952,0.04988238960504532,-0.017016980797052383,-0.5233225226402283,-0.008799492830557065,-0.5628094815870162,-0.30588608128658207,0.7999999804099724,0.055336172303633455,0.0,0.0,-0.6,0.0,0.006697416305541992,0.01059722900390625,0
2.5499227046966553,0.04988238960504532,-0.017016980797052383,-0.5233225226402283,-0.008799492830557065,-0.5628094815870162,-0.30588608128658207,0.7999999804099724,0.055336172303633455,0.0,0.0,-0.6,0.0,0.001112222671508789,0.004845142364501953,0
2.558101177215576,0.04718828201293945,-0.01697109453380108,-0.5239308476448059,-0.009026604806471095,-0.5610174476906644,-0.2843658917410739,0.7999999999767546,0.05749296289077961,0.0,0.0,-0.6,0.0,0.00615382194519043,0.01039576530456543,0
2.570383310317993,0.042134642601013184,-0.017020292580127716,-0.5253973603248596,-0.009068826500635868,-0.5609400610173539,-0.29217281195770484,0.7999999999999969,0.05833491996440086,0.0,0.0,-0.6,0.0,0.007771015167236328,0.011641740798950195,0
2.584038734436035,0.042134642601013184,-0.017020292580127716,-0.5253973603248596,-0.009068826500635868,-0.5609400610173539,-0.29217281195770484,0.7999999999999969,0.05833491996440086,0.0,0.0,-0.6,0.0,0.001070261001586914,0.004965066909790039,0
2.590975761413574,0.037355612963438034,-0.016892321407794952,-0.5266082882881165,-0.008818352127348043,-0.5627482540670036,-0.34216656155162467,0.7999999999986221,0.055867871310499057,0.0,0.0,-0.6,0.0,0.00799560546875,0.011775493621826172,0
2.6046574115753174,0.037355612963438034,-0.016892321407794952,-0.5266082882881165,-0.008818352127348043,-0.5627482540670036,-0.34216656155162467,0.7999999999986221,0.055867871310499057,0.0,0.0,-0.6,0.0,0.0010974407196044922,0.005087614059448242,0
2.611921548843384,0.03299509361386299,-0.01686052232980728,-0.528035581111908,-0.008104711900470992,-0.5590300151147926,-0.3202065822507297,0.799999999580287,0.05173883324408984,0.0,0.0,-0.6,0.0,0.009732961654663086,0.013767242431640625,0
2.626910448074341,0.03299509361386299,-0.01686052232980728,-0.528035581111908,-0.008104711900470992,-0.5590300151147926,-0.3202065822507297,0.799999999580287,0.05173883324408984,0.0,0.0,-0.6,0.0,0.0010683536529541016,0.0049059391021728516,0
2.6343419551849365,0.029145758599042892,-0.01674722135066986,-0.5294821858406067,-0.007301761898963329,-0.5591179232538148,-0.35439081972538217,0.7999996092901187,0.04508655132516932,0.0,0.0,-0.6,0.0,0.007143497467041016,0.011023283004760742,0
2.6467645168304443,0.029145758599042892,-0.01674722135066986,-0.5294821858406067,-0.007301761898963329,-0.5591179232538148,-0.35439081972538217,0.7999996092901187,0.04508655132516932,0.0,0.0,-0.6,0.0,0.0011255741119384766,0.004770755767822266,0
2.654041051864624,0.025764426216483116,-0.016635924577713013,-0.5310343503952026,-0.006567498038360321,-0.5575652083890059,-0.3137876075510985,0.7999999978629276,0.04072596375832685,0.0,0.0,-0.6,0.0,0.007191181182861328,0.011095762252807617,0
2.667177200317383,0.025764426216483116,-0.016635924577713013,-0.5310343503952026,-0.006567498038360321,-0.5575652083890059,-0.3137876075510985,0.7999999978629276,0.04072596375832685,0.0,0.0,-0.6,0.0,0.0011136531829833984,0.005227565765380859,0
2.677382707595825,0.022880861535668373,-0.016457900404930115,-0.5325177907943726,-0.005750768989101809,-0.5590521862182393,-0.2970100382093629,0.799999962297729,0.035308062599989254,0.0,0.0,-0.6,0.0,0.00709080696105957,0.011139154434204102,0
2.690093517303467,0.022880861535668373,-0.016457900404930115,-0.5325177907943726,-0.005750768989101809,-0.5590521862182393,-0.2970100382093629,0.799999962297729,0.035308062599989254,0.0,0.0,-0.6,0.0,0.0012178421020507812,0.005245208740234375,0
2.698042154312134,0.020423488691449165,-0.016177183017134666,-0.5338313579559326,-0.004928829477381113,-0.5597615971033297,-0.23857685570326945,0.7999992111766693,0.030673583363033042,0.0,0.0,-0.6,0.0,0.006852388381958008,0.010712623596191406,0
2.7107324600219727,0.018383052200078964,-0.015885600820183754,-0.535006582736969,-0.004057589133051936,-0.5600971958940957,-0.16107650334595155,0.7999999999953971,0.025723688140604075,0.0,0.0,-0.6,0.0,0.0059244632720947266,0.009887218475341797,0
2.722512722015381,0.018383052200078964,-0.015885600820183754,-0.535006582736969,-0.004057589133051936,-0.5600971958940957,-0.16107650334595155,0.7999999999953971,0.025723688140604075,0.0,0.0,-0.6,0.0,0.0011501312255859375,0.004809856414794922,0
2.7302825450897217,0.01752602495253086,-0.015750909224152565,-0.5355901718139648,-0.0036687321181062766,-0.559619758855324,-0.12128564171592178,0.7999999982895238,0.023431603112930067,0.0,0.0,-0.6,0.0,0.00632023811340332,0.010676383972167969,0
2.742781400680542,0.01612291857600212,-0.015467277728021145,-0.5366750955581665,-0.003179239267194006,-0.5599305182554917,-0.04357285993376672,0.7692009715179021,0.020480505279722196,0.0,0.0,-0.6,0.0,0.007885217666625977,0.011778831481933594,0
2.7560954093933105,0.01612291857600212,-0.015467277728021145,-0.5366750955581665,-0.003179239267194006,-0.5599305182554917,-0.04357285993376672,0.7692009715179021,0.020480505279722196,0.0,0.0,-0.6,0.0,0.0010571479797363281,0.004950284957885742,0
2.7641258239746094,0.01499372161924839,-0.0152017492800951,-0.5376691222190857,-0.0028495800292396164,-0.5602269266677949,0.03895948862783565,0.649447012503573,0.018448227939499476,0.0,0.0,-0.6,0.0,0.005391120910644531,0.009416818618774414,0
2.7749483585357666,0.01499372161924839,-0.0152017492800951,-0.5376691222190857,-0.0028495800292396164,-0.5602269266677949,0.03895948862783565,0.649447012503573,0.018448227939499476,0.0,0.0,-0.6,0.0,0.0011179447174072266,0.005090951919555664,0
2.7820076942443848,0.01402326487004757,-0.014956178143620491,-0.5385771989822388,-0.0026831114854004756,-0.5601703905512434,0.1120398091959299,0.5049861922957158,0.01739774379798809,0.0,0.0,-0.6,0.0,0.00459599494934082,0.008482694625854492,0
2.7923667430877686,0.01402326487004757,-0.014956178143620491,-0.5385771989822388,-0.0026831114854004756,-0.5601703905512434,0.1120398091959299,0.5049861922957158,0.01739774379798809,0.0,0.0,-0.6,0.0,0.0010721683502197266,0.00512242317199707,0
2.7996368408203125,0.0131524708122015,-0.014714605174958706,-0.5394414067268372,-0.002588215202567213,-0.5600727496121414,0.16801835358557604,0.36186128114718136,0.016747450199047654,0.0,0.0,-0.6,0.0,0.00424647331237793,0.008031129837036133,0
2.809577465057373,0.0131524708122015,-0.014714605174958706,-0.5394414067268372,-0.002588215202567213,-0.5600727496121414,0.16801835358557604,0.36186128114718136,0.016747450199047654,0.0,0.0,-0.6,0.0,0.0010988712310791016,0.004946470260620117,0
2.8185110092163086,0.012355792336165905,-0.014484572224318981,-0.5402345061302185,-0.0024794524900015854,-0.5601950651319646,0.2259508857905807,0.20916480461299122,0.016007055059065096,0.0,0.0,-0.6,0.0,0.0043182373046875,0.008276700973510742,0
2.828731060028076,0.012355792336165905,-0.014484572224318981,-0.5402345061302185,-0.0024794524900015854,-0.5601950651319646,0.2259508857905807,0.20916480461299122,0.016007055059065096,0.0,0.0,-0.6,0.0,0.0010483264923095703,0.005063533782958984,0
2.8373935222625732,0.011982175521552563,-0.014388680458068848,-0.5406032800674438,-0.0025012984902442244,-0.5603228829713793,0.2525685518459917,0.13632931869978798,0.0160993297287902,0.0,0.0,-0.6,0.0,0.0044939517974853516,0.008593559265136719,0
2.84743595123291,0.011982175521552563,-0.014388680458068848,-0.5406032800674438,-0.0025012984902442244,-0.5603228829713793,0.2525685518459917,0.13632931869978798,0.0160993297287902,0.0,0.0,-0.6,0.0,0.0011191368103027344,0.004978179931640625,0
2.8578763008117676,0.011282159015536308,-0.014229845255613327,-0.5412720441818237,-0.0027533842593280115,-0.5611361797538494,0.2882918029211465,-0.0030967831093861326,0.01757434621892692,0.0,0.0,-0.6,0.0,0.0051953792572021484,0.009445905685424805,0
2.8690221309661865,0.011282159015536308,-0.014229845255613327,-0.5412720441818237,-0.0027533842593280115,-0.5611361797538494,0.2882918029211465,-0.0030967831093861326,0.01757434621892692,0.0,0.0,-0.6,0.0,0.0011112689971923828,0.0051729679107666016,0
2.877258539199829,0.010667786933481693,-0.014064942486584187,-0.5418023467063904,-0.0030182894290838778,-0.5621562017718044,0.2932178950529665,-0.13719749807609288,0.01913353243183579,0.0,0.0,-0.6,0.0,0.004407644271850586,0.008336067199707031,0
2.8884940147399902,0.010054057464003563,-0.013909842818975449,-0.5422444343566895,-0.0033285320881612296,-0.5621618505379085,0.2890835855951069,-0.2833010436081523,0.02101884669230301,0.0,0.0,-0.6,0.0,0.004305601119995117,0.008341073989868164,0
2.89860463142395,0.010054057464003563,-0.013909842818975449,-0.5422444343566895,-0.0033285320881612296,-0.5621618505379085,0.2890835855951069,-0.2833010436081523,0.02101884669230301,0.0,0.0,-0.6,0.0,0.0011708736419677734,0.004905223846435547,0
2.9079010486602783,0.009378178045153618,-0.013843685388565063,-0.5427168011665344,-0.0034476782342583623,-0.5614398889724469,0.28102042627703205,-0.4410241131744435,0.02169841016947122,0.0,0.0,-0.6,0.0,0.005657672882080078,0.009716033935546875,0
2.919273853302002,0.009378178045153618,-0.013843685388565063,-0.5427168011665344,-0.0034476782342583623,-0.5614398889724469,0.28102042627703205,-0.4410241131744435,0.02169841016947122,0.0,0.0,-0.6,0.0,0.0011012554168701172,0.005383968353271484,0
2.928337812423706,0.008540471084415913,-0.013890690170228481,-0.5431972146034241,-0.0035347903714777586,-0.5614626063871322,0.2742052496042191,-0.6269159085573374,0.02216686751258304,0.0,0.0,-0.6,0.0,0.0056612491607666016,0.009737253189086914,0
2.939903736114502,0.008540471084415913,-0.013890690170228481,-0.5431972146034241,-0.0035347903714777586,-0.5614626063871322,0.2742052496042191,-0.6269159085573374,0.02216686751258304,0.0,0.0,-0.6,0.0,0.0010881423950195312,0.004797697067260742,0
2.9480011463165283,0.007473648060113192,-0.014063479378819466,-0.5436508655548096,-0.003736980228594048,-0.5613814285165213,0.2776496545593622,-0.7999999983005115,0.023130616248417307,0.0,0.0,-0.6,0.0,0.008761882781982422,0.012673616409301758,0
2.96304988861084,0.007473648060113192,-0.014063479378819466,-0.5436508655548096,-0.003736980228594048,-0.5613814285165213,0.2776496545593622,-0.7999999983005115,0.023130616248417307,0.0,0.0,-0.6,0.0,0.0010848045349121094,0.004976511001586914,0
2.9701876640319824,0.0061470502987504005,-0.014324409887194633,-0.5440807938575745,-0.003939018631661284,-0.5612865702859501,0.26551724788004266,-0.7999999977790222,0.02222597880955492,0.0,0.0,-0.6,0.0,0.006918907165527344,0.010645389556884766,0
2.982192277908325,0.0061470502987504005,-0.014324409887194633,-0.5440807938575745,-0.003939018631661284,-0.5612865702859501,0.26551724788004266,-0.7999999977790222,0.02222597880955492,0.0,0.0,-0.6,0.0,0.001111745834350586,0.0047893524169921875,0
2.9892845153808594,0.004691912326961756,-0.014582670293748379,-0.5444992184638977,-0.004023296747165798,-0.5607507859431076,0.21473608487447488,-0.7999999999748361,0.021974844916926656,0.0,0.0,-0.6,0.0,0.007150888442993164,0.011232376098632812,0
3.0020012855529785,0.004691912326961756,-0.014582670293748379,-0.5444992184638977,-0.004023296747165798,-0.5607507859431076,0.21473608487447488,-0.7999999999748361,0.021974844916926656,0.0,0.0,-0.6,0.0,0.001194000244140625,0.0049626827239990234,0
3.0094003677368164,0.00320919300429523,-0.01486707292497158,-0.5450555682182312,-0.003898041332628256,-0.55740373777525,0.21061580705964075,-0.7999999999739003,0.02046200302310338,0.0,0.0,-0.6,0.0,0.007043361663818359,0.010891199111938477,0
3.0216805934906006,0.00320919300429523,-0.01486707292497158,-0.5450555682182312,-0.003898041332628256,-0.55740373777525,0.21061580705964075,-0.7999999999739003,0.02046200302310338,0.0,0.0,-0.6,0.0,0.0011069774627685547,0.004920482635498047,0
3.0292422771453857,0.0017185602337121964,-0.015244752168655396,-0.5457682609558105,-0.0037679207174713407,-0.5575706722044856,0.16455122219866267,-0.7999999998933855,0.020436837828772512,0.0,0.0,-0.6,0.0,0.007071018218994141,0.010984420776367188,0
3.041635513305664,0.0017185602337121964,-0.015244752168655396,-0.5457682609558105,-0.0037679207174713407,-0.5575706722044856,0.16455122219866267,-0.7999999998933855,0.020436837828772512,0.0,0.0,-0.6,0.0,0.0010874271392822266,0.004860639572143555,0
3.04909610748291,0.00012829307524953038,-0.015583908185362816,-0.5464915633201599,-0.0037975460792047866,-0.5571967669617617,0.07034935807422533,-0.7999999933600404,0.022323633370808605,0.0,0.0,-0.6,0.0,0.0069789886474609375,0.010779857635498047,0
3.0619099140167236,0.00012829307524953038,-0.015583908185362816,-0.5464915633201599,-0.0037975460792047866,-0.5571967669617617,0.07034935807422533,-0.7999999933600404,0.022323633370808605,0.0,0.0,-0.6,0.0,0.0011568069458007812,0.0049877166748046875,0
3.0693140029907227,-0.001585481921210885,-0.015870563685894012,-0.5471218228340149,-0.003872391290522559,-0.5582823036524455,-0.004850284348468941,-0.7999993971251539,0.0236245409770982,0.0,0.0,-0.6,0.0,0.0069353580474853516,0.010868072509765625,0
3.0817947387695312,-0.001585481921210885,-0.015870563685894012,-0.5471218228340149,-0.003872391290522559,-0.5582823036524455,-0.004850284348468941,-0.7999993971251539,0.0236245409770982,0.0,0.0,-0.6,0.0,0.0010809898376464844,0.005049705505371094,0
3.088768482208252,-0.003454377641901374,-0.01613890938460827,-0.5476067066192627,-0.004030921136725859,-0.5582551174255298,-0.03928362320910158,-0.7999977144330382,0.024951414016892253,0.0,0.0,-0.6,0.0,0.006435394287109375,0.01010274887084961,0
3.1008312702178955,-0.003454377641901374,-0.01613890938460827,-0.5476067066192627,-0.004030921136725859,-0.5582551174255298,-0.03928362320910158,-0.7999977144330382,0.024951414016892253,0.0,0.0,-0.6,0.0,0.001096487045288086,0.004825115203857422,0
3.107668399810791,-0.0044424207881093025,-0.01628025807440281,-0.547851026058197,-0.0041330829442724065,-0.5580494812667903,-0.050908701200069004,-0.7812321324051092,0.02568942182644331,0.0,0.0,-0.6,0.0,0.007791280746459961,0.011496543884277344,0
3.1215944290161133,-0.006530131213366985,-0.01654994487762451,-0.5483070611953735,-0.004356525715429132,-0.558597174632702,-0.064106760668881,-0.6711125653691201,0.027078850753053114,0.0,0.0,-0.6,0.0,0.005568027496337891,0.009434700012207031,0
3.132416009902954,-0.006530131213366985,-0.01654994487762451,-0.5483070611953735,-0.004356525715429132,-0.558597174632702,-0.064106760668881,-0.6711125653691201,0.027078850753053114,0.0,0.0,-0.6,0.0,0.0010905265808105469,0.004755258560180664,0
3.139599084854126,-0.008691279217600822,-0.016815615817904472,-0.5486548542976379,-0.004635938396633539,-0.5594758225184441,-0.051266686643381694,-0.5384589235269616,0.0288955533439761,0.0,0.0,-0.6,0.0,0.0056591033935546875,0.009645462036132812,0
3.1506080627441406,-0.008691279217600822,-0.016815615817904472,-0.5486548542976379,-0.004635938396633539,-0.5594758225184441,-0.051266686643381694,-0.5384589235269616,0.0288955533439761,0.0,0.0,-0.6,0.0,0.0011167526245117188,0.004899501800537109,0
3.158562660217285,-0.009773450903594494,-0.016970248892903328,-0.5488052368164062,-0.00483605609935477,-0.5592614718910929,-0.03320372509930863,-0.4653816293048983,0.03024933626381809,0.0,0.0,-0.6,0.0,0.005360603332519531,0.009365081787109375,0
3.1700375080108643,-0.011937648989260197,-0.01732480712234974,-0.5491257309913635,-0.005195090193148105,-0.5590926978634577,-0.01176058785252385,-0.3088572401377851,0.03278483379867063,0.0,0.0,-0.6,0.0,0.005427837371826172,0.00934910774230957,0
3.181356191635132,-0.011937648989260197,-0.01732480712234974,-0.5491257309913635,-0.005195090193148105,-0.5590926978634577,-0.01176058785252385,-0.3088572401377851,0.03278483379867063,0.0,0.0,-0.6,0.0,0.0010728836059570312,0.004886150360107422,0
3.1883468627929688,-0.014062555506825447,-0.017643477767705917,-0.5494189858436584,-0.005554587524655776,-0.5592953271696491,0.006052933669386635,-0.1437392424673512,0.03538569855996943,0.0,0.0,-0.6,0.0,0.0042726993560791016,0.008378744125366211,0
3.1984949111938477,-0.014062555506825447,-0.017643477767705917,-0.5494189858436584,-0.005554587524655776,-0.5592953271696491,0.006052933669386635,-0.1437392424673512,0.03538569855996943,0.0,0.0,-0.6,0.0,0.0011067390441894531,0.005059480667114258,0
3.207472085952759,-0.016080446541309357,-0.01795022562146187,-0.5496370792388916,-0.005832604563429838,-0.560047138918154,0.03424525211992123,0.021162381228490013,0.03752837277035744,0.0,0.0,-0.6,0.0,0.0044097900390625,0.008347034454345703,0
3.2172584533691406,-0.016080446541309357,-0.01795022562146187,-0.5496370792388916,-0.005832604563429838,-0.560047138918154,0.03424525211992123,0.021162381228490013,0.03752837277035744,0.0,0.0,-0.6,0.0,0.00107574462890625,0.004632472991943359,0
3.227254629135132,-0.017993127927184105,-0.018271951004862785,-0.549795389175415,-0.006011394138098668,-0.5606111664878011,0.05479436181421123,0.1769120954221115,0.03900805211664215,0.0,0.0,-0.6,0.0,0.004303693771362305,0.008156776428222656,0
3.238311290740967,-0.01889735274016857,-0.01843222603201866,-0.5498538613319397,-0.006124601044555605,-0.5609595753116029,0.052237487840320826,0.24934145163491414,0.03982835851372215,0.0,0.0,-0.6,0.0,0.00446772575378418,0.008272886276245117,0
3.2484829425811768,-0.01889735274016857,-0.01843222603201866,-0.5498538613319397,-0.006124601044555605,-0.5609595753116029,0.052237487840320826,0.24934145163491414,0.03982835851372215,0.0,0.0,-0.6,0.0,0.0010936260223388672,0.00479435920715332,0
3.2585790157318115,-0.020593641325831413,-0.018762171268463135,-0.5499999523162842,-0.006315127489982132,-0.5600391275770923,0.055659412578900044,0.3821270715670486,0.04124080679723164,0.0,0.0,-0.6,0.0,0.004324436187744141,0.008217096328735352,0
3.268894910812378,-0.020593641325831413,-0.018762171268463135,-0.5499999523162842,-0.006315127489982132,-0.5600391275770923,0.055659412578900044,0.3821270715670486,0.04124080679723164,0.0,0.0,-0.6,0.0,0.0011370182037353516,0.005120515823364258,0
3.277609348297119,-0.02210826985538006,-0.019071485847234726,-0.5503057241439819,-0.006312232729813762,-0.5581699555958395,0.04277222087721711,0.5030355795174183,0.04128452377801498,0.0,0.0,-0.6,0.0,0.004610776901245117,0.008594989776611328,0
3.28812575340271,-0.02210826985538006,-0.019071485847234726,-0.5503057241439819,-0.006312232729813762,-0.5581699555958395,0.04277222087721711,0.5030355795174183,0.04128452377801498,0.0,0.0,-0.6,0.0,0.0010480880737304688,0.004905223846435547,0
3.2974050045013428,-0.02278459630906582,-0.01920553296804428,-0.5505290627479553,-0.0062468925961259025,-0.5572263059563407,0.0428279272150861,0.5548496038505327,0.04091899822642016,0.0,0.0,-0.6,0.0,0.004496335983276367,0.008392333984375,0
3.308072328567505,-0.023982573300600052,-0.01937250606715679,-0.5510532855987549,-0.006057284004190198,-0.5568992927006967,0.006432258584916373,0.6255589593551556,0.03956559288954361,0.0,0.0,-0.6,0.0,0.00509333610534668,0.009459495544433594,0
3.3192548751831055,-0.023982573300600052,-0.01937250606715679,-0.5510532855987549,-0.006057284004190198,-0.5568992927006967,0.006432258584916373,0.6255589593551556,0.03956559288954361,0.0,0.0,-0.6,0.0,0.0011398792266845703,0.0047588348388671875,0
3.3279454708099365,-0.02451712265610695,-0.019382966682314873,-0.5512859225273132,-0.005908300539049986,-0.557494590877659,-0.01485472461877689,0.6377299152131888,0.0385129455751899,0.0,0.0,-0.6,0.0,0.004395008087158203,0.008339166641235352,0
3.3376622200012207,-0.02451712265610695,-0.019382966682314873,-0.5512859225273132,-0.005908300539049986,-0.557494590877659,-0.01485472461877689,0.6377299152131888,0.0385129455751899,0.0,0.0,-0.6,0.0,0.0010564327239990234,0.0049664974212646484,0
3.347592830657959,-0.025960182771086693,-0.019282476976513863,-0.5518945455551147,-0.005489132991418033,-0.556792003762531,-0.01702870560910825,0.6051362521222348,0.035872135224255065,0.0,0.0,-0.6,0.0,0.004394054412841797,0.008186101913452148,0
3.358320951461792,-0.025960182771086693,-0.019282476976513863,-0.5518945455551147,-0.005489132991418033,-0.556792003762531,-0.01702870560910825,0.6051362521222348,0.035872135224255065,0.0,0.0,-0.6,0.0,0.0011763572692871094,0.0049266815185546875,0
3.367292642593384,-0.0267022754997015,-0.01929628662765026,-0.5524988174438477,-0.005182086145723885,-0.5548274053854397,0.003559060804313824,0.5555297733946426,0.03398912736997187,0.0,0.0,-0.6,0.0,0.004311800003051758,0.008124589920043945,0
3.3774685859680176,-0.0267022754997015,-0.01929628662765026,-0.5524988174438477,-0.005182086145723885,-0.5548274053854397,0.003559060804313824,0.5555297733946426,0.03398912736997187,0.0,0.0,-0.6,0.0,0.0010709762573242188,0.005068540573120117,0
3.387545585632324,-0.027234286069869995,-0.019292982295155525,-0.5531513094902039,-0.004727057172171344,-0.5549020489624524,-0.018457476976215203,0.47560735070910565,0.030879039238855314,0.0,0.0,-0.6,0.0,0.004430294036865234,0.008266925811767578,0
3.397608995437622,-0.027234286069869995,-0.019292982295155525,-0.5531513094902039,-0.004727057172171344,-0.5549020489624524,-0.018457476976215203,0.47560735070910565,0.030879039238855314,0.0,0.0,-0.6,0.0,0.0011374950408935547,0.00480341911315918,0
3.408348560333252,-0.027574634179472923,-0.01925772987306118,-0.5537569522857666,-0.004244242244504365,-0.555544179115078,-0.051576868974398,0.3816819943337938,0.02753312817266031,0.0,0.0,-0.6,0.0,0.00466465950012207,0.008841276168823242,0
3.418457508087158,-0.027574634179472923,-0.01925772987306118,-0.5537569522857666,-0.004244242244504365,-0.555544179115078,-0.051576868974398,0.3816819943337938,0.02753312817266031,0.0,0.0,-0.6,0.0,0.0011324882507324219,0.004969358444213867,0
3.4274544715881348,-0.027809476479887962,-0.01918633095920086,-0.5543928146362305,-0.0037003946505563923,-0.5553365839663772,-0.06980080376629588,0.26279684137734916,0.023844264037754578,0.0,0.0,-0.6,0.0,0.004365682601928711,0.008296966552734375,0
3.4389808177948,-0.027889633551239967,-0.019146738573908806,-0.5547105669975281,-0.003398748882661803,-0.5555304709788829,-0.07587170804679795,0.20433067056920393,0.021827357011541624,0.0,0.0,-0.6,0.0,0.004585742950439453,0.008417367935180664,0
3.4487414360046387,-0.027889633551239967,-0.019146738573908806,-0.5547105669975281,-0.003398748882661803,-0.5555304709788829,-0.07587170804679795,0.20433067056920393,0.021827357011541624,0.0,0.0,-0.6,0.0,0.0010800361633300781,0.004841804504394531,0
