time,x,y,z,yaw,throttle,roll_rate,pitch_rate,yaw_rate,x_ref,y_ref,z_ref,yaw_ref,mpc_time,ctrl_callback_time_history,metadata
3.5762786865234375e-06,-0.04711062088608742,0.04924153909087181,-0.24082490801811218,0.01159429444468322,-0.6352876864927582,-0.470387382078795,-0.21803344193193763,-0.07461000076021815,0.0,0.0,-0.6,0.0,0.016188621520996094,0.020253419876098633,Hardware
0.0221560001373291,-0.047134384512901306,0.04923611506819725,-0.24081848561763763,0.011551277805788816,-0.6352876865037601,-0.47253229970846383,-0.22037642442620126,-0.07433872850198625,0.0,0.0,-0.6,0.0,0.007464170455932617,0.011315584182739258,2x Speed
0.0355527400970459,-0.047134384512901306,0.04923611506819725,-0.24081848561763763,0.011551277805788816,-0.6352876865037601,-0.47253229970846383,-0.22037642442620126,-0.07433872850198625,0.0,0.0,-0.6,0.0,0.0011265277862548828,0.005002260208129883,Horizon:3.0
0.042421579360961914,-0.04713236168026924,0.04923589900135994,-0.24082186818122864,0.011556899004940757,-0.6352876864771791,-0.46993070528811176,-0.21929692853391747,-0.07437059426586586,0.0,0.0,-0.6,0.0,0.007653713226318359,0.011671066284179688,Num Steps:20
0.05553889274597168,-0.04713236168026924,0.04923589900135994,-0.24082186818122864,0.011556899004940757,-0.6352876864771791,-0.46993070528811176,-0.21929692853391747,-0.07437059426586586,0.0,0.0,-0.6,0.0,0.0011425018310546875,0.0049746036529541016,No Pyjoules
0.0627906322479248,-0.04712783545255661,0.04925122112035751,-0.24082598090171814,0.011543997603754802,-0.6352876865287539,-0.47239019982946007,-0.22478961792567878,-0.07429103677028506,0.0,0.0,-0.6,0.0,0.007546186447143555,0.011614322662353516,0
0.07584500312805176,-0.04712783545255661,0.04925122112035751,-0.24082598090171814,0.011543997603754802,-0.6352876865287539,-0.47239019982946007,-0.22478961792567878,-0.07429103677028506,0.0,0.0,-0.6,0.0,0.001138925552368164,0.004976034164428711,0
0.08323907852172852,-0.047125641256570816,0.04925762861967087,-0.24085086584091187,0.01136993779694118,-0.6352876864828959,-0.4804761704144359,-0.21998661564166777,-0.07318923294748114,0.0,0.0,-0.6,0.0,0.0074465274810791016,0.011368036270141602,0
0.09604430198669434,-0.047125641256570816,0.04925762861967087,-0.24085086584091187,0.01136993779694118,-0.6352876864828959,-0.4804761704144359,-0.21998661564166777,-0.07318923294748114,0.0,0.0,-0.6,0.0,0.0010919570922851562,0.004777193069458008,0
0.10404634475708008,-0.04713374748826027,0.04925433173775673,-0.24090853333473206,0.01131013529925249,-0.6352876863117579,-0.4738521483104877,-0.2204121614976631,-0.0727934583451102,0.0,0.0,-0.6,0.0,0.0073089599609375,0.011244058609008789,0
0.11663007736206055,-0.04713374748826027,0.04925433173775673,-0.24090853333473206,0.01131013529925249,-0.6352876863117579,-0.4738521483104877,-0.2204121614976631,-0.0727934583451102,0.0,0.0,-0.6,0.0,0.0010800361633300781,0.00506138801574707,0
0.12404203414916992,-0.047096312046051025,0.04921433702111244,-0.24105538427829742,0.011400724293119446,-0.6352876860029717,-0.4433414386089554,-0.18476648388245392,-0.07335741623729274,0.0,0.0,-0.6,0.0,0.008594751358032227,0.012444257736206055,0
0.13790011405944824,-0.047096312046051025,0.04921433702111244,-0.24105538427829742,0.011400724293119446,-0.6352876860029717,-0.4433414386089554,-0.18476648388245392,-0.07335741623729274,0.0,0.0,-0.6,0.0,0.0010976791381835938,0.005082368850708008,0
0.14797282218933105,-0.0467597134411335,0.04896169900894165,-0.2413887083530426,0.011176223998689996,-0.6352876843266468,-0.41506153614005814,-0.11755381616500528,-0.07189120935073617,0.0,0.0,-0.6,0.0,0.008861303329467773,0.012766361236572266,0
0.1621854305267334,-0.0467597134411335,0.04896169900894165,-0.2413887083530426,0.011176223998689996,-0.6352876843266468,-0.41506153614005814,-0.11755381616500528,-0.07189120935073617,0.0,0.0,-0.6,0.0,0.001108407974243164,0.00504755973815918,0
0.16975665092468262,-0.04631311446428299,0.04845348373055458,-0.2419271618127823,0.01119237040892478,-0.6352876570150991,-0.3116783440002392,-0.049031662301878685,-0.07194764397388631,0.0,0.0,-0.6,0.0,0.008938312530517578,0.012773752212524414,0
0.18384528160095215,-0.04631311446428299,0.04845348373055458,-0.2419271618127823,0.01119237040892478,-0.6352876570150991,-0.3116783440002392,-0.049031662301878685,-0.07194764397388631,0.0,0.0,-0.6,0.0,0.0011603832244873047,0.004983186721801758,0
0.191206693649292,-0.045653022825717926,0.04765309765934944,-0.24291859567165375,0.012043537691694698,-0.6352876868300609,-0.1606446449056613,0.024229809132513592,-0.07727483363995236,0.0,0.0,-0.6,0.0,0.009694099426269531,0.01354360580444336,0
0.2067713737487793,-0.045653022825717926,0.04765309765934944,-0.24291859567165375,0.012043537691694698,-0.6352876868300609,-0.1606446449056613,0.024229809132513592,-0.07727483363995236,0.0,0.0,-0.6,0.0,0.0010848045349121094,0.004839420318603516,0
0.21439123153686523,-0.04490199685096741,0.04647718369960785,-0.24467472732067108,0.012884699368066303,-0.6304705952843632,-0.015098349353876122,0.04728210230237277,-0.08250514804413672,0.0,0.0,-0.6,0.0,0.006798982620239258,0.01057887077331543,0
0.22636914253234863,-0.04490199685096741,0.04647718369960785,-0.24467472732067108,0.012884699368066303,-0.6304705952843632,-0.015098349353876122,0.04728210230237277,-0.08250514804413672,0.0,0.0,-0.6,0.0,0.0010733604431152344,0.005074501037597656,0
0.2339308261871338,-0.0440058596432209,0.044952183961868286,-0.24712814390659332,0.013564895225507908,-0.6210238524909635,0.1790836451194347,0.1402785306539091,-0.0866251691609591,0.0,0.0,-0.6,0.0,0.006907224655151367,0.010837316513061523,0
0.24664783477783203,-0.0440058596432209,0.044952183961868286,-0.24712814390659332,0.013564895225507908,-0.6210238524909635,0.1790836451194347,0.1402785306539091,-0.0866251691609591,0.0,0.0,-0.6,0.0,0.0010616779327392578,0.004752397537231445,0
0.2534313201904297,-0.042913686484098434,0.04318828508257866,-0.25046321749687195,0.014118643651446713,-0.6154813875845456,0.2778484016701876,0.23872734126273262,-0.09009604275379551,0.0,0.0,-0.6,0.0,0.006627798080444336,0.010758638381958008,0
0.26610732078552246,-0.042913686484098434,0.04318828508257866,-0.25046321749687195,0.014118643651446713,-0.6154813875845456,0.2778484016701876,0.23872734126273262,-0.09009604275379551,0.0,0.0,-0.6,0.0,0.001102447509765625,0.005131721496582031,0
0.2731504440307617,-0.041729893535375595,0.04149864241480827,-0.2544423043727875,0.014476080482203354,-0.608980253499042,0.3049207167541396,0.25918214927250804,-0.0923393945102999,0.0,0.0,-0.6,0.0,0.006425380706787109,0.01044917106628418,0
0.285538911819458,-0.041729893535375595,0.04149864241480827,-0.2544423043727875,0.014476080482203354,-0.608980253499042,0.3049207167541396,0.25918214927250804,-0.0923393945102999,0.0,0.0,-0.6,0.0,0.0011410713195800781,0.005153179168701172,0
0.29267215728759766,-0.04062098264694214,0.039808113127946854,-0.25913897156715393,0.014779892969532511,-0.6008480610823362,0.3872651299395487,0.3884030466707278,-0.09428561005987521,0.0,0.0,-0.6,0.0,0.006848573684692383,0.010833740234375,0
0.3061177730560303,-0.04062098264694214,0.039808113127946854,-0.25913897156715393,0.014779892969532511,-0.6008480610823362,0.3872651299395487,0.3884030466707278,-0.09428561005987521,0.0,0.0,-0.6,0.0,0.0010900497436523438,0.005042076110839844,0
0.3131558895111084,-0.039492275565862656,0.037956029176712036,-0.26459911465644836,0.01499526582775473,-0.5937639696886169,0.4683764929928298,0.4724580166264995,-0.09558293934360737,0.0,0.0,-0.6,0.0,0.006258249282836914,0.010139226913452148,0
0.32515740394592285,-0.039492275565862656,0.037956029176712036,-0.26459911465644836,0.01499526582775473,-0.5937639696886169,0.4683764929928298,0.4724580166264995,-0.09558293934360737,0.0,0.0,-0.6,0.0,0.0010907649993896484,0.004991769790649414,0
0.33207035064697266,-0.03832985833287239,0.036018334329128265,-0.27078065276145935,0.015058104074553462,-0.5873379772096389,0.5285348681003327,0.49686169181967405,-0.09583538278849467,0.0,0.0,-0.6,0.0,0.00690007209777832,0.010773181915283203,0
0.3446929454803467,-0.03832985833287239,0.036018334329128265,-0.27078065276145935,0.015058104074553462,-0.5873379772096389,0.5285348681003327,0.49686169181967405,-0.09583538278849467,0.0,0.0,-0.6,0.0,0.0011186599731445312,0.005072355270385742,0
0.3517155647277832,-0.03716602921485901,0.03402428701519966,-0.27752286195755005,0.014895097425615927,-0.5797885766406937,0.5324424972849695,0.5374451640270834,-0.0948451186266989,0.0,0.0,-0.6,0.0,0.006618022918701172,0.010436534881591797,0
0.3635218143463135,-0.03716602921485901,0.03402428701519966,-0.27752286195755005,0.014895097425615927,-0.5797885766406937,0.5324424972849695,0.5374451640270834,-0.0948451186266989,0.0,0.0,-0.6,0.0,0.0011279582977294922,0.005040168762207031,0
0.3709909915924072,-0.03587903082370758,0.03193596005439758,-0.2847956418991089,0.014318225166334604,-0.5739791873860499,0.5182081558686211,0.5892217545426454,-0.09125659863187556,0.0,0.0,-0.6,0.0,0.0063724517822265625,0.010380029678344727,0
0.3828005790710449,-0.03587903082370758,0.03193596005439758,-0.2847956418991089,0.014318225166334604,-0.5739791873860499,0.5182081558686211,0.5892217545426454,-0.09125659863187556,0.0,0.0,-0.6,0.0,0.001108407974243164,0.005054473876953125,0
0.39031147956848145,-0.03447479009628296,0.029691046103835106,-0.29278165102005005,0.013709179637655208,-0.5634474837010364,0.5785107185989498,0.5672636571507471,-0.08711272625580041,0.0,0.0,-0.6,0.0,0.006717681884765625,0.010528564453125,0
0.40282559394836426,-0.03447479009628296,0.029691046103835106,-0.29278165102005005,0.013709179637655208,-0.5634474837010364,0.5785107185989498,0.5672636571507471,-0.08711272625580041,0.0,0.0,-0.6,0.0,0.001100301742553711,0.005036115646362305,0
0.4103236198425293,-0.033007968217134476,0.02740289457142353,-0.3012365400791168,0.013187245874313006,-0.5609207677480198,0.5573756523364921,0.5722501511659477,-0.08377998149307028,0.0,0.0,-0.6,0.0,0.006623983383178711,0.010346651077270508,0
0.42210960388183594,-0.033007968217134476,0.02740289457142353,-0.3012365400791168,0.013187245874313006,-0.5609207677480198,0.5573756523364921,0.5722501511659477,-0.08377998149307028,0.0,0.0,-0.6,0.0,0.0011200904846191406,0.0049457550048828125,0
0.4294915199279785,-0.03140060976147652,0.025080636143684387,-0.30999132990837097,0.01258756509396833,-0.5531582310668299,0.5492073608547026,0.5755168579912365,-0.07989447789775994,0.0,0.0,-0.6,0.0,0.006284952163696289,0.010095834732055664,0
0.4410090446472168,-0.03140060976147652,0.025080636143684387,-0.30999132990837097,0.01258756509396833,-0.5531582310668299,0.5492073608547026,0.5755168579912365,-0.07989447789775994,0.0,0.0,-0.6,0.0,0.0011446475982666016,0.005124092102050781,0
0.44869327545166016,-0.030562028288841248,0.02384917624294758,-0.3146025836467743,0.012303742380304046,-0.5505401747502203,0.5310914537879905,0.5762564195059589,-0.07808211355219946,0.0,0.0,-0.6,0.0,0.006180524826049805,0.010230064392089844,0
0.4610884189605713,-0.028973232954740524,0.021365303546190262,-0.3237821161746979,0.011579010806482078,-0.5477971437292494,0.4679380840492375,0.4982044623380892,-0.07350471337173868,0.0,0.0,-0.6,0.0,0.0064160823822021484,0.010406255722045898,0
0.4728353023529053,-0.028973232954740524,0.021365303546190262,-0.3237821161746979,0.011579010806482078,-0.5477971437292494,0.4679380840492375,0.4982044623380892,-0.07350471337173868,0.0,0.0,-0.6,0.0,0.0011355876922607422,0.004965782165527344,0
0.4801478385925293,-0.027420617640018463,0.018872985616326332,-0.33320629596710205,0.010621279139660275,-0.5405030999345064,0.43215038798954186,0.41664036548704264,-0.06745449570096554,0.0,0.0,-0.6,0.0,0.0066411495208740234,0.01026773452758789,0
0.49182581901550293,-0.027420617640018463,0.018872985616326332,-0.33320629596710205,0.010621279139660275,-0.5405030999345064,0.43215038798954186,0.41664036548704264,-0.06745449570096554,0.0,0.0,-0.6,0.0,0.001117706298828125,0.005061626434326172,0
0.49987030029296875,-0.025850513949990273,0.016452183946967125,-0.3427128195762634,0.009766795088625683,-0.5395216620663121,0.3504269324063958,0.2877053734359585,-0.062147300053890416,0.0,0.0,-0.6,0.0,0.0066776275634765625,0.010402202606201172,0
0.5116701126098633,-0.025850513949990273,0.016452183946967125,-0.3427128195762634,0.009766795088625683,-0.5395216620663121,0.3504269324063958,0.2877053734359585,-0.062147300053890416,0.0,0.0,-0.6,0.0,0.001125335693359375,0.0048711299896240234,0
0.5190472602844238,-0.02435431070625782,0.014129427261650562,-0.3519693613052368,0.008993062169866249,-0.5388483395183022,0.26218908248360223,0.13888885982186125,-0.057429286648399115,0.0,0.0,-0.6,0.0,0.006453275680541992,0.010144710540771484,0
0.5306289196014404,-0.02435431070625782,0.014129427261650562,-0.3519693613052368,0.008993062169866249,-0.5388483395183022,0.26218908248360223,0.13888885982186125,-0.057429286648399115,0.0,0.0,-0.6,0.0,0.0010602474212646484,0.0049152374267578125,0
0.5379300117492676,-0.02291606180369854,0.011854758486151695,-0.3610324263572693,0.008497115267121217,-0.5367678607542995,0.18495626813450414,0.026600285963012792,-0.05449575700421064,0.0,0.0,-0.6,0.0,0.006608486175537109,0.01072549819946289,0
0.5500459671020508,-0.02291606180369854,0.011854758486151695,-0.3610324263572693,0.008497115267121217,-0.5367678607542995,0.18495626813450414,0.026600285963012792,-0.05449575700421064,0.0,0.0,-0.6,0.0,0.0010514259338378906,0.004824399948120117,0
0.5578219890594482,-0.021509381011128426,0.009565819054841995,-0.3701508939266205,0.00812562305599681,-0.5336210212778667,0.11329752053365243,-0.06338379827807711,-0.05234266071278317,0.0,0.0,-0.6,0.0,0.006491661071777344,0.010232925415039062,0
0.5695114135742188,-0.021509381011128426,0.009565819054841995,-0.3701508939266205,0.00812562305599681,-0.5336210212778667,0.11329752053365243,-0.06338379827807711,-0.05234266071278317,0.0,0.0,-0.6,0.0,0.0010859966278076172,0.005081653594970703,0
0.5777661800384521,-0.020831605419516563,0.008436194621026516,-0.3747272491455078,0.007875645873641564,-0.5329459873728002,0.07452998482467499,-0.09997116083352482,-0.05083164422328782,0.0,0.0,-0.6,0.0,0.005533933639526367,0.009496212005615234,0
0.588590145111084,-0.020831605419516563,0.008436194621026516,-0.3747272491455078,0.007875645873641564,-0.5329459873728002,0.07452998482467499,-0.09997116083352482,-0.05083164422328782,0.0,0.0,-0.6,0.0,0.001056671142578125,0.004816532135009766,0
0.5988285541534424,-0.018828116357326508,0.005226753186434507,-0.3881119191646576,0.007145448705192861,-0.5322505078415022,-0.07045041660586404,-0.16767805608258818,-0.04621031459190145,0.0,0.0,-0.6,0.0,0.006445407867431641,0.010512590408325195,0
0.611250638961792,-0.018828116357326508,0.005226753186434507,-0.3881119191646576,0.007145448705192861,-0.5322505078415022,-0.07045041660586404,-0.16767805608258818,-0.04621031459190145,0.0,0.0,-0.6,0.0,0.0011398792266845703,0.0050890445709228516,0
0.6184322834014893,-0.017510516569018364,0.003201540093868971,-0.3968048691749573,0.006590594381713871,-0.529717710037538,-0.147354295137288,-0.1939807435806891,-0.04263752259689009,0.0,0.0,-0.6,0.0,0.005410432815551758,0.009354591369628906,0
0.6297240257263184,-0.017510516569018364,0.003201540093868971,-0.3968048691749573,0.006590594381713871,-0.529717710037538,-0.147354295137288,-0.1939807435806891,-0.04263752259689009,0.0,0.0,-0.6,0.0,0.0010433197021484375,0.004748106002807617,0
0.6388211250305176,-0.016277367249131203,0.0012726124841719866,-0.40531212091445923,0.006182295554108838,-0.5295147549373135,-0.223191634586142,-0.21380363848241898,-0.03997568458874493,0.0,0.0,-0.6,0.0,0.0053975582122802734,0.009140491485595703,0
0.6498713493347168,-0.016277367249131203,0.0012726124841719866,-0.40531212091445923,0.006182295554108838,-0.5295147549373135,-0.223191634586142,-0.21380363848241898,-0.03997568458874493,0.0,0.0,-0.6,0.0,0.0010302066802978516,0.0047740936279296875,0
0.6577620506286621,-0.015712987631559372,0.00034744429285638034,-0.4094317555427551,0.006014424182291052,-0.5298278190404468,-0.2542070936718508,-0.22244863426617498,-0.038889740455245576,0.0,0.0,-0.6,0.0,0.0055921077728271484,0.009767770767211914,0
0.6688873767852783,-0.015712987631559372,0.00034744429285638034,-0.4094317555427551,0.006014424182291052,-0.5298278190404468,-0.2542070936718508,-0.22244863426617498,-0.038889740455245576,0.0,0.0,-0.6,0.0,0.0011260509490966797,0.005074262619018555,0
0.6779367923736572,-0.014222336001694202,-0.002295097801834345,-0.4213956892490387,0.005151007233030989,-0.5301892013301585,-0.3194456799487429,-0.20498119516958938,-0.03321802261731668,0.0,0.0,-0.6,0.0,0.0054759979248046875,0.009295463562011719,0
0.6886289119720459,-0.014222336001694202,-0.002295097801834345,-0.4213956892490387,0.005151007233030989,-0.5301892013301585,-0.3194456799487429,-0.20498119516958938,-0.03321802261731668,0.0,0.0,-0.6,0.0,0.0010809898376464844,0.0048427581787109375,0
0.6985325813293457,-0.01334103662520647,-0.003926471341401339,-0.4291415512561798,0.004461138457877801,-0.5281927709039305,-0.3153512439477556,-0.1945929855702165,-0.02880685707155615,0.0,0.0,-0.6,0.0,0.0054051876068115234,0.009335756301879883,0
0.7093696594238281,-0.01334103662520647,-0.003926471341401339,-0.4291415512561798,0.004461138457877801,-0.5281927709039305,-0.3153512439477556,-0.1945929855702165,-0.02880685707155615,0.0,0.0,-0.6,0.0,0.0010993480682373047,0.0049703121185302734,0
0.7188050746917725,-0.012627430260181427,-0.005413816310465336,-0.4367176592350006,0.003739119116658696,-0.5283587223168361,-0.2975372896416854,-0.21496553931769308,-0.02431163967034769,0.0,0.0,-0.6,0.0,0.005789041519165039,0.00972747802734375,0
0.7298991680145264,-0.012627430260181427,-0.005413816310465336,-0.4367176592350006,0.003739119116658696,-0.5283587223168361,-0.2975372896416854,-0.21496553931769308,-0.02431163967034769,0.0,0.0,-0.6,0.0,0.0010569095611572266,0.0047228336334228516,0
0.7384541034698486,-0.01205628551542759,-0.006701461039483547,-0.4440162777900696,0.0031426906933673115,-0.5283500241533253,-0.2706796272505716,-0.23100141020571932,-0.02059065754107058,0.0,0.0,-0.6,0.0,0.005709648132324219,0.009571552276611328,0
0.7498741149902344,-0.01205628551542759,-0.006701461039483547,-0.4440162777900696,0.0031426906933673115,-0.5283500241533253,-0.2706796272505716,-0.23100141020571932,-0.02059065754107058,0.0,0.0,-0.6,0.0,0.0010709762573242188,0.0047588348388671875,0
0.7585122585296631,-0.011609895154833794,-0.007851099595427513,-0.45107918977737427,0.0027309894024309866,-0.5280604975547708,-0.22588257914950757,-0.24322905990252056,-0.018020441473614177,0.0,0.0,-0.6,0.0,0.005233049392700195,0.009305953979492188,0
0.7692055702209473,-0.011609895154833794,-0.007851099595427513,-0.45107918977737427,0.0027309894024309866,-0.5280604975547708,-0.22588257914950757,-0.24322905990252056,-0.018020441473614177,0.0,0.0,-0.6,0.0,0.0010497570037841797,0.005032777786254883,0
0.7786586284637451,-0.011308395303785801,-0.008878454566001892,-0.45792466402053833,0.002212379957105941,-0.5282450279103342,-0.16160470435856128,-0.24844159527091184,-0.014724624155615164,0.0,0.0,-0.6,0.0,0.005269527435302734,0.009113788604736328,0
0.7892003059387207,-0.011308395303785801,-0.008878454566001892,-0.45792466402053833,0.002212379957105941,-0.5282450279103342,-0.16160470435856128,-0.24844159527091184,-0.014724624155615164,0.0,0.0,-0.6,0.0,0.0010683536529541016,0.005067586898803711,0
0.7981886863708496,-0.01119716465473175,-0.00935872457921505,-0.46123018860816956,0.0019037141676734278,-0.5277582596763902,-0.12630470987628287,-0.23706017142269334,-0.012717090847660002,0.0,0.0,-0.6,0.0,0.005441904067993164,0.009350776672363281,0
0.8088719844818115,-0.01119716465473175,-0.00935872457921505,-0.46123018860816956,0.0019037141676734278,-0.5277582596763902,-0.12630470987628287,-0.23706017142269334,-0.012717090847660002,0.0,0.0,-0.6,0.0,0.001087188720703125,0.004762411117553711,0
0.817746639251709,-0.010931465774774551,-0.010649523697793484,-0.4707610309123993,0.0008846406707531697,-0.5284290095529095,-0.07478266058414454,-0.1862147518010766,-0.006029340998338282,0.0,0.0,-0.6,0.0,0.00543522834777832,0.009240150451660156,0
0.828801155090332,-0.010931465774774551,-0.010649523697793484,-0.4707610309123993,0.0008846406707531697,-0.5284290095529095,-0.07478266058414454,-0.1862147518010766,-0.006029340998338282,0.0,0.0,-0.6,0.0,0.0010879039764404297,0.004784584045410156,0
0.8378429412841797,-0.010808013379573822,-0.011373399756848812,-0.47675833106040955,0.0002785539540495501,-0.5286571261610388,-0.06474101683265501,-0.13063509631930792,-0.002018889729634108,0.0,0.0,-0.6,0.0,0.005577564239501953,0.009478330612182617,0
0.8492124080657959,-0.010808013379573822,-0.011373399756848812,-0.47675833106040955,0.0002785539540495501,-0.5286571261610388,-0.06474101683265501,-0.13063509631930792,-0.002018889729634108,0.0,0.0,-0.6,0.0,0.0010678768157958984,0.004854917526245117,0
0.8582024574279785,-0.010728211142122746,-0.011992906220257282,-0.4825368821620941,-0.00014676437983788745,-0.5297255016830975,-0.08061088257754381,-0.08516229206294042,0.0007929738850637042,0.0,0.0,-0.6,0.0,0.005396842956542969,0.009431600570678711,0
0.8694858551025391,-0.010728211142122746,-0.011992906220257282,-0.4825368821620941,-0.00014676437983788745,-0.5297255016830975,-0.08061088257754381,-0.08516229206294042,0.0007929738850637042,0.0,0.0,-0.6,0.0,0.0010805130004882812,0.004942893981933594,0
0.8779220581054688,-0.010676573030650616,-0.01249093096703291,-0.4879668951034546,-0.0005632377533135992,-0.532178806415415,-0.09404826386119057,-0.05071162870280052,0.003500521954888078,0.0,0.0,-0.6,0.0,0.005264997482299805,0.009230375289916992,0
0.8889663219451904,-0.010676573030650616,-0.01249093096703291,-0.4879668951034546,-0.0005632377533135992,-0.532178806415415,-0.09404826386119057,-0.05071162870280052,0.003500521954888078,0.0,0.0,-0.6,0.0,0.0010967254638671875,0.004875898361206055,0
0.8985083103179932,-0.010678610764443874,-0.012912276200950146,-0.49299371242523193,-0.0010345135198985872,-0.5337822540989227,-0.0774132111308277,-0.03898230977404222,0.006524150211781283,0.0,0.0,-0.6,0.0,0.005476474761962891,0.009307622909545898,0
0.9092037677764893,-0.010678610764443874,-0.012912276200950146,-0.49299371242523193,-0.0010345135198985872,-0.5337822540989227,-0.0774132111308277,-0.03898230977404222,0.006524150211781283,0.0,0.0,-0.6,0.0,0.0010471343994140625,0.005011558532714844,0
0.918816089630127,-0.010705431923270226,-0.013311195187270641,-0.4977145195007324,-0.0015023494690611973,-0.534939770691329,-0.0546882490242547,-0.018700904048140947,0.00954513397112525,0.0,0.0,-0.6,0.0,0.005526304244995117,0.009568214416503906,0
0.9297537803649902,-0.010705431923270226,-0.013311195187270641,-0.4977145195007324,-0.0015023494690611973,-0.534939770691329,-0.0546882490242547,-0.018700904048140947,0.00954513397112525,0.0,0.0,-0.6,0.0,0.0011284351348876953,0.004841804504394531,0
0.9384326934814453,-0.010770449414849281,-0.01366652175784111,-0.5021697878837585,-0.001852369231969126,-0.5361086597379936,-0.024766703058100088,-0.008905440102971158,0.011819114284173827,0.0,0.0,-0.6,0.0,0.0053827762603759766,0.009417533874511719,0
0.949242115020752,-0.010770449414849281,-0.01366652175784111,-0.5021697878837585,-0.001852369231969126,-0.5361086597379936,-0.024766703058100088,-0.008905440102971158,0.011819114284173827,0.0,0.0,-0.6,0.0,0.0011184215545654297,0.0048542022705078125,0
0.9581425189971924,-0.01084101665765047,-0.014028231613337994,-0.5064264535903931,-0.0021402083470179545,-0.5368929545234573,0.018101703406001354,0.014402997740080253,0.013731421524702301,0.0,0.0,-0.6,0.0,0.005356550216674805,0.009284734725952148,0
0.969202995300293,-0.01084101665765047,-0.014028231613337994,-0.5064264535903931,-0.0021402083470179545,-0.5368929545234573,0.018101703406001354,0.014402997740080253,0.013731421524702301,0.0,0.0,-0.6,0.0,0.001129150390625,0.004884481430053711,0
0.978262186050415,-0.01090425718575716,-0.014376976527273655,-0.5104779005050659,-0.0024142736934501456,-0.5372239578824409,0.07001974780822519,0.03328386649104645,0.015571376574411176,0.0,0.0,-0.6,0.0,0.005375862121582031,0.009526968002319336,0
0.9896087646484375,-0.01090425718575716,-0.014376976527273655,-0.5104779005050659,-0.0024142736934501456,-0.5372239578824409,0.07001974780822519,0.03328386649104645,0.015571376574411176,0.0,0.0,-0.6,0.0,0.001079559326171875,0.00495600700378418,0
0.9985523223876953,-0.010957888327538967,-0.014701695181429386,-0.5143294334411621,-0.002728768215774592,-0.5380740715496424,0.11138255373121803,0.05271658618096977,0.017663093745475724,0.0,0.0,-0.6,0.0,0.005568265914916992,0.009480714797973633,0
1.0098435878753662,-0.010957888327538967,-0.014701695181429386,-0.5143294334411621,-0.002728768215774592,-0.5380740715496424,0.11138255373121803,0.05271658618096977,0.017663093745475724,0.0,0.0,-0.6,0.0,0.0010936260223388672,0.004873037338256836,0
1.0183393955230713,-0.010981272906064987,-0.01498828362673521,-0.5179235935211182,-0.0029864128413379576,-0.5386773769477334,0.15111051810805157,0.08172073821733361,0.019401446379393335,0.0,0.0,-0.6,0.0,0.005744457244873047,0.009647369384765625,0
1.0298936367034912,-0.010981272906064987,-0.01498828362673521,-0.5179235935211182,-0.0029864128413379576,-0.5386773769477334,0.15111051810805157,0.08172073821733361,0.019401446379393335,0.0,0.0,-0.6,0.0,0.0010759830474853516,0.004892587661743164,0
1.0380969047546387,-0.010995293967425823,-0.01525602862238884,-0.5212851166725159,-0.0031800853284598427,-0.5393330990047318,0.16886304654050052,0.10704105891479805,0.020697787707585468,0.0,0.0,-0.6,0.0,0.004464149475097656,0.008524417877197266,0
1.0479240417480469,-0.010995293967425823,-0.01525602862238884,-0.5212851166725159,-0.0031800853284598427,-0.5393330990047318,0.16886304654050052,0.10704105891479805,0.020697787707585468,0.0,0.0,-0.6,0.0,0.0011169910430908203,0.004809141159057617,0
1.0576462745666504,-0.011003367602825165,-0.015505895018577576,-0.5244792103767395,-0.0032515767073188766,-0.5397676816044086,0.16568564163565278,0.13837342097575592,0.021175465636939547,0.0,0.0,-0.6,0.0,0.004414081573486328,0.008228302001953125,0
1.068552017211914,-0.011003367602825165,-0.015505895018577576,-0.5244792103767395,-0.0032515767073188766,-0.5397676816044086,0.16568564163565278,0.13837342097575592,0.021175465636939547,0.0,0.0,-0.6,0.0,0.0010595321655273438,0.00503087043762207,0
1.0776290893554688,-0.010977812111377716,-0.0157407708466053,-0.527580976486206,-0.003229170187641607,-0.5405646081696248,0.14535989340123895,0.154911419284896,0.02101575040038401,0.0,0.0,-0.6,0.0,0.004365682601928711,0.008423805236816406,0
1.088817834854126,-0.010960749350488186,-0.015856707468628883,-0.5290904641151428,-0.003185888895569339,-0.5409398592072506,0.13380190037450798,0.1586131567017069,0.020726340413792576,0.0,0.0,-0.6,0.0,0.004547119140625,0.008412599563598633,0
1.0999186038970947,-0.010960749350488186,-0.015856707468628883,-0.5290904641151428,-0.003185888895569339,-0.5409398592072506,0.13380190037450798,0.1586131567017069,0.020726340413792576,0.0,0.0,-0.6,0.0,0.0011126995086669922,0.0048177242279052734,0
1.1077430248260498,-0.01093918178230524,-0.015973877161741257,-0.530575156211853,-0.0031975418667921957,-0.5405914679984398,0.12440815456229098,0.16483650997714805,0.020791384229142836,0.0,0.0,-0.6,0.0,0.004621267318725586,0.00861501693725586,0
1.1175994873046875,-0.01093918178230524,-0.015973877161741257,-0.530575156211853,-0.0031975418667921957,-0.5405914679984398,0.12440815456229098,0.16483650997714805,0.020791384229142836,0.0,0.0,-0.6,0.0,0.0010628700256347656,0.005005359649658203,0
1.1278958320617676,-0.01079530268907547,-0.01635736972093582,-0.5349289178848267,-0.0032105912595139373,-0.5410708490619103,0.08556616243522648,0.17449606778589064,0.020831492333845486,0.0,0.0,-0.6,0.0,0.004402637481689453,0.008735179901123047,0
1.1379930973052979,-0.01079530268907547,-0.01635736972093582,-0.5349289178848267,-0.0032105912595139373,-0.5410708490619103,0.08556616243522648,0.17449606778589064,0.020831492333845486,0.0,0.0,-0.6,0.0,0.0011184215545654297,0.004935026168823242,0
1.1476974487304688,-0.010650752112269402,-0.01660754345357418,-0.5376986265182495,-0.0031545035600397033,-0.5413308010226744,0.043399346411516194,0.16804941202032891,0.02041614856664211,0.0,0.0,-0.6,0.0,0.0043621063232421875,0.00852060317993164,0
1.157658338546753,-0.010650752112269402,-0.01660754345357418,-0.5376986265182495,-0.0031545035600397033,-0.5413308010226744,0.043399346411516194,0.16804941202032891,0.02041614856664211,0.0,0.0,-0.6,0.0,0.0010571479797363281,0.0049250125885009766,0
1.1678581237792969,-0.010490699671208858,-0.016841556876897812,-0.5403866171836853,-0.003071597666555641,-0.54106582295717,0.0022070040745712023,0.15999474792222015,0.01983479775716711,0.0,0.0,-0.6,0.0,0.004306316375732422,0.00823521614074707,0
1.178767204284668,-0.010490699671208858,-0.016841556876897812,-0.5403866171836853,-0.003071597666555641,-0.54106582295717,0.0022070040745712023,0.15999474792222015,0.01983479775716711,0.0,0.0,-0.6,0.0,0.0010764598846435547,0.005087137222290039,0
1.187673568725586,-0.010299659334123135,-0.01708447001874447,-0.5430781841278076,-0.0029748924562081757,-0.5408611154755218,-0.04115570286844747,0.14781443636890806,0.019159004376056454,0.0,0.0,-0.6,0.0,0.004408121109008789,0.008299827575683594,0
1.2000031471252441,-0.010195288807153702,-0.017193898558616638,-0.5443952679634094,-0.0029231231824686467,-0.5408228582593657,-0.06039683202772261,0.14309680926402754,0.018806494446568532,0.0,0.0,-0.6,0.0,0.0047838687896728516,0.008786201477050781,0
1.2101714611053467,-0.010195288807153702,-0.017193898558616638,-0.5443952679634094,-0.0029231231824686467,-0.5408228582593657,-0.06039683202772261,0.14309680926402754,0.018806494446568532,0.0,0.0,-0.6,0.0,0.0010535717010498047,0.005147218704223633,0
1.2185845375061035,-0.009973029606044292,-0.01741115190088749,-0.546988308429718,-0.0027949000919458536,-0.5406854562402218,-0.1002341749100278,0.12583635621611805,0.017934122159333984,0.0,0.0,-0.6,0.0,0.004476785659790039,0.00846409797668457,0
1.2283473014831543,-0.009973029606044292,-0.01741115190088749,-0.546988308429718,-0.0027949000919458536,-0.5406854562402218,-0.1002341749100278,0.12583635621611805,0.017934122159333984,0.0,0.0,-0.6,0.0,0.0010852813720703125,0.004821300506591797,0
1.2384133338928223,-0.009730027988553047,-0.017583973705768585,-0.5494540333747864,-0.0025816814230034757,-0.5412535180099224,-0.14131458338657554,0.12479797518111892,0.01655059739689883,0.0,0.0,-0.6,0.0,0.004482746124267578,0.008342981338500977,0
1.2479548454284668,-0.009730027988553047,-0.017583973705768585,-0.5494540333747864,-0.0025816814230034757,-0.5412535180099224,-0.14131458338657554,0.12479797518111892,0.01655059739689883,0.0,0.0,-0.6,0.0,0.0011315345764160156,0.004488229751586914,0
1.2576193809509277,-0.00946404505521059,-0.01776101067662239,-0.5517708659172058,-0.00228524199227936,-0.5417503066765116,-0.15817014714922242,0.11614889486394887,0.01465621443165147,0.0,0.0,-0.6,0.0,0.004474639892578125,0.008582830429077148,0
1.2675280570983887,-0.00946404505521059,-0.01776101067662239,-0.5517708659172058,-0.00228524199227936,-0.5417503066765116,-0.15817014714922242,0.11614889486394887,0.01465621443165147,0.0,0.0,-0.6,0.0,0.001111745834350586,0.004847049713134766,0
1.2776587009429932,-0.009176820516586304,-0.017999179661273956,-0.5540151596069336,-0.001983614044451377,-0.5418913902143836,-0.15928804898477417,0.10983731774665653,0.012740245517624708,0.0,0.0,-0.6,0.0,0.0044133663177490234,0.008782148361206055,0
1.2877144813537598,-0.009176820516586304,-0.017999179661273956,-0.5540151596069336,-0.001983614044451377,-0.5418913902143836,-0.15928804898477417,0.10983731774665653,0.012740245517624708,0.0,0.0,-0.6,0.0,0.0011973381042480469,0.0057332515716552734,0
1.2985131740570068,-0.00891699455678463,-0.018267642706632614,-0.5561901926994324,-0.0016194787931771955,-0.5423039221930104,-0.15581476006371245,0.1053483862308738,0.01041821072986947,0.0,0.0,-0.6,0.0,0.004442930221557617,0.008786439895629883,0
1.3086163997650146,-0.00891699455678463,-0.018267642706632614,-0.5561901926994324,-0.0016194787931771955,-0.5423039221930104,-0.15581476006371245,0.1053483862308738,0.01041821072986947,0.0,0.0,-0.6,0.0,0.0010759830474853516,0.004755258560180664,0
1.3179950714111328,-0.008653324097394943,-0.01852175034582615,-0.5582584142684937,-0.0013125783875022365,-0.5426905132479544,-0.14215572334292775,0.1000540794535868,0.008454458042921916,0.0,0.0,-0.6,0.0,0.004441499710083008,0.008671283721923828,0
1.3279547691345215,-0.008653324097394943,-0.01852175034582615,-0.5582584142684937,-0.0013125783875022365,-0.5426905132479544,-0.14215572334292775,0.1000540794535868,0.008454458042921916,0.0,0.0,-0.6,0.0,0.0011107921600341797,0.004891395568847656,0
1.3376541137695312,-0.00838868971914053,-0.018708813935518265,-0.5602036714553833,-0.0009462112974130966,-0.5432245666241723,-0.13235672548164776,0.0844380208629418,0.006091234156998928,0.0,0.0,-0.6,0.0,0.004408597946166992,0.008412599563598633,0
1.3491573333740234,-0.008276034146547318,-0.018753085285425186,-0.5611052513122559,-0.0007709806144555005,-0.5440195635446318,-0.1281944548662993,0.06833039412638267,0.004954617063881734,0.0,0.0,-0.6,0.0,0.00457453727722168,0.008684873580932617,0
1.3592360019683838,-0.008276034146547318,-0.018753085285425186,-0.5611052513122559,-0.0007709806144555005,-0.5440195635446318,-0.1281944548662993,0.06833039412638267,0.004954617063881734,0.0,0.0,-0.6,0.0,0.0010981559753417969,0.004990100860595703,0
1.3676819801330566,-0.008075550198554993,-0.018747368827462196,-0.5627197623252869,-0.00040860954199961955,-0.5449303052934186,-0.11595470120363707,0.04625989077582199,0.002624847431284491,0.0,0.0,-0.6,0.0,0.004509687423706055,0.008652210235595703,0
1.3778188228607178,-0.008075550198554993,-0.018747368827462196,-0.5627197623252869,-0.00040860954199961955,-0.5449303052934186,-0.11595470120363707,0.04625989077582199,0.002624847431284491,0.0,0.0,-0.6,0.0,0.0011332035064697266,0.0052754878997802734,0
1.3876135349273682,-0.007883317768573761,-0.018661541864275932,-0.5641371607780457,-0.00010070575004472501,-0.5461595232856178,-0.08653772047497542,0.015377318915521852,0.0006436228635214523,0.0,0.0,-0.6,0.0,0.004361152648925781,0.008273124694824219,0
1.3997197151184082,-0.00779550988227129,-0.018613064661622047,-0.5647721290588379,1.5543330248205136e-05,-0.5464947015436552,-0.06162237657315304,-0.00376402992249156,-0.00010732173628220611,0.0,0.0,-0.6,0.0,0.004670143127441406,0.008722066879272461,0
1.409773588180542,-0.00779550988227129,-0.018613064661622047,-0.5647721290588379,1.5543330248205136e-05,-0.5464947015436552,-0.06162237657315304,-0.00376402992249156,-0.00010732173628220611,0.0,0.0,-0.6,0.0,0.0010788440704345703,0.004954099655151367,0
1.4180610179901123,-0.007645739708095789,-0.01851792447268963,-0.565921425819397,0.00032511904831345015,-0.5470556552486161,-0.01283679581522072,-0.04077424150717976,-0.002101133718963064,0.0,0.0,-0.6,0.0,0.004514455795288086,0.008666038513183594,0
1.4280056953430176,-0.007645739708095789,-0.01851792447268963,-0.565921425819397,0.00032511904831345015,-0.5470556552486161,-0.01283679581522072,-0.04077424150717976,-0.002101133718963064,0.0,0.0,-0.6,0.0,0.001111745834350586,0.0047948360443115234,0
1.438225507736206,-0.007534279953688383,-0.01845364458858967,-0.5669773817062378,0.0006450867202675041,-0.5479356957373668,0.04586592546933195,-0.08241448788258494,-0.004161267151270238,0.0,0.0,-0.6,0.0,0.004580259323120117,0.00870203971862793,0
1.4481842517852783,-0.007534279953688383,-0.01845364458858967,-0.5669773817062378,0.0006450867202675041,-0.5479356957373668,0.04586592546933195,-0.08241448788258494,-0.004161267151270238,0.0,0.0,-0.6,0.0,0.0011293888092041016,0.004716396331787109,0
1.4582998752593994,-0.007493850775063038,-0.018421076238155365,-0.5679158568382263,0.0010008511625598686,-0.5492784045446879,0.09719574965829203,-0.11618987920871637,-0.006439438177242055,0.0,0.0,-0.6,0.0,0.004525899887084961,0.008460283279418945,0
1.4680812358856201,-0.007493850775063038,-0.018421076238155365,-0.5679158568382263,0.0010008511625598686,-0.5492784045446879,0.09719574965829203,-0.11618987920871637,-0.006439438177242055,0.0,0.0,-0.6,0.0,0.0011138916015625,0.004822731018066406,0
1.4776787757873535,-0.007561340928077698,-0.018360355868935585,-0.5686803460121155,0.0013622953444326583,-0.5512314395892002,0.12757025644726014,-0.14340345774105515,-0.008745984772836444,0.0,0.0,-0.6,0.0,0.004449129104614258,0.008529424667358398,0
1.4888486862182617,-0.007615361828356981,-0.018301773816347122,-0.5689734220504761,0.0014869685413706403,-0.5518997379841638,0.13452167993138456,-0.1435840493954936,-0.009541447435298816,0.0,0.0,-0.6,0.0,0.004548788070678711,0.008307695388793945,0
1.4991025924682617,-0.007615361828356981,-0.018301773816347122,-0.5689734220504761,0.0014869685413706403,-0.5518997379841638,0.13452167993138456,-0.1435840493954936,-0.009541447435298816,0.0,0.0,-0.6,0.0,0.0010743141174316406,0.005000591278076172,0
1.5075628757476807,-0.007708623073995113,-0.018143249675631523,-0.5694615840911865,0.0016440953484754756,-0.5529322392838234,0.14891701832095017,-0.12920781150690533,-0.010547041378559864,0.0,0.0,-0.6,0.0,0.0043256282806396484,0.008490324020385742,0
1.518805980682373,-0.0077365427277982235,-0.01806342415511608,-0.5696884989738464,0.0017541227307262188,-0.5530879311044764,0.16308133940579111,-0.11076451473186975,-0.011256007705084298,0.0,0.0,-0.6,0.0,0.004445075988769531,0.008636236190795898,0
1.5287554264068604,-0.0077365427277982235,-0.01806342415511608,-0.5696884989738464,0.0017541227307262188,-0.5530879311044764,0.16308133940579111,-0.11076451473186975,-0.011256007705084298,0.0,0.0,-0.6,0.0,0.0010700225830078125,0.004881143569946289,0
1.537644386291504,-0.00773514062166214,-0.0179328341037035,-0.570109486579895,0.0020544006513453362,-0.5531363275341551,0.1852806108142465,-0.06464388521779,-0.013173501582189325,0.0,0.0,-0.6,0.0,0.004516124725341797,0.008652210235595703,0
1.547813892364502,-0.00773514062166214,-0.0179328341037035,-0.570109486579895,0.0020544006513453362,-0.5531363275341551,0.1852806108142465,-0.06464388521779,-0.013173501582189325,0.0,0.0,-0.6,0.0,0.0011484622955322266,0.005112886428833008,0
1.5576329231262207,-0.007723152171820402,-0.0178531426936388,-0.5705246925354004,0.0023470318848983615,-0.5530095341027906,0.19960030084569788,-0.023952444848627484,-0.015016570687834492,0.0,0.0,-0.6,0.0,0.004492998123168945,0.008713245391845703,0
1.5679008960723877,-0.007723152171820402,-0.0178531426936388,-0.5705246925354004,0.0023470318848983615,-0.5530095341027906,0.19960030084569788,-0.023952444848627484,-0.015016570687834492,0.0,0.0,-0.6,0.0,0.0012106895446777344,0.005391359329223633,0
1.577725887298584,-0.007726429961621761,-0.01779949851334095,-0.5709096193313599,0.0025914868024796253,-0.5526633258258217,0.19362878217680207,0.020478142415916174,-0.016535208042379096,0.0,0.0,-0.6,0.0,0.004333019256591797,0.008557558059692383,0
1.5876367092132568,-0.007726429961621761,-0.01779949851334095,-0.5709096193313599,0.0025914868024796253,-0.5526633258258217,0.19362878217680207,0.020478142415916174,-0.016535208042379096,0.0,0.0,-0.6,0.0,0.0011777877807617188,0.005053281784057617,0
1.5982587337493896,-0.007703967392444611,-0.017771488055586815,-0.5712957978248596,0.0028345700292330953,-0.5531960943783378,0.18135126389037523,0.0725915511115093,-0.018030077008140948,0.0,0.0,-0.6,0.0,0.004761934280395508,0.00879216194152832,0
1.6084094047546387,-0.007703967392444611,-0.017771488055586815,-0.5712957978248596,0.0028345700292330953,-0.5531960943783378,0.18135126389037523,0.0725915511115093,-0.018030077008140948,0.0,0.0,-0.6,0.0,0.0010552406311035156,0.00501704216003418,0
1.6176517009735107,-0.007630681619048119,-0.01780717819929123,-0.5716569423675537,0.002928165620476196,-0.552435970110976,0.17575200310525727,0.11067894006925219,-0.018554526561510434,0.0,0.0,-0.6,0.0,0.004450559616088867,0.008522510528564453,0
1.6290435791015625,-0.007595607545226812,-0.01785285398364067,-0.5718662738800049,0.0030066868834960226,-0.5523127965987855,0.16316435454177405,0.12357556322270981,-0.019027057526266624,0.0,0.0,-0.6,0.0,0.004926443099975586,0.009030342102050781,0
1.6393296718597412,-0.007595607545226812,-0.01785285398364067,-0.5718662738800049,0.0030066868834960226,-0.5523127965987855,0.16316435454177405,0.12357556322270981,-0.019027057526266624,0.0,0.0,-0.6,0.0,0.0011696815490722656,0.004960298538208008,0
1.6475822925567627,-0.007532862015068531,-0.01797153614461422,-0.5723176002502441,0.0032646258511134715,-0.5523508048701528,0.1323254531411494,0.13870582168518558,-0.020634006747830794,0.0,0.0,-0.6,0.0,0.004347801208496094,0.008185625076293945,0
1.6590259075164795,-0.00751868961378932,-0.018035927787423134,-0.572512686252594,0.003411727592356099,-0.5529828547468335,0.11338628911452701,0.13324059845736042,-0.021572888775975702,0.0,0.0,-0.6,0.0,0.00455021858215332,0.00851893424987793,0
1.668877363204956,-0.00751868961378932,-0.018035927787423134,-0.572512686252594,0.003411727592356099,-0.5529828547468335,0.11338628911452701,0.13324059845736042,-0.021572888775975702,0.0,0.0,-0.6,0.0,0.0010805130004882812,0.00498509407043457,0
1.6778936386108398,-0.007566089276224375,-0.0181785486638546,-0.5728697180747986,0.003671147608496318,-0.553443809984995,0.06644953279416316,0.1208169243748953,-0.02326193616200576,0.0,0.0,-0.6,0.0,0.0044367313385009766,0.008293390274047852,0
1.6888635158538818,-0.007616512011736631,-0.01824629306793213,-0.5730357766151428,0.0037951008778679403,-0.553607659401597,0.043032758269454845,0.11387228828046413,-0.024078392272361006,0.0,0.0,-0.6,0.0,0.004525899887084961,0.008544921875,0
1.699289321899414,-0.007616512011736631,-0.01824629306793213,-0.5730357766151428,0.0037951008778679403,-0.553607659401597,0.043032758269454845,0.11387228828046413,-0.024078392272361006,0.0,0.0,-0.6,0.0,0.0011196136474609375,0.004841327667236328,0
1.7079274654388428,-0.007799706421792507,-0.018366044387221336,-0.5733184218406677,0.003966082651524895,-0.5541970373898096,-0.006041424236239094,0.0849072890713162,-0.025246756488007855,0.0,0.0,-0.6,0.0,0.004480600357055664,0.008693695068359375,0
1.7180349826812744,-0.007799706421792507,-0.018366044387221336,-0.5733184218406677,0.003966082651524895,-0.5541970373898096,-0.006041424236239094,0.0849072890713162,-0.025246756488007855,0.0,0.0,-0.6,0.0,0.0010833740234375,0.004767179489135742,0
1.7282187938690186,-0.008022383786737919,-0.018489833921194077,-0.5735394358634949,0.003935497448487529,-0.5545191461725537,-0.03886200607001307,0.06810556842133472,-0.02509862750477715,0.0,0.0,-0.6,0.0,0.005491733551025391,0.009909391403198242,0
1.7400243282318115,-0.008022383786737919,-0.018489833921194077,-0.5735394358634949,0.003935497448487529,-0.5545191461725537,-0.03886200607001307,0.06810556842133472,-0.02509862750477715,0.0,0.0,-0.6,0.0,0.0013442039489746094,0.0067348480224609375,0
1.749790906906128,-0.008251017890870571,-0.018600868061184883,-0.5736871361732483,0.004038207732405785,-0.5551314106022044,-0.0709980172030754,0.050708152000194254,-0.02580100215770692,0.0,0.0,-0.6,0.0,0.005311012268066406,0.009664058685302734,0
1.761427640914917,-0.008251017890870571,-0.018600868061184883,-0.5736871361732483,0.004038207732405785,-0.5551314106022044,-0.0709980172030754,0.050708152000194254,-0.02580100215770692,0.0,0.0,-0.6,0.0,0.0012288093566894531,0.006020784378051758,0
1.7700610160827637,-0.008465194143354893,-0.01871546171605587,-0.5738319158554077,0.0042111047062551935,-0.5552177028754056,-0.0825885015595633,0.026306557771122566,-0.026944497751698496,0.0,0.0,-0.6,0.0,0.00518798828125,0.009866476058959961,0
1.7819738388061523,-0.008465194143354893,-0.01871546171605587,-0.5738319158554077,0.0042111047062551935,-0.5552177028754056,-0.0825885015595633,0.026306557771122566,-0.026944497751698496,0.0,0.0,-0.6,0.0,0.0012602806091308594,0.005387544631958008,0
1.790109634399414,-0.008691065013408661,-0.018837595358490944,-0.5739719271659851,0.004340129628759128,-0.5555392587729776,-0.09209942183773537,-0.005819282880989154,-0.02781739872839787,0.0,0.0,-0.6,0.0,0.00521397590637207,0.010570287704467773,0
1.8035104274749756,-0.008691065013408661,-0.018837595358490944,-0.5739719271659851,0.004340129628759128,-0.5555392587729776,-0.09209942183773537,-0.005819282880989154,-0.02781739872839787,0.0,0.0,-0.6,0.0,0.0015654563903808594,0.006299018859863281,0
1.8118891716003418,-0.008953978307545185,-0.018954996019601822,-0.574117124080658,0.004408373355261334,-0.5556241144233577,-0.10199962405047773,-0.04942896550657946,-0.02831739119186827,0.0,0.0,-0.6,0.0,0.005273342132568359,0.009488344192504883,0
1.8242599964141846,-0.008953978307545185,-0.018954996019601822,-0.574117124080658,0.004408373355261334,-0.5556241144233577,-0.10199962405047773,-0.04942896550657946,-0.02831739119186827,0.0,0.0,-0.6,0.0,0.001230001449584961,0.006468534469604492,0
1.8326013088226318,-0.00931138452142477,-0.019001571461558342,-0.5742211937904358,0.004398368050985548,-0.5564658010919069,-0.12885262878607165,-0.08898495055126948,-0.02831216686889927,0.0,0.0,-0.6,0.0,0.004786014556884766,0.010065078735351562,0
1.845426082611084,-0.00931138452142477,-0.019001571461558342,-0.5742211937904358,0.004398368050985548,-0.5564658010919069,-0.12885262878607165,-0.08898495055126948,-0.02831216686889927,0.0,0.0,-0.6,0.0,0.0013363361358642578,0.005902528762817383,0
1.854158639907837,-0.009675172157585621,-0.018943483009934425,-0.5742194056510925,0.004411565759254645,-0.557258923434898,-0.15473151653434733,-0.11674755383930939,-0.028432791771310122,0.0,0.0,-0.6,0.0,0.00478363037109375,0.009729385375976562,0
1.866011619567871,-0.009675172157585621,-0.018943483009934425,-0.5742194056510925,0.004411565759254645,-0.557258923434898,-0.15473151653434733,-0.11674755383930939,-0.028432791771310122,0.0,0.0,-0.6,0.0,0.0013082027435302734,0.006054401397705078,0
1.8751003742218018,-0.009985373355448246,-0.01881665363907814,-0.5741537809371948,0.004513041953621832,-0.557179234390753,-0.1576062223478713,-0.1398501221039173,-0.029107267691679994,0.0,0.0,-0.6,0.0,0.004805803298950195,0.009187459945678711,0
1.8862922191619873,-0.010302344337105751,-0.01867816038429737,-0.5740886330604553,0.004623751158430058,-0.5571987349919217,-0.14235778566701301,-0.18452174765418577,-0.029862687280182626,0.0,0.0,-0.6,0.0,0.005201101303100586,0.010080575942993164,0
1.899587869644165,-0.010302344337105751,-0.01867816038429737,-0.5740886330604553,0.004623751158430058,-0.5571987349919217,-0.14235778566701301,-0.18452174765418577,-0.029862687280182626,0.0,0.0,-0.6,0.0,0.0013849735260009766,0.006629467010498047,0
1.9087183475494385,-0.010668057948350906,-0.01853179559111595,-0.574040949344635,0.0045837838767168,-0.5571299388789577,-0.1284818007564173,-0.20712151818351646,-0.029609916260571252,0.0,0.0,-0.6,0.0,0.005566835403442383,0.00981903076171875,0
1.9206342697143555,-0.010668057948350906,-0.01853179559111595,-0.574040949344635,0.0045837838767168,-0.5571299388789577,-0.1284818007564173,-0.20712151818351646,-0.029609916260571252,0.0,0.0,-0.6,0.0,0.0012063980102539062,0.0055615901947021484,0
1.9288430213928223,-0.011023122817277908,-0.01834115758538246,-0.57392817735672,0.004519800433621313,-0.5575838121352468,-0.11259379765240866,-0.1911727119698645,-0.029155582101849733,0.0,0.0,-0.6,0.0,0.005030393600463867,0.010059356689453125,0
1.9413015842437744,-0.011023122817277908,-0.01834115758538246,-0.57392817735672,0.004519800433621313,-0.5575838121352468,-0.11259379765240866,-0.1911727119698645,-0.029155582101849733,0.0,0.0,-0.6,0.0,0.001558065414428711,0.006595134735107422,0
1.9502849578857422,-0.011350611224770546,-0.018123900517821312,-0.5738086104393005,0.0043749804157567785,-0.5572421459938239,-0.08911890003419759,-0.17330867986655726,-0.02818632622976276,0.0,0.0,-0.6,0.0,0.004882335662841797,0.009877681732177734,0
1.9622502326965332,-0.011350611224770546,-0.018123900517821312,-0.5738086104393005,0.0043749804157567785,-0.5572421459938239,-0.08911890003419759,-0.17330867986655726,-0.02818632622976276,0.0,0.0,-0.6,0.0,0.001142263412475586,0.00612950325012207,0
1.9708075523376465,-0.011684084311127663,-0.017905058339238167,-0.5737942457199097,0.004320418426039932,-0.5565315495851316,-0.0714726597046034,-0.1383317403248132,-0.02778480623006229,0.0,0.0,-0.6,0.0,0.005220890045166016,0.01008296012878418,0
1.982985258102417,-0.011684084311127663,-0.017905058339238167,-0.5737942457199097,0.004320418426039932,-0.5565315495851316,-0.0714726597046034,-0.1383317403248132,-0.02778480623006229,0.0,0.0,-0.6,0.0,0.0011663436889648438,0.005777597427368164,0
1.990999460220337,-0.012056238949298859,-0.017667625099420547,-0.5738853216171265,0.0043352805629592326,-0.5561703360281913,-0.058216956215053524,-0.104411109982209,-0.027833851772710524,0.0,0.0,-0.6,0.0,0.00527191162109375,0.009868144989013672,0
2.0038468837738037,-0.012056238949298859,-0.017667625099420547,-0.5738853216171265,0.0043352805629592326,-0.5561703360281913,-0.058216956215053524,-0.104411109982209,-0.027833851772710524,0.0,0.0,-0.6,0.0,0.001491546630859375,0.006519317626953125,0
2.0133473873138428,-0.012442280538380146,-0.017402611672878265,-0.5739792585372925,0.004255506892586342,-0.5562939756712655,-0.03725141357076963,-0.05515237567635127,-0.027263438168415543,0.0,0.0,-0.6,0.0,0.005223751068115234,0.00978398323059082,0
2.0252130031585693,-0.012442280538380146,-0.017402611672878265,-0.5739792585372925,0.004255506892586342,-0.5562939756712655,-0.03725141357076963,-0.05515237567635127,-0.027263438168415543,0.0,0.0,-0.6,0.0,0.0015869140625,0.005945682525634766,0
2.0344340801239014,-0.01281010638922453,-0.017137590795755386,-0.5740346312522888,0.004178380069845946,-0.5564664851800267,-0.005361497875854388,-0.013346769447125933,-0.026700942287425915,0.0,0.0,-0.6,0.0,0.005007505416870117,0.00992131233215332,0
2.0471179485321045,-0.013208501972258091,-0.01688101328909397,-0.5740382671356201,0.004027596892779231,-0.5566410986056861,0.014210280227033231,0.020695065096645333,-0.025686267420848598,0.0,0.0,-0.6,0.0,0.005085468292236328,0.010211467742919922,0
2.0595924854278564,-0.013208501972258091,-0.01688101328909397,-0.5740382671356201,0.004027596892779231,-0.5566410986056861,0.014210280227033231,0.020695065096645333,-0.025686267420848598,0.0,0.0,-0.6,0.0,0.0013692378997802734,0.00569605827331543,0
2.0679409503936768,-0.013656380586326122,-0.01659535989165306,-0.5740246176719666,0.003933412357078034,-0.5566141040657072,0.015038096221041136,0.056163208270564924,-0.02506631107256268,0.0,0.0,-0.6,0.0,0.005383968353271484,0.010459423065185547,0
2.080169916152954,-0.013656380586326122,-0.01659535989165306,-0.5740246176719666,0.003933412357078034,-0.5566141040657072,0.015038096221041136,0.056163208270564924,-0.02506631107256268,0.0,0.0,-0.6,0.0,0.001409292221069336,0.0067479610443115234,0
2.0895445346832275,-0.014144720509648323,-0.0162640567868948,-0.5739614963531494,0.003940067614363234,-0.5568004682908437,0.014223239660649726,0.09557469172813085,-0.025097818094326697,0.0,0.0,-0.6,0.0,0.004821062088012695,0.009618520736694336,0
2.101881980895996,-0.014144720509648323,-0.0162640567868948,-0.5739614963531494,0.003940067614363234,-0.5568004682908437,0.014223239660649726,0.09557469172813085,-0.025097818094326697,0.0,0.0,-0.6,0.0,0.001842498779296875,0.006264925003051758,0
2.110724449157715,-0.014648971147835255,-0.015918558463454247,-0.5738107562065125,0.0038384190411449924,-0.5571849406822491,0.015138585839917097,0.11934568653975704,-0.02444033376545726,0.0,0.0,-0.6,0.0,0.00532078742980957,0.010022878646850586,0
2.1234195232391357,-0.014648971147835255,-0.015918558463454247,-0.5738107562065125,0.0038384190411449924,-0.5571849406822491,0.015138585839917097,0.11934568653975704,-0.02444033376545726,0.0,0.0,-0.6,0.0,0.0014309883117675781,0.006148576736450195,0
2.132507562637329,-0.015146905556321144,-0.015563624911010265,-0.5736135840415955,0.0037306127930264864,-0.5568522350328545,0.014719292655729658,0.14293700965474337,-0.023748218976048775,0.0,0.0,-0.6,0.0,0.004965543746948242,0.009741783142089844,0
2.1449742317199707,-0.015146905556321144,-0.015563624911010265,-0.5736135840415955,0.0037306127930264864,-0.5568522350328545,0.014719292655729658,0.14293700965474337,-0.023748218976048775,0.0,0.0,-0.6,0.0,0.0013697147369384766,0.005903720855712891,0
2.152791976928711,-0.01557950209826231,-0.01521254237741232,-0.5733953714370728,0.003489329197364353,-0.5569331832018136,0.012152958085314773,0.1677284083939844,-0.022204559030519946,0.0,0.0,-0.6,0.0,0.004754781723022461,0.008944988250732422,0
2.1648168563842773,-0.015773195773363113,-0.015041045844554901,-0.5732757449150085,0.0033972789865785178,-0.5569711795626782,0.009229208109471894,0.17327358322019562,-0.02161885777726349,0.0,0.0,-0.6,0.0,0.00443577766418457,0.008599281311035156,0
2.175417900085449,-0.016133084893226624,-0.014709205366671085,-0.5729976296424866,0.003382236981849739,-0.5573853118715899,0.0019649189344564245,0.18292695981006815,-0.02152855056380877,0.0,0.0,-0.6,0.0,0.004328250885009766,0.008426666259765625,0
2.1859240531921387,-0.016133084893226624,-0.014709205366671085,-0.5729976296424866,0.003382236981849739,-0.5573853118715899,0.0019649189344564245,0.18292695981006815,-0.02152855056380877,0.0,0.0,-0.6,0.0,0.0010695457458496094,0.004944324493408203,0
2.1933748722076416,-0.016306590288877487,-0.014553260989487171,-0.5728425979614258,0.00344921840951576,-0.5578339547683725,0.0007919266770426468,0.18407411517778197,-0.021955925640081503,0.0,0.0,-0.6,0.0,0.0042743682861328125,0.008327484130859375,0
2.204380512237549,-0.016471657902002335,-0.014402766712009907,-0.5726561546325684,0.0034935523032829665,-0.5580889798899404,-0.006863574248942721,0.18128780840217998,-0.022250339378893466,0.0,0.0,-0.6,0.0,0.004546642303466797,0.008547544479370117,0
2.2143423557281494,-0.016471657902002335,-0.014402766712009907,-0.5726561546325684,0.0034935523032829665,-0.5580889798899404,-0.006863574248942721,0.18128780840217998,-0.022250339378893466,0.0,0.0,-0.6,0.0,0.001064300537109375,0.004949092864990234,0
2.221841335296631,-0.016773346811532974,-0.014110264368355274,-0.5723180174827576,0.0035400933741220114,-0.557895135579974,-0.00791445252982937,0.1671196817076142,-0.022551212319157816,0.0,0.0,-0.6,0.0,0.004351139068603516,0.008165359497070312,0
2.231355667114258,-0.016773346811532974,-0.014110264368355274,-0.5723180174827576,0.0035400933741220114,-0.557895135579974,-0.00791445252982937,0.1671196817076142,-0.022551212319157816,0.0,0.0,-0.6,0.0,0.00115966796875,0.004997968673706055,0
2.2389140129089355,-0.01699400693178177,-0.013828109949827194,-0.5720088481903076,0.0036842504902011076,-0.5574884681553128,-0.01539713605973927,0.16115625687119473,-0.02348179171814684,0.0,0.0,-0.6,0.0,0.004550933837890625,0.008248090744018555,0
2.248533248901367,-0.01699400693178177,-0.013828109949827194,-0.5720088481903076,0.0036842504902011076,-0.5574884681553128,-0.01539713605973927,0.16115625687119473,-0.02348179171814684,0.0,0.0,-0.6,0.0,0.0010786056518554688,0.005008697509765625,0
2.2580084800720215,-0.01707560569047928,-0.013559384271502495,-0.5717511177062988,0.00367214558385006,-0.5571674497954527,-0.014115339857850498,0.15452486399028184,-0.023400868792768998,0.0,0.0,-0.6,0.0,0.004496574401855469,0.00862264633178711,0
2.26790452003479,-0.01707560569047928,-0.013559384271502495,-0.5717511177062988,0.00367214558385006,-0.5571674497954527,-0.014115339857850498,0.15452486399028184,-0.023400868792768998,0.0,0.0,-0.6,0.0,0.0011324882507324219,0.004916191101074219,0
2.277691602706909,-0.017081260681152344,-0.013340107165277004,-0.5715715885162354,0.003757360072794398,-0.5561047813384721,0.002918974325054825,0.1302779765557432,-0.023937860088679083,0.0,0.0,-0.6,0.0,0.004708290100097656,0.008831501007080078,0
2.2879350185394287,-0.017081260681152344,-0.013340107165277004,-0.5715715885162354,0.003757360072794398,-0.5561047813384721,0.002918974325054825,0.1302779765557432,-0.023937860088679083,0.0,0.0,-0.6,0.0,0.0011625289916992188,0.005129814147949219,0
2.2981460094451904,-0.01706840470433235,-0.01317292544990778,-0.5714830756187439,0.004019915014101843,-0.5557554746439989,0.014220531128697823,0.09268600961467482,-0.02563219417152663,0.0,0.0,-0.6,0.0,0.004787921905517578,0.00866246223449707,0
2.3082876205444336,-0.01706840470433235,-0.01317292544990778,-0.5714830756187439,0.004019915014101843,-0.5557554746439989,0.014220531128697823,0.09268600961467482,-0.02563219417152663,0.0,0.0,-0.6,0.0,0.001123666763305664,0.0051479339599609375,0
2.3187003135681152,-0.017093757167458534,-0.013023514300584793,-0.571382462978363,0.004146569754782295,-0.5559277317457915,0.024901034160758062,0.04187600076836086,-0.026471637337952617,0.0,0.0,-0.6,0.0,0.0047795772552490234,0.008743047714233398,0
2.3288915157318115,-0.017093757167458534,-0.013023514300584793,-0.571382462978363,0.004146569754782295,-0.5559277317457915,0.024901034160758062,0.04187600076836086,-0.026471637337952617,0.0,0.0,-0.6,0.0,0.001150369644165039,0.0049343109130859375,0
2.3376595973968506,-0.017125537618994713,-0.012866244651377201,-0.5712487101554871,0.004253801703205271,-0.556565338892212,0.02490927865323789,0.025566193476476706,-0.027175661596544855,0.0,0.0,-0.6,0.0,0.0047762393951416016,0.008808135986328125,0
2.3478763103485107,-0.017125537618994713,-0.012866244651377201,-0.5712487101554871,0.004253801703205271,-0.556565338892212,0.02490927865323789,0.025566193476476706,-0.027175661596544855,0.0,0.0,-0.6,0.0,0.001157522201538086,0.004974842071533203,0
2.357769250869751,-0.017058920115232468,-0.012716585770249367,-0.5710465908050537,0.0042263721278103855,-0.5571487373846499,0.03429564671328044,0.028575673627558997,-0.027002655962678725,0.0,0.0,-0.6,0.0,0.004940986633300781,0.009043693542480469,0
2.3683152198791504,-0.017058920115232468,-0.012716585770249367,-0.5710465908050537,0.0042263721278103855,-0.5571487373846499,0.03429564671328044,0.028575673627558997,-0.027002655962678725,0.0,0.0,-0.6,0.0,0.0012080669403076172,0.005072593688964844,0
2.3780336380004883,-0.01693934015929699,-0.0125493248924613,-0.5707744359970093,0.004213193766588188,-0.5576265364535601,0.030288893796463826,0.01211361173369773,-0.026934545751737954,0.0,0.0,-0.6,0.0,0.005536556243896484,0.010600805282592773,0
2.390920639038086,-0.01693934015929699,-0.0125493248924613,-0.5707744359970093,0.004213193766588188,-0.5576265364535601,0.030288893796463826,0.01211361173369773,-0.026934545751737954,0.0,0.0,-0.6,0.0,0.001394510269165039,0.005844831466674805,0
2.400141716003418,-0.01685693860054016,-0.012380510568618774,-0.5704841613769531,0.004365515732208381,-0.5576489679556689,0.02878487053417822,-0.020857594839152328,-0.0279322240356408,0.0,0.0,-0.6,0.0,0.005318164825439453,0.010460376739501953,0
2.4121487140655518,-0.01685693860054016,-0.012380510568618774,-0.5704841613769531,0.004365515732208381,-0.5576489679556689,0.02878487053417822,-0.020857594839152328,-0.0279322240356408,0.0,0.0,-0.6,0.0,0.0014944076538085938,0.006327629089355469,0
2.421591281890869,-0.016842937096953392,-0.012244402430951595,-0.5701742768287659,0.004506794347550038,-0.5580527533491995,0.03794427265153107,-0.058161192448694436,-0.028863662430331793,0.0,0.0,-0.6,0.0,0.00535893440246582,0.010099172592163086,0
2.433706521987915,-0.016842937096953392,-0.012244402430951595,-0.5701742768287659,0.004506794347550038,-0.5580527533491995,0.03794427265153107,-0.058161192448694436,-0.028863662430331793,0.0,0.0,-0.6,0.0,0.0014247894287109375,0.006504535675048828,0
2.442854404449463,-0.016859007999300957,-0.012166216969490051,-0.5698647499084473,0.004682637855281322,-0.5582515362334415,0.056902395051766703,-0.08277558948496985,-0.03000971092346605,0.0,0.0,-0.6,0.0,0.005183219909667969,0.010167360305786133,0
