time,x,y,z,yaw,throttle,roll_rate,pitch_rate,yaw_rate,x_ref,y_ref,z_ref,yaw_ref,mpc_time,ctrl_callback_time_history,metadata
2.384185791015625e-06,-0.08369976282119751,-0.031971003860235214,-0.239950492978096,-0.06277461778612788,-0.6236257052312842,0.2971222533384695,-0.5624080123648555,0.40170589479556396,0.0,0.0,-0.6,0.0,0.01418924331665039,0.018424272537231445,Hardware
0.01968097686767578,-0.08369976282119751,-0.031971003860235214,-0.239950492978096,-0.06277461778612788,-0.6236257052312842,0.2971222533384695,-0.5624080123648555,0.40170589479556396,0.0,0.0,-0.6,0.0,0.0010523796081542969,0.004580974578857422,1x Speed
0.02932596206665039,-0.0837249681353569,-0.03195234388113022,-0.2399429827928543,-0.06275696568821902,-0.6233925044775829,0.30113778184772383,-0.5614758074442499,0.40159022363092206,0.0,0.0,-0.6,0.0,0.006237506866455078,0.010591506958007812,Horizon:3.0
0.041471004486083984,-0.0837249681353569,-0.03195234388113022,-0.2399429827928543,-0.06275696568821902,-0.6233925044775829,0.30113778184772383,-0.5614758074442499,0.40159022363092206,0.0,0.0,-0.6,0.0,0.0012428760528564453,0.005263328552246094,Num Steps:20
0.049106597900390625,-0.08372955769300461,-0.031948331743478775,-0.2399415522813797,-0.06279085050348673,-0.6234424525953721,0.30225948852776213,-0.5623574802118332,0.40180724907533927,0.0,0.0,-0.6,0.0,0.005137443542480469,0.008635997772216797,No Pyjoules
0.059639692306518555,-0.08374017477035522,-0.0319400317966938,-0.2399412989616394,-0.06273648327096928,-0.6234684280463629,0.30264525030355954,-0.5592515218654105,0.40146089181776873,0.0,0.0,-0.6,0.0,0.005766630172729492,0.009554147720336914,0
0.07107973098754883,-0.08374017477035522,-0.0319400317966938,-0.2399412989616394,-0.06273648327096928,-0.6234684280463629,0.30264525030355954,-0.5592515218654105,0.40146089181776873,0.0,0.0,-0.6,0.0,0.0011451244354248047,0.005103588104248047,0
0.07813501358032227,-0.0837765708565712,-0.0319235697388649,-0.2399636059999466,-0.0628547263527482,-0.623059260933225,0.2971844329393164,-0.5632100636018582,0.40221253650976696,0.0,0.0,-0.6,0.0,0.0057027339935302734,0.009603738784790039,0
0.08904457092285156,-0.0837765708565712,-0.0319235697388649,-0.2399636059999466,-0.0628547263527482,-0.623059260933225,0.2971844329393164,-0.5632100636018582,0.40221253650976696,0.0,0.0,-0.6,0.0,0.0011191368103027344,0.004759788513183594,0
0.09937405586242676,-0.08384770154953003,-0.03193395584821701,-0.24001160264015198,-0.062404821973026436,-0.622662450550811,0.3053819244849621,-0.5645999625213901,0.39933448517457865,0.0,0.0,-0.6,0.0,0.006745338439941406,0.010355710983276367,0
0.11107277870178223,-0.08384770154953003,-0.03193395584821701,-0.24001160264015198,-0.062404821973026436,-0.622662450550811,0.3053819244849621,-0.5645999625213901,0.39933448517457865,0.0,0.0,-0.6,0.0,0.0010902881622314453,0.004635334014892578,0
0.11910033226013184,-0.08383553475141525,-0.0319724939763546,-0.2401355504989624,-0.06099293855417427,-0.622137040368935,0.32651734384610726,-0.5149022130484671,0.3903139971133629,0.0,0.0,-0.6,0.0,0.007032632827758789,0.010575532913208008,0
0.13151025772094727,-0.08383553475141525,-0.0319724939763546,-0.2401355504989624,-0.06099293855417427,-0.622137040368935,0.32651734384610726,-0.5149022130484671,0.3903139971133629,0.0,0.0,-0.6,0.0,0.001051187515258789,0.0048675537109375,0
0.1383225917816162,-0.08361382782459259,-0.03203188255429268,-0.24031473696231842,-0.0603394617135705,-0.6214649994034688,0.3294700108296029,-0.44873482660590996,0.38613034813512986,0.0,0.0,-0.6,0.0,0.006543874740600586,0.010213613510131836,0
0.15013885498046875,-0.08361382782459259,-0.03203188255429268,-0.24031473696231842,-0.0603394617135705,-0.6214649994034688,0.3294700108296029,-0.44873482660590996,0.38613034813512986,0.0,0.0,-0.6,0.0,0.0011048316955566406,0.004427909851074219,0
0.15854120254516602,-0.08315961807966232,-0.032005541026592255,-0.24057745933532715,-0.05987363056687256,-0.6205251689969168,0.3399188977070164,-0.3573747761964238,0.3831301901251507,0.0,0.0,-0.6,0.0,0.0066106319427490234,0.010185718536376953,0
0.17044854164123535,-0.08315961807966232,-0.032005541026592255,-0.24057745933532715,-0.05987363056687256,-0.6205251689969168,0.3399188977070164,-0.3573747761964238,0.3831301901251507,0.0,0.0,-0.6,0.0,0.0010695457458496094,0.00470280647277832,0
0.17823100090026855,-0.08232053369283676,-0.03182622790336609,-0.24121008813381195,-0.05807137955491719,-0.6172484580665055,0.24900051288321642,-0.21607695791810114,0.37158813215361314,0.0,0.0,-0.6,0.0,0.007146596908569336,0.011234045028686523,0
0.19081592559814453,-0.08232053369283676,-0.03182622790336609,-0.24121008813381195,-0.05807137955491719,-0.6172484580665055,0.24900051288321642,-0.21607695791810114,0.37158813215361314,0.0,0.0,-0.6,0.0,0.001056671142578125,0.004726409912109375,0
0.19900965690612793,-0.08123590797185898,-0.031670890748500824,-0.24211305379867554,-0.05511885436354804,-0.6118783291491317,0.21535500456720763,-0.11664865770359617,0.3527211752171856,0.0,0.0,-0.6,0.0,0.007063150405883789,0.01068735122680664,0
0.21106886863708496,-0.08123590797185898,-0.031670890748500824,-0.24211305379867554,-0.05511885436354804,-0.6118783291491317,0.21535500456720763,-0.11664865770359617,0.3527211752171856,0.0,0.0,-0.6,0.0,0.001070261001586914,0.004800558090209961,0
0.21806883811950684,-0.0799071416258812,-0.031481362879276276,-0.24364803731441498,-0.051470885107427755,-0.6089994031655231,0.1730697513412856,-0.007218504066884509,0.32944137892789477,0.0,0.0,-0.6,0.0,0.006528139114379883,0.01023101806640625,0
0.22963953018188477,-0.0799071416258812,-0.031481362879276276,-0.24364803731441498,-0.051470885107427755,-0.6089994031655231,0.1730697513412856,-0.007218504066884509,0.32944137892789477,0.0,0.0,-0.6,0.0,0.0010559558868408203,0.004673004150390625,0
0.2381598949432373,-0.07841628044843674,-0.031183896586298943,-0.24565711617469788,-0.047292502374980734,-0.6030750386832744,0.05224346802713761,0.10525198106906301,0.3026169114388428,0.0,0.0,-0.6,0.0,0.007190227508544922,0.011316061019897461,0
0.25095152854919434,-0.07841628044843674,-0.031183896586298943,-0.24565711617469788,-0.047292502374980734,-0.6030750386832744,0.05224346802713761,0.10525198106906301,0.3026169114388428,0.0,0.0,-0.6,0.0,0.0010480880737304688,0.0049479007720947266,0
0.25806736946105957,-0.0766616240143776,-0.030804162845015526,-0.24828705191612244,-0.04222487538459184,-0.5973927308483805,-0.03602613158281665,0.32492215111225886,0.2702013494978164,0.0,0.0,-0.6,0.0,0.006899833679199219,0.010816812515258789,0
0.2703888416290283,-0.0766616240143776,-0.030804162845015526,-0.24828705191612244,-0.04222487538459184,-0.5973927308483805,-0.03602613158281665,0.32492215111225886,0.2702013494978164,0.0,0.0,-0.6,0.0,0.0010721683502197266,0.004688739776611328,0
0.2783963680267334,-0.07473503798246384,-0.03015999123454094,-0.2516084909439087,-0.036339185052530754,-0.5906875062143311,-0.18772918742772185,0.5083009719407307,0.23235277254498293,0.0,0.0,-0.6,0.0,0.007366657257080078,0.011453390121459961,0
0.29113078117370605,-0.07473503798246384,-0.03015999123454094,-0.2516084909439087,-0.036339185052530754,-0.5906875062143311,-0.18772918742772185,0.5083009719407307,0.23235277254498293,0.0,0.0,-0.6,0.0,0.0011150836944580078,0.004734992980957031,0
0.2995312213897705,-0.07262930274009705,-0.029395349323749542,-0.255486398935318,-0.029934892418946348,-0.5839708300261404,-0.2864405277450657,0.653611083240792,0.19133429342009847,0.0,0.0,-0.6,0.0,0.006376743316650391,0.010286808013916016,0
0.3112478256225586,-0.07262930274009705,-0.029395349323749542,-0.255486398935318,-0.029934892418946348,-0.5839708300261404,-0.2864405277450657,0.653611083240792,0.19133429342009847,0.0,0.0,-0.6,0.0,0.001096487045288086,0.004909515380859375,0
0.3191874027252197,-0.07044599950313568,-0.02851828746497631,-0.26001474261283875,-0.02259913908957134,-0.5787375815563127,-0.3934620233422783,0.7999934594054274,0.1442050755748233,0.0,0.0,-0.6,0.0,0.009628057479858398,0.013366937637329102,0
0.3339872360229492,-0.07044599950313568,-0.02851828746497631,-0.26001474261283875,-0.02259913908957134,-0.5787375815563127,-0.3934620233422783,0.7999934594054274,0.1442050755748233,0.0,0.0,-0.6,0.0,0.0010614395141601562,0.0049898624420166016,0
0.3409256935119629,-0.06820466369390488,-0.02755519561469555,-0.26518744230270386,-0.014970021562422326,-0.5722649604358115,-0.4300277053631027,0.7999999971586967,0.09487083179472618,0.0,0.0,-0.6,0.0,0.00846099853515625,0.012301921844482422,0
0.35511040687561035,-0.06820466369390488,-0.02755519561469555,-0.26518744230270386,-0.014970021562422326,-0.5722649604358115,-0.4300277053631027,0.7999999971586967,0.09487083179472618,0.0,0.0,-0.6,0.0,0.0011227130889892578,0.004758596420288086,0
0.3623068332672119,-0.06581699103116989,-0.02670889161527157,-0.2707475423812866,-0.00742853616553961,-0.5671352502133441,-0.532724142083612,0.7999999994626669,0.04495148926166054,0.0,0.0,-0.6,0.0,0.008636236190795898,0.012409687042236328,0
0.3768012523651123,-0.0635826513171196,-0.02578449435532093,-0.27670833468437195,9.662162768797348e-05,-0.5627489521517413,-0.5426246758729982,0.7999999993599027,-0.0028746029210564737,0.0,0.0,-0.6,0.0,0.007132053375244141,0.010944604873657227,0
0.3891024589538574,-0.0635826513171196,-0.02578449435532093,-0.27670833468437195,9.662162768797348e-05,-0.5627489521517413,-0.5426246758729982,0.7999999993599027,-0.0028746029210564737,0.0,0.0,-0.6,0.0,0.0011501312255859375,0.004985809326171875,0
0.3988769054412842,-0.061284907162189484,-0.024937497451901436,-0.2830283045768738,0.007885926662071132,-0.5587727799453388,-0.5056406466303911,0.7999999977618015,-0.05189429611580761,0.0,0.0,-0.6,0.0,0.007326602935791016,0.011395454406738281,0
0.41169023513793945,-0.061284907162189484,-0.024937497451901436,-0.2830283045768738,0.007885926662071132,-0.5587727799453388,-0.5056406466303911,0.7999999977618015,-0.05189429611580761,0.0,0.0,-0.6,0.0,0.0010838508605957031,0.004796504974365234,0
0.41872715950012207,-0.05903991684317589,-0.024069318547844887,-0.28954511880874634,0.01584038718926584,-0.5559009453227753,-0.41520501077744004,0.7999999107539062,-0.10136272826364039,0.0,0.0,-0.6,0.0,0.008412599563598633,0.012410879135131836,0
0.4324195384979248,-0.05903991684317589,-0.024069318547844887,-0.28954511880874634,0.01584038718926584,-0.5559009453227753,-0.41520501077744004,0.7999999107539062,-0.10136272826364039,0.0,0.0,-0.6,0.0,0.0010340213775634766,0.004408836364746094,0
0.4391055107116699,-0.056735459715127945,-0.023264501243829727,-0.2962402403354645,0.023790710262511058,-0.5526960132064637,-0.31752080535840504,0.7999999999998761,-0.15152037781364347,0.0,0.0,-0.6,0.0,0.00921773910522461,0.012776851654052734,0
0.4531116485595703,-0.056735459715127945,-0.023264501243829727,-0.2962402403354645,0.023790710262511058,-0.5526960132064637,-0.31752080535840504,0.7999999999998761,-0.15152037781364347,0.0,0.0,-0.6,0.0,0.0011167526245117188,0.004435539245605469,0
0.45989155769348145,-0.05438772216439247,-0.0225620549172163,-0.30311718583106995,0.031403042106859805,-0.5498731912100351,-0.21362072007056818,0.7479902169061972,-0.2002524438361953,0.0,0.0,-0.6,0.0,0.00838780403137207,0.012118339538574219,0
0.4732637405395508,-0.05438772216439247,-0.0225620549172163,-0.30311718583106995,0.031403042106859805,-0.5498731912100351,-0.21362072007056818,0.7479902169061972,-0.2002524438361953,0.0,0.0,-0.6,0.0,0.0010895729064941406,0.004868030548095703,0
0.48053574562072754,-0.05208311229944229,-0.021855581551790237,-0.3098383843898773,0.038629765475319704,-0.5500457482374089,-0.217257704318186,0.6617113146518249,-0.24678140245866417,0.0,0.0,-0.6,0.0,0.006500244140625,0.010748863220214844,0
0.492495059967041,-0.05208311229944229,-0.021855581551790237,-0.3098383843898773,0.038629765475319704,-0.5500457482374089,-0.217257704318186,0.6617113146518249,-0.24678140245866417,0.0,0.0,-0.6,0.0,0.001117706298828125,0.004739046096801758,0
0.5002529621124268,-0.04968288913369179,-0.021202079951763153,-0.31652402877807617,0.04523706331091907,-0.5461681936878773,-0.2246095658737792,0.4951710790872256,-0.28934510561897375,0.0,0.0,-0.6,0.0,0.006442070007324219,0.010064125061035156,0
0.51239013671875,-0.0472281239926815,-0.020470261573791504,-0.32340162992477417,0.05104550638192919,-0.5424628235186015,-0.22210356190436337,0.4545196052964483,-0.32652078352235137,0.0,0.0,-0.6,0.0,0.0064029693603515625,0.010422945022583008,0
0.5247416496276855,-0.0472281239926815,-0.020470261573791504,-0.32340162992477417,0.05104550638192919,-0.5424628235186015,-0.22210356190436337,0.4545196052964483,-0.32652078352235137,0.0,0.0,-0.6,0.0,0.0011162757873535156,0.0048863887786865234,0
0.5320925712585449,-0.044714126735925674,-0.01976739801466465,-0.3301263749599457,0.05627130601652375,-0.5425335214305502,-0.07089907141255912,0.36618444848670156,-0.3598421603201962,0.0,0.0,-0.6,0.0,0.006464481353759766,0.010171890258789062,0
0.5440654754638672,-0.044714126735925674,-0.01976739801466465,-0.3301263749599457,0.05627130601652375,-0.5425335214305502,-0.07089907141255912,0.36618444848670156,-0.3598421603201962,0.0,0.0,-0.6,0.0,0.0010747909545898438,0.00507044792175293,0
0.5511305332183838,-0.04261341318488121,-0.01913655363023281,-0.33645644783973694,0.06099490456089356,-0.5414282262464342,0.011231621809463197,0.27873192088794263,-0.3900896014689351,0.0,0.0,-0.6,0.0,0.005631923675537109,0.009484291076660156,0
0.5623884201049805,-0.04261341318488121,-0.01913655363023281,-0.33645644783973694,0.06099490456089356,-0.5414282262464342,0.011231621809463197,0.27873192088794263,-0.3900896014689351,0.0,0.0,-0.6,0.0,0.0010516643524169922,0.004690885543823242,0
0.568976640701294,-0.04149991273880005,-0.01880132406949997,-0.33965227007865906,0.06315128814296476,-0.5408676615496034,0.07513788023257234,0.25603724547868445,-0.40394702035528124,0.0,0.0,-0.6,0.0,0.0055310726165771484,0.009059429168701172,0
0.5793957710266113,-0.04149991273880005,-0.01880132406949997,-0.33965227007865906,0.06315128814296476,-0.5408676615496034,0.07513788023257234,0.25603724547868445,-0.40394702035528124,0.0,0.0,-0.6,0.0,0.0011169910430908203,0.005177736282348633,0
0.5882241725921631,-0.03935530036687851,-0.018278973177075386,-0.3458051383495331,0.06708606956813652,-0.5432514953193635,0.13770311365060073,0.031053210032470663,-0.4291072337368658,0.0,0.0,-0.6,0.0,0.0062601566314697266,0.01018524169921875,0
0.6004612445831299,-0.03935530036687851,-0.018278973177075386,-0.3458051383495331,0.06708606956813652,-0.5432514953193635,0.13770311365060073,0.031053210032470663,-0.4291072337368658,0.0,0.0,-0.6,0.0,0.0011444091796875,0.00473332405090332,0
0.6089413166046143,-0.03642509505152702,-0.017699619755148888,-0.35463854670524597,0.07250079225321186,-0.5415232940092048,0.2601138030936737,-0.15920277976814537,-0.46385383412585873,0.0,0.0,-0.6,0.0,0.005278348922729492,0.008992433547973633,0
0.6195476055145264,-0.03642509505152702,-0.017699619755148888,-0.35463854670524597,0.07250079225321186,-0.5415232940092048,0.2601138030936737,-0.15920277976814537,-0.46385383412585873,0.0,0.0,-0.6,0.0,0.0011243820190429688,0.004891872406005859,0
0.6289322376251221,-0.034666113555431366,-0.017422812059521675,-0.3603385388851166,0.07557680102658461,-0.5418794339689571,0.2908858920186578,-0.20758125735815797,-0.48365686898888866,0.0,0.0,-0.6,0.0,0.005418539047241211,0.009268522262573242,0
0.6395645141601562,-0.034666113555431366,-0.017422812059521675,-0.3603385388851166,0.07557680102658461,-0.5418794339689571,0.2908858920186578,-0.20758125735815797,-0.48365686898888866,0.0,0.0,-0.6,0.0,0.0011446475982666016,0.004766702651977539,0
0.6489598751068115,-0.0330493301153183,-0.017248935997486115,-0.36576202511787415,0.07809400232373762,-0.541633135231827,0.3628158854842333,-0.30512636522050784,-0.49993032980362345,0.0,0.0,-0.6,0.0,0.0053768157958984375,0.009128808975219727,0
0.6594607830047607,-0.0330493301153183,-0.017248935997486115,-0.36576202511787415,0.07809400232373762,-0.541633135231827,0.3628158854842333,-0.30512636522050784,-0.49993032980362345,0.0,0.0,-0.6,0.0,0.0010542869567871094,0.004601001739501953,0
0.668541669845581,-0.03159438073635101,-0.017146339640021324,-0.37103039026260376,0.0803771871419397,-0.5417102816579522,0.4038357325929941,-0.36218308569257035,-0.5146986323527946,0.0,0.0,-0.6,0.0,0.005524635314941406,0.009049177169799805,0
0.6789488792419434,-0.03159438073635101,-0.017146339640021324,-0.37103039026260376,0.0803771871419397,-0.5417102816579522,0.4038357325929941,-0.36218308569257035,-0.5146986323527946,0.0,0.0,-0.6,0.0,0.001085519790649414,0.005095243453979492,0
0.6887741088867188,-0.030174802988767624,-0.017119983211159706,-0.3761264383792877,0.08235443126176738,-0.5420146749660153,0.36885543661822934,-0.4616838414296208,-0.5271227641443543,0.0,0.0,-0.6,0.0,0.005404233932495117,0.009422779083251953,0
0.7001152038574219,-0.030174802988767624,-0.017119983211159706,-0.3761264383792877,0.08235443126176738,-0.5420146749660153,0.36885543661822934,-0.4616838414296208,-0.5271227641443543,0.0,0.0,-0.6,0.0,0.0010662078857421875,0.0047454833984375,0
0.7083268165588379,-0.028879549354314804,-0.017115946859121323,-0.38116157054901123,0.08389470916656423,-0.541621335872276,0.3117225859000514,-0.5573473337777463,-0.5366779473700681,0.0,0.0,-0.6,0.0,0.005517005920410156,0.009313344955444336,0
0.7197000980377197,-0.028879549354314804,-0.017115946859121323,-0.38116157054901123,0.08389470916656423,-0.541621335872276,0.3117225859000514,-0.5573473337777463,-0.5366779473700681,0.0,0.0,-0.6,0.0,0.0010528564453125,0.00490117073059082,0
0.7292213439941406,-0.027723165228962898,-0.01718718558549881,-0.38606753945350647,0.08519884127427414,-0.5409037595201139,0.27439409966340034,-0.4969586105967758,-0.5450924353293247,0.0,0.0,-0.6,0.0,0.005425691604614258,0.009220123291015625,0
0.7403380870819092,-0.027723165228962898,-0.01718718558549881,-0.38606753945350647,0.08519884127427414,-0.5409037595201139,0.27439409966340034,-0.4969586105967758,-0.5450924353293247,0.0,0.0,-0.6,0.0,0.0010945796966552734,0.0052950382232666016,0
0.7494254112243652,-0.026780972257256508,-0.017224090173840523,-0.3908093273639679,0.08610103372666741,-0.539247921973035,0.2677681667933043,-0.38977362214538147,-0.5510892473102335,0.0,0.0,-0.6,0.0,0.005486488342285156,0.009271860122680664,0
0.7604610919952393,-0.026780972257256508,-0.017224090173840523,-0.3908093273639679,0.08610103372666741,-0.539247921973035,0.2677681667933043,-0.38977362214538147,-0.5510892473102335,0.0,0.0,-0.6,0.0,0.0010652542114257812,0.004807472229003906,0
0.7686553001403809,-0.025893276557326317,-0.01738077960908413,-0.39551523327827454,0.08668529374857609,-0.5403982471020224,0.19481212414150004,-0.3780934388625382,-0.5546700351730177,0.0,0.0,-0.6,0.0,0.005481243133544922,0.009799718856811523,0
0.7798905372619629,-0.025893276557326317,-0.01738077960908413,-0.39551523327827454,0.08668529374857609,-0.5403982471020224,0.19481212414150004,-0.3780934388625382,-0.5546700351730177,0.0,0.0,-0.6,0.0,0.0011169910430908203,0.005001544952392578,0
0.788712739944458,-0.025175847113132477,-0.01762564107775688,-0.3999118506908417,0.08687741338674695,-0.5406022288207075,0.18884176775748346,-0.4117215242533091,-0.5559125814595227,0.0,0.0,-0.6,0.0,0.005654096603393555,0.009523153305053711,0
0.8000950813293457,-0.025175847113132477,-0.01762564107775688,-0.3999118506908417,0.08687741338674695,-0.5406022288207075,0.18884176775748346,-0.4117215242533091,-0.5559125814595227,0.0,0.0,-0.6,0.0,0.0010952949523925781,0.004827976226806641,0
0.8088901042938232,-0.024532807990908623,-0.017869645729660988,-0.4043504595756531,0.0868888176394736,-0.5394571931173447,0.10861799459982231,-0.28874968149591024,-0.5558869287332348,0.0,0.0,-0.6,0.0,0.005431652069091797,0.009312629699707031,0
0.8195431232452393,-0.024532807990908623,-0.017869645729660988,-0.4043504595756531,0.0868888176394736,-0.5394571931173447,0.10861799459982231,-0.28874968149591024,-0.5558869287332348,0.0,0.0,-0.6,0.0,0.0010488033294677734,0.004778861999511719,0
0.8282525539398193,-0.024099307134747505,-0.01812695525586605,-0.4085772633552551,0.08646290685673133,-0.540935531821782,0.04359739553115067,-0.22430649844901085,-0.5531136256532394,0.0,0.0,-0.6,0.0,0.005586147308349609,0.009506940841674805,0
0.8392143249511719,-0.024099307134747505,-0.01812695525586605,-0.4085772633552551,0.08646290685673133,-0.540935531821782,0.04359739553115067,-0.22430649844901085,-0.5531136256532394,0.0,0.0,-0.6,0.0,0.0011379718780517578,0.005022525787353516,0
0.8482778072357178,-0.023863621056079865,-0.01851746439933777,-0.41264936327934265,0.0857697019539058,-0.5385509523717821,-0.04441055702931438,-0.19361467081323108,-0.548658072205654,0.0,0.0,-0.6,0.0,0.005734443664550781,0.009624958038330078,0
0.8593950271606445,-0.023863621056079865,-0.01851746439933777,-0.41264936327934265,0.0857697019539058,-0.5385509523717821,-0.04441055702931438,-0.19361467081323108,-0.548658072205654,0.0,0.0,-0.6,0.0,0.001188516616821289,0.0049021244049072266,0
0.8687360286712646,-0.02361629344522953,-0.01884172298014164,-0.41662243008613586,0.08479365056768869,-0.5407630461754077,-0.0441261635797857,-0.10382903939676846,-0.5423840603496071,0.0,0.0,-0.6,0.0,0.005602121353149414,0.009591341018676758,0
0.8796072006225586,-0.02361629344522953,-0.01884172298014164,-0.41662243008613586,0.08479365056768869,-0.5407630461754077,-0.0441261635797857,-0.10382903939676846,-0.5423840603496071,0.0,0.0,-0.6,0.0,0.0010662078857421875,0.0049555301666259766,0
0.8883509635925293,-0.02368979901075363,-0.01921900548040867,-0.420352041721344,0.08371444735064243,-0.5416478633826513,-0.0541432409795592,-0.0727864104227208,-0.5354851093584856,0.0,0.0,-0.6,0.0,0.00551152229309082,0.009543418884277344,0
0.8998517990112305,-0.02368979901075363,-0.01921900548040867,-0.420352041721344,0.08371444735064243,-0.5416478633826513,-0.0541432409795592,-0.0727864104227208,-0.5354851093584856,0.0,0.0,-0.6,0.0,0.0010745525360107422,0.00482940673828125,0
0.908470630645752,-0.02372053638100624,-0.019669951871037483,-0.42407137155532837,0.08234775959961685,-0.5413612972805731,-0.08445337808964791,-0.07132419991793358,-0.5268049103129012,0.0,0.0,-0.6,0.0,0.005484104156494141,0.009093284606933594,0
0.9187560081481934,-0.02372053638100624,-0.019669951871037483,-0.42407137155532837,0.08234775959961685,-0.5413612972805731,-0.08445337808964791,-0.07132419991793358,-0.5268049103129012,0.0,0.0,-0.6,0.0,0.0011165142059326172,0.0048389434814453125,0
0.9282140731811523,-0.023818528279662132,-0.02009742148220539,-0.42754772305488586,0.08123578473196384,-0.5420051580476039,-0.11137823597710748,0.018970477091848306,-0.5196016765956949,0.0,0.0,-0.6,0.0,0.00547480583190918,0.009481430053710938,0
0.9390039443969727,-0.023818528279662132,-0.02009742148220539,-0.42754772305488586,0.08123578473196384,-0.5420051580476039,-0.11137823597710748,0.018970477091848306,-0.5196016765956949,0.0,0.0,-0.6,0.0,0.001096963882446289,0.004846096038818359,0
0.9482104778289795,-0.024032341316342354,-0.020515261217951775,-0.43094298243522644,0.07999174791477011,-0.5402868868363758,-0.15540437086626,0.14155842616438685,-0.51152481105107,0.0,0.0,-0.6,0.0,0.005580425262451172,0.009440898895263672,0
0.959113597869873,-0.024032341316342354,-0.020515261217951775,-0.43094298243522644,0.07999174791477011,-0.5402868868363758,-0.15540437086626,0.14155842616438685,-0.51152481105107,0.0,0.0,-0.6,0.0,0.0011105537414550781,0.004701852798461914,0
0.9683821201324463,-0.02417971007525921,-0.02085050195455551,-0.43423786759376526,0.07837779727083985,-0.5427059817675537,-0.1554613939173984,0.1555554743422768,-0.5012163435972536,0.0,0.0,-0.6,0.0,0.005036115646362305,0.009062528610229492,0
0.9789936542510986,-0.02417971007525921,-0.02085050195455551,-0.43423786759376526,0.07837779727083985,-0.5427059817675537,-0.1554613939173984,0.1555554743422768,-0.5012163435972536,0.0,0.0,-0.6,0.0,0.0012257099151611328,0.005341291427612305,0
0.9882779121398926,-0.0244334377348423,-0.02109001763164997,-0.43731221556663513,0.07691431477321492,-0.543204552051851,-0.14362927454048016,0.13825572618897966,-0.49189079146552844,0.0,0.0,-0.6,0.0,0.0057086944580078125,0.009692192077636719,0
0.9999525547027588,-0.0244334377348423,-0.02109001763164997,-0.43731221556663513,0.07691431477321492,-0.543204552051851,-0.14362927454048016,0.13825572618897966,-0.49189079146552844,0.0,0.0,-0.6,0.0,0.0011107921600341797,0.004904031753540039,0
1.008192777633667,-0.024624831974506378,-0.021284550428390503,-0.44035497307777405,0.07551630124571856,-0.5440693593270717,-0.13451736965115366,0.14926309131838614,-0.48292864485285747,0.0,0.0,-0.6,0.0,0.004521608352661133,0.008189678192138672,0
1.019681453704834,-0.02477109432220459,-0.021374007686972618,-0.44179609417915344,0.07485157865647193,-0.5442785087420622,-0.1326286859782101,0.13137075312502008,-0.4787135062846738,0.0,0.0,-0.6,0.0,0.0057909488677978516,0.01006937026977539,0
1.0312135219573975,-0.02477109432220459,-0.021374007686972618,-0.44179609417915344,0.07485157865647193,-0.5442785087420622,-0.1326286859782101,0.13137075312502008,-0.4787135062846738,0.0,0.0,-0.6,0.0,0.0010676383972167969,0.004789113998413086,0
1.0381782054901123,-0.02505667693912983,-0.021439984440803528,-0.44463029503822327,0.07352195836526175,-0.543536237779322,-0.16275222745936507,0.15511816682957294,-0.4702577075350759,0.0,0.0,-0.6,0.0,0.005614519119262695,0.009416580200195312,0
1.0490703582763672,-0.02505667693912983,-0.021439984440803528,-0.44463029503822327,0.07352195836526175,-0.543536237779322,-0.16275222745936507,0.15511816682957294,-0.4702577075350759,0.0,0.0,-0.6,0.0,0.0010986328125,0.004941225051879883,0
1.0582222938537598,-0.02529432438313961,-0.021573254838585854,-0.4473869204521179,0.07196943389677671,-0.5428790481622985,-0.1535562472816093,0.17882914396922678,-0.4602756827831676,0.0,0.0,-0.6,0.0,0.005902767181396484,0.010145187377929688,0
1.0698792934417725,-0.02529432438313961,-0.021573254838585854,-0.4473869204521179,0.07196943389677671,-0.5428790481622985,-0.1535562472816093,0.17882914396922678,-0.4602756827831676,0.0,0.0,-0.6,0.0,0.0011610984802246094,0.005005598068237305,0
1.078122854232788,-0.025520289316773415,-0.021568642929196358,-0.4499565362930298,0.07045354203536071,-0.5443557803056869,-0.13981988147169808,0.19869034459788065,-0.45052471192711574,0.0,0.0,-0.6,0.0,0.005499601364135742,0.009202241897583008,0
1.0886013507843018,-0.025520289316773415,-0.021568642929196358,-0.4499565362930298,0.07045354203536071,-0.5443557803056869,-0.13981988147169808,0.19869034459788065,-0.45052471192711574,0.0,0.0,-0.6,0.0,0.0011310577392578125,0.004586935043334961,0
1.0987672805786133,-0.02575402520596981,-0.021499598398804665,-0.4524899125099182,0.06907115340927532,-0.5445195277985949,-0.14885756575773415,0.13014225445367877,-0.44181502242522236,0.0,0.0,-0.6,0.0,0.005862712860107422,0.009987831115722656,0
1.110314130783081,-0.02575402520596981,-0.021499598398804665,-0.4524899125099182,0.06907115340927532,-0.5445195277985949,-0.14885756575773415,0.13014225445367877,-0.44181502242522236,0.0,0.0,-0.6,0.0,0.0011532306671142578,0.005220174789428711,0
1.11855149269104,-0.025821128860116005,-0.021336538717150688,-0.4549894332885742,0.0676612507659973,-0.545115255703058,-0.05566579114529745,0.13486630485473367,-0.4325771507761691,0.0,0.0,-0.6,0.0,0.005124807357788086,0.00904083251953125,0
1.129044771194458,-0.025821128860116005,-0.021336538717150688,-0.4549894332885742,0.0676612507659973,-0.545115255703058,-0.05566579114529745,0.13486630485473367,-0.4325771507761691,0.0,0.0,-0.6,0.0,0.001119375228881836,0.004887580871582031,0
1.1381678581237793,-0.02593301236629486,-0.021056775003671646,-0.45736420154571533,0.06632267331342326,-0.5461187986962249,-0.09969119297661189,0.08645187294741588,-0.4241757419788097,0.0,0.0,-0.6,0.0,0.005341529846191406,0.00928640365600586,0
1.14886474609375,-0.02593301236629486,-0.021056775003671646,-0.45736420154571533,0.06632267331342326,-0.5461187986962249,-0.09969119297661189,0.08645187294741588,-0.4241757419788097,0.0,0.0,-0.6,0.0,0.001188039779663086,0.0050737857818603516,0
1.1582388877868652,-0.025949178263545036,-0.020748116075992584,-0.4595789611339569,0.06488207541466566,-0.5448991724595117,-0.12240258844577692,0.0823271967579836,-0.41501003638748296,0.0,0.0,-0.6,0.0,0.00514531135559082,0.00873422622680664,0
1.1682310104370117,-0.025949178263545036,-0.020748116075992584,-0.4595789611339569,0.06488207541466566,-0.5448991724595117,-0.12240258844577692,0.0823271967579836,-0.41501003638748296,0.0,0.0,-0.6,0.0,0.0010633468627929688,0.005002260208129883,0
1.1782753467559814,-0.025944078341126442,-0.020434455946087837,-0.46177202463150024,0.06350964974227376,-0.5454052323636353,-0.11655325430911563,0.14937271797530585,-0.4061647802322369,0.0,0.0,-0.6,0.0,0.00520014762878418,0.00901341438293457,0
1.1887953281402588,-0.025944078341126442,-0.020434455946087837,-0.46177202463150024,0.06350964974227376,-0.5454052323636353,-0.11655325430911563,0.14937271797530585,-0.4061647802322369,0.0,0.0,-0.6,0.0,0.001161336898803711,0.0051572322845458984,0
1.1989550590515137,-0.025835247710347176,-0.02004605531692505,-0.4637943506240845,0.06213175038106387,-0.5456123715058111,-0.07340902253828933,0.1320651085594477,-0.3972911938074908,0.0,0.0,-0.6,0.0,0.004704475402832031,0.0088958740234375,0
1.2091352939605713,-0.025835247710347176,-0.02004605531692505,-0.4637943506240845,0.06213175038106387,-0.5456123715058111,-0.07340902253828933,0.1320651085594477,-0.3972911938074908,0.0,0.0,-0.6,0.0,0.0011146068572998047,0.004724740982055664,0
1.2183263301849365,-0.025813529267907143,-0.019640538841485977,-0.46567702293395996,0.06083084916714802,-0.5466585151243354,-0.08270863947538376,0.07926503122298317,-0.3890237848662817,0.0,0.0,-0.6,0.0,0.004653215408325195,0.00889277458190918,0
1.2285542488098145,-0.025813529267907143,-0.019640538841485977,-0.46567702293395996,0.06083084916714802,-0.5466585151243354,-0.08270863947538376,0.07926503122298317,-0.3890237848662817,0.0,0.0,-0.6,0.0,0.0011363029479980469,0.004770755767822266,0
1.2384486198425293,-0.0256805419921875,-0.019280970096588135,-0.4675351083278656,0.05945286510531988,-0.5471176265699974,-0.024394865126634153,0.036852292912477415,-0.3801382429124817,0.0,0.0,-0.6,0.0,0.004653215408325195,0.008790016174316406,0
1.24861478805542,-0.0256805419921875,-0.019280970096588135,-0.4675351083278656,0.05945286510531988,-0.5471176265699974,-0.024394865126634153,0.036852292912477415,-0.3801382429124817,0.0,0.0,-0.6,0.0,0.001087188720703125,0.00492405891418457,0
1.2582626342773438,-0.025480981916189194,-0.018814317882061005,-0.4692939221858978,0.058197983472307056,-0.5481708776708644,-0.02133745648871118,0.05741273367157474,-0.3721059776765846,0.0,0.0,-0.6,0.0,0.00490570068359375,0.008802413940429688,0
1.268568992614746,-0.025480981916189194,-0.018814317882061005,-0.4692939221858978,0.058197983472307056,-0.5481708776708644,-0.02133745648871118,0.05741273367157474,-0.3721059776765846,0.0,0.0,-0.6,0.0,0.0011949539184570312,0.004884004592895508,0
1.278249740600586,-0.02527517080307007,-0.018337199464440346,-0.4708787202835083,0.05690583996947375,-0.5493019593926912,0.021782060567429918,0.007190922011880702,-0.36379220172306476,0.0,0.0,-0.6,0.0,0.004907846450805664,0.009087085723876953,0
1.2887754440307617,-0.02527517080307007,-0.018337199464440346,-0.4708787202835083,0.05690583996947375,-0.5493019593926912,0.021782060567429918,0.007190922011880702,-0.36379220172306476,0.0,0.0,-0.6,0.0,0.0012314319610595703,0.005438327789306641,0
1.2988300323486328,-0.025169612839818,-0.017859289422631264,-0.47231245040893555,0.05566039944081299,-0.5484717485889642,-0.028484416300199114,0.03521222516754509,-0.35589686424262723,0.0,0.0,-0.6,0.0,0.0056056976318359375,0.009835004806518555,0
1.310124397277832,-0.025169612839818,-0.017859289422631264,-0.47231245040893555,0.05566039944081299,-0.5484717485889642,-0.028484416300199114,0.03521222516754509,-0.35589686424262723,0.0,0.0,-0.6,0.0,0.0010521411895751953,0.00496673583984375,0
1.3182218074798584,-0.024920545518398285,-0.01737752929329872,-0.4738154113292694,0.05429528847364503,-0.5478070173544296,-0.05592415820017454,0.04242588479856173,-0.34720259595539504,0.0,0.0,-0.6,0.0,0.004331827163696289,0.008005857467651367,0
1.329387903213501,-0.024721084162592888,-0.016816390678286552,-0.47506213188171387,0.053054412055178864,-0.5500440146682971,0.0009710081255358936,0.08701552017228163,-0.3392018150180597,0.0,0.0,-0.6,0.0,0.00550532341003418,0.009340286254882812,0
1.340106725692749,-0.024721084162592888,-0.016816390678286552,-0.47506213188171387,0.053054412055178864,-0.5500440146682971,0.0009710081255358936,0.08701552017228163,-0.3392018150180597,0.0,0.0,-0.6,0.0,0.0010581016540527344,0.0047075748443603516,0
1.3487226963043213,-0.024609172716736794,-0.016308704391121864,-0.47622525691986084,0.0519238032253399,-0.5504636231594334,0.04185570180937419,-0.010360472091907167,-0.33192438217219183,0.0,0.0,-0.6,0.0,0.005284309387207031,0.009280681610107422,0
1.359330415725708,-0.024609172716736794,-0.016308704391121864,-0.47622525691986084,0.0519238032253399,-0.5504636231594334,0.04185570180937419,-0.010360472091907167,-0.33192438217219183,0.0,0.0,-0.6,0.0,0.0010485649108886719,0.004906654357910156,0
1.3691930770874023,-0.024490205571055412,-0.015723368152976036,-0.47737520933151245,0.05067420210403366,-0.5509722158649691,-0.019071027295610152,-0.03613441801866182,-0.32400850123641084,0.0,0.0,-0.6,0.0,0.005707502365112305,0.009592056274414062,0
1.3800997734069824,-0.024490205571055412,-0.015723368152976036,-0.47737520933151245,0.05067420210403366,-0.5509722158649691,-0.019071027295610152,-0.03613441801866182,-0.32400850123641084,0.0,0.0,-0.6,0.0,0.0011060237884521484,0.004642009735107422,0
1.3890607357025146,-0.024284599348902702,-0.015203471295535564,-0.4785173833370209,0.049546896300496246,-0.5518891735713087,-0.012551302423349626,-0.10457829150482977,-0.31679313943243953,0.0,0.0,-0.6,0.0,0.005409717559814453,0.009145259857177734,0
1.4000399112701416,-0.024284599348902702,-0.015203471295535564,-0.4785173833370209,0.049546896300496246,-0.5518891735713087,-0.012551302423349626,-0.10457829150482977,-0.31679313943243953,0.0,0.0,-0.6,0.0,0.001088857650756836,0.0047261714935302734,0
1.4083960056304932,-0.02417919784784317,-0.014681096188724041,-0.47948458790779114,0.04863055178036783,-0.552208408604726,-0.013455123552981191,-0.04090135415634441,-0.31093955080067487,0.0,0.0,-0.6,0.0,0.005646228790283203,0.009761571884155273,0
1.4195582866668701,-0.02417919784784317,-0.014681096188724041,-0.47948458790779114,0.04863055178036783,-0.552208408604726,-0.013455123552981191,-0.04090135415634441,-0.31093955080067487,0.0,0.0,-0.6,0.0,0.0010640621185302734,0.00492548942565918,0
1.4282021522521973,-0.024119907990098,-0.014295479282736778,-0.48039793968200684,0.04770634067969045,-0.551595939078509,0.0038453498679348165,-0.07155956887054356,-0.30501017452786444,0.0,0.0,-0.6,0.0,0.005389690399169922,0.009367704391479492,0
1.4389698505401611,-0.024119907990098,-0.014295479282736778,-0.48039793968200684,0.04770634067969045,-0.551595939078509,0.0038453498679348165,-0.07155956887054356,-0.30501017452786444,0.0,0.0,-0.6,0.0,0.0010852813720703125,0.005243539810180664,0
1.4482207298278809,-0.024056755006313324,-0.01385828573256731,-0.4811853766441345,0.04666554032180627,-0.5515078344161065,0.005288818572689266,0.01253581982307118,-0.2983592971884627,0.0,0.0,-0.6,0.0,0.005644083023071289,0.009543657302856445,0
1.4591960906982422,-0.024056755006313324,-0.01385828573256731,-0.4811853766441345,0.04666554032180627,-0.5515078344161065,0.005288818572689266,0.01253581982307118,-0.2983592971884627,0.0,0.0,-0.6,0.0,0.0011248588562011719,0.0050737857818603516,0
1.4683117866516113,-0.02399578131735325,-0.01346149854362011,-0.4819444417953491,0.045792554078321834,-0.5529198354978178,-0.07581651389520896,-0.08181354464593575,-0.29283844596499264,0.0,0.0,-0.6,0.0,0.00550532341003418,0.00962686538696289,0
1.4793927669525146,-0.02399578131735325,-0.01346149854362011,-0.4819444417953491,0.045792554078321834,-0.5529198354978178,-0.07581651389520896,-0.08181354464593575,-0.29283844596499264,0.0,0.0,-0.6,0.0,0.0011091232299804688,0.005225181579589844,0
1.4881293773651123,-0.02393152192234993,-0.013034378178417683,-0.4826423227787018,0.044933673519759396,-0.5524569057807618,0.043738093722596585,-0.10171237993804456,-0.28724244759131606,0.0,0.0,-0.6,0.0,0.005916595458984375,0.009621143341064453,0
1.499769687652588,-0.02393152192234993,-0.013034378178417683,-0.4826423227787018,0.044933673519759396,-0.5524569057807618,0.043738093722596585,-0.10171237993804456,-0.28724244759131606,0.0,0.0,-0.6,0.0,0.001131296157836914,0.004899740219116211,0
1.50832200050354,-0.023939670994877815,-0.012899547815322876,-0.48302242159843445,0.04458626090219152,-0.5516821662515895,0.06813963666296098,-0.11692212681881209,-0.28499283157012145,0.0,0.0,-0.6,0.0,0.0045833587646484375,0.008551597595214844,0
1.5187840461730957,-0.02388708107173443,-0.012440347112715244,-0.4837534427642822,0.043883634431227926,-0.5522570434757909,0.06065081963786881,-0.07935148508223691,-0.2805136151611504,0.0,0.0,-0.6,0.0,0.0056035518646240234,0.00945425033569336,0
1.5295746326446533,-0.02388708107173443,-0.012440347112715244,-0.4837534427642822,0.043883634431227926,-0.5522570434757909,0.06065081963786881,-0.07935148508223691,-0.2805136151611504,0.0,0.0,-0.6,0.0,0.0011036396026611328,0.00500035285949707,0
1.5381956100463867,-0.02388044260442257,-0.012081779539585114,-0.4844931960105896,0.043196447695322104,-0.5521942538388384,0.02853740904086524,-0.10052936280697597,-0.2761412060515629,0.0,0.0,-0.6,0.0,0.005431175231933594,0.009422540664672852,0
1.5489213466644287,-0.02388044260442257,-0.012081779539585114,-0.4844931960105896,0.043196447695322104,-0.5521942538388384,0.02853740904086524,-0.10052936280697597,-0.2761412060515629,0.0,0.0,-0.6,0.0,0.0011446475982666016,0.004729509353637695,0
1.5583174228668213,-0.02387619949877262,-0.011659189127385616,-0.4851253926753998,0.04249966972839452,-0.5510515344363279,0.007294481476805717,-0.02665426503312304,-0.2717156367864436,0.0,0.0,-0.6,0.0,0.0055179595947265625,0.009760141372680664,0
1.5694711208343506,-0.02387619949877262,-0.011659189127385616,-0.4851253926753998,0.04249966972839452,-0.5510515344363279,0.007294481476805717,-0.02665426503312304,-0.2717156367864436,0.0,0.0,-0.6,0.0,0.0012204647064208984,0.0051136016845703125,0
1.578200101852417,-0.023916194215416908,-0.011245138943195343,-0.4858449101448059,0.04187314919935128,-0.5509294840954723,-0.10728073799206281,-0.0398058586043579,-0.2678391359269716,0.0,0.0,-0.6,0.0,0.005463600158691406,0.009419441223144531,0
1.588928461074829,-0.023916194215416908,-0.011245138943195343,-0.4858449101448059,0.04187314919935128,-0.5509294840954723,-0.10728073799206281,-0.0398058586043579,-0.2678391359269716,0.0,0.0,-0.6,0.0,0.0011777877807617188,0.004964113235473633,0
1.5987021923065186,-0.02388661541044712,-0.010816682130098343,-0.4864422082901001,0.04115015359518252,-0.55270967956255,-0.015735846047385833,0.011050012847851613,-0.26311770160628756,0.0,0.0,-0.6,0.0,0.005727529525756836,0.00979757308959961,0
1.6098616123199463,-0.02388661541044712,-0.010816682130098343,-0.4864422082901001,0.04115015359518252,-0.55270967956255,-0.015735846047385833,0.011050012847851613,-0.26311770160628756,0.0,0.0,-0.6,0.0,0.0010695457458496094,0.0051801204681396484,0
1.618929386138916,-0.024003557860851288,-0.010371162556111813,-0.48699259757995605,0.040508947381336216,-0.553132199552636,-0.008762945355383873,-0.012447727338198624,-0.2590155530098821,0.0,0.0,-0.6,0.0,0.005300045013427734,0.009226560592651367,0
1.629490852355957,-0.024003557860851288,-0.010371162556111813,-0.48699259757995605,0.040508947381336216,-0.553132199552636,-0.008762945355383873,-0.012447727338198624,-0.2590155530098821,0.0,0.0,-0.6,0.0,0.001093149185180664,0.005034685134887695,0
1.6382458209991455,-0.02402721904218197,-0.00992769468575716,-0.48747438192367554,0.03983336252419517,-0.5531704363233824,0.026233818052388832,-0.041488650895804766,-0.2546578550855524,0.0,0.0,-0.6,0.0,0.005460500717163086,0.009219884872436523,0
1.648820400238037,-0.02402721904218197,-0.00992769468575716,-0.48747438192367554,0.03983336252419517,-0.5531704363233824,0.026233818052388832,-0.041488650895804766,-0.2546578550855524,0.0,0.0,-0.6,0.0,0.001077413558959961,0.004647970199584961,0
1.6583704948425293,-0.02406877651810646,-0.009518325328826904,-0.4879469573497772,0.03921684349894656,-0.554570646533676,-0.06375764797433298,-0.05586817046918901,-0.2508560162251155,0.0,0.0,-0.6,0.0,0.005594015121459961,0.009418249130249023,0
1.6691598892211914,-0.02406877651810646,-0.009518325328826904,-0.4879469573497772,0.03921684349894656,-0.554570646533676,-0.06375764797433298,-0.05586817046918901,-0.2508560162251155,0.0,0.0,-0.6,0.0,0.0011644363403320312,0.005074024200439453,0
1.6788082122802734,-0.02412956766784191,-0.009157397784292698,-0.4882354438304901,0.038664895174237504,-0.5550142832859036,-0.041368518588054196,-0.04597064836573997,-0.2472929316790047,0.0,0.0,-0.6,0.0,0.0056781768798828125,0.009741067886352539,0
1.6897525787353516,-0.02412956766784191,-0.009157397784292698,-0.4882354438304901,0.038664895174237504,-0.5550142832859036,-0.041368518588054196,-0.04597064836573997,-0.2472929316790047,0.0,0.0,-0.6,0.0,0.0011012554168701172,0.004671573638916016,0
1.6988518238067627,-0.024248166009783745,-0.008741406723856926,-0.48841550946235657,0.03813063524034778,-0.5542828496796417,-0.064828344411248,0.038175451683455645,-0.2438911055054755,0.0,0.0,-0.6,0.0,0.005721092224121094,0.00984048843383789,0
1.7100706100463867,-0.024248166009783745,-0.008741406723856926,-0.48841550946235657,0.03813063524034778,-0.5542828496796417,-0.064828344411248,0.038175451683455645,-0.2438911055054755,0.0,0.0,-0.6,0.0,0.0010738372802734375,0.004767179489135742,0
1.7182364463806152,-0.024324068799614906,-0.008349811658263206,-0.4887036979198456,0.03753502009188224,-0.5545294526437538,-0.08861545368116706,0.040400376064552095,-0.24012223580201414,0.0,0.0,-0.6,0.0,0.005518436431884766,0.009487390518188477,0
1.7290019989013672,-0.024324068799614906,-0.008349811658263206,-0.4887036979198456,0.03753502009188224,-0.5545294526437538,-0.08861545368116706,0.040400376064552095,-0.24012223580201414,0.0,0.0,-0.6,0.0,0.0010819435119628906,0.0045778751373291016,0
1.7382440567016602,-0.024315577000379562,-0.007890709675848484,-0.4888424873352051,0.03690534538444935,-0.5551961803297372,-0.10352460045437685,0.06452588990364772,-0.23611613752021826,0.0,0.0,-0.6,0.0,0.006154060363769531,0.010712385177612305,0
1.7504863739013672,-0.024315577000379562,-0.007890709675848484,-0.4888424873352051,0.03690534538444935,-0.5551961803297372,-0.10352460045437685,0.06452588990364772,-0.23611613752021826,0.0,0.0,-0.6,0.0,0.0010459423065185547,0.004750251770019531,0
1.7581636905670166,-0.024386635050177574,-0.007411625701934099,-0.4889283776283264,0.03653319717057582,-0.5560196355453816,-0.10360239514512286,0.013891297413305215,-0.23376515759974004,0.0,0.0,-0.6,0.0,0.005495548248291016,0.009450435638427734,0
1.7689523696899414,-0.024386635050177574,-0.007411625701934099,-0.4889283776283264,0.03653319717057582,-0.5560196355453816,-0.10360239514512286,0.013891297413305215,-0.23376515759974004,0.0,0.0,-0.6,0.0,0.0011181831359863281,0.004736900329589844,0
1.7783117294311523,-0.024395737797021866,-0.007071154657751322,-0.48907384276390076,0.03612353048699873,-0.555058083590353,-0.03930483545195724,-0.014680388452807712,-0.2310501757523748,0.0,0.0,-0.6,0.0,0.006067752838134766,0.010460376739501953,0
1.7903385162353516,-0.024395737797021866,-0.007071154657751322,-0.48907384276390076,0.03612353048699873,-0.555058083590353,-0.03930483545195724,-0.014680388452807712,-0.2310501757523748,0.0,0.0,-0.6,0.0,0.0010645389556884766,0.004765033721923828,0
1.7986834049224854,-0.024377351626753807,-0.006638421211391687,-0.48925045132637024,0.03577024332150717,-0.5549357594781241,-0.014240381667503622,0.04229959810977833,-0.22872479945266236,0.0,0.0,-0.6,0.0,0.005491495132446289,0.00951695442199707,0
1.8096075057983398,-0.024377351626753807,-0.006638421211391687,-0.48925045132637024,0.03577024332150717,-0.5549357594781241,-0.014240381667503622,0.04229959810977833,-0.22872479945266236,0.0,0.0,-0.6,0.0,0.0010914802551269531,0.005006074905395508,0
1.8184106349945068,-0.024405010044574738,-0.006295818369835615,-0.4894659221172333,0.035528330928449724,-0.5539118869185418,-0.046240085388991645,0.03372937313844176,-0.22723719774363244,0.0,0.0,-0.6,0.0,0.0054280757904052734,0.009280204772949219,0
1.8289875984191895,-0.024405010044574738,-0.006295818369835615,-0.4894659221172333,0.035528330928449724,-0.5539118869185418,-0.046240085388991645,0.03372937313844176,-0.22723719774363244,0.0,0.0,-0.6,0.0,0.0011246204376220703,0.005277872085571289,0
1.83817720413208,-0.02439451403915882,-0.005969380959868431,-0.48974132537841797,0.03519346001139874,-0.5522641136115639,-0.08568766903252238,0.05069474128658809,-0.2251584793890087,0.0,0.0,-0.6,0.0,0.005609750747680664,0.009667634963989258,0
1.8492145538330078,-0.02439451403915882,-0.005969380959868431,-0.48974132537841797,0.03519346001139874,-0.5522641136115639,-0.08568766903252238,0.05069474128658809,-0.2251584793890087,0.0,0.0,-0.6,0.0,0.0010943412780761719,0.004762172698974609,0
1.8582046031951904,-0.02439706027507782,-0.005721339490264654,-0.4900519847869873,0.0348346119557836,-0.5531821920725585,-0.05947473449450775,0.06904400957927122,-0.22281942532884258,0.0,0.0,-0.6,0.0,0.00569462776184082,0.00965571403503418,0
1.8694202899932861,-0.02439706027507782,-0.005721339490264654,-0.4900519847869873,0.0348346119557836,-0.5531821920725585,-0.05947473449450775,0.06904400957927122,-0.22281942532884258,0.0,0.0,-0.6,0.0,0.0011222362518310547,0.005425930023193359,0
1.8786609172821045,-0.024458907544612885,-0.0055404119193553925,-0.49023768305778503,0.03457719733747425,-0.553901568528491,0.06787636908547194,0.05182459447732752,-0.22095800927717005,0.0,0.0,-0.6,0.0,0.0057220458984375,0.00965261459350586,0
1.8895864486694336,-0.024458907544612885,-0.0055404119193553925,-0.49023768305778503,0.03457719733747425,-0.553901568528491,0.06787636908547194,0.05182459447732752,-0.22095800927717005,0.0,0.0,-0.6,0.0,0.001049041748046875,0.004725217819213867,0
1.8988316059112549,-0.024572499096393585,-0.005372342653572559,-0.4905044436454773,0.03433400044611774,-0.5537575760326555,0.0915128624788814,0.04110300887581313,-0.21936856122859483,0.0,0.0,-0.6,0.0,0.004634380340576172,0.00856471061706543,0
1.9088678359985352,-0.024572499096393585,-0.005372342653572559,-0.4905044436454773,0.03433400044611774,-0.5537575760326555,0.0915128624788814,0.04110300887581313,-0.21936856122859483,0.0,0.0,-0.6,0.0,0.0011172294616699219,0.004853963851928711,0
1.9184305667877197,-0.024462537840008736,-0.0052445330657064915,-0.4908251464366913,0.034062516651029204,-0.5539442970089201,0.08611942032691597,-0.03058966151620284,-0.21761800419829505,0.0,0.0,-0.6,0.0,0.005715847015380859,0.00990605354309082,0
1.9297676086425781,-0.024462537840008736,-0.0052445330657064915,-0.4908251464366913,0.034062516651029204,-0.5539442970089201,0.08611942032691597,-0.03058966151620284,-0.21761800419829505,0.0,0.0,-0.6,0.0,0.0011358261108398438,0.0052280426025390625,0
1.9383134841918945,-0.024511318653821945,-0.0049966140650212765,-0.4909900724887848,0.03387093254482411,-0.5552755850916878,0.08761622155587227,-0.02426764988821782,-0.2163944987572891,0.0,0.0,-0.6,0.0,0.005467653274536133,0.00946187973022461,0
1.9491159915924072,-0.024511318653821945,-0.0049966140650212765,-0.4909900724887848,0.03387093254482411,-0.5552755850916878,0.08761622155587227,-0.02426764988821782,-0.2163944987572891,0.0,0.0,-0.6,0.0,0.0010657310485839844,0.004868030548095703,0
1.9583673477172852,-0.024598656222224236,-0.0049161347560584545,-0.4911380708217621,0.03364933765623158,-0.5531822246095018,0.09943757856871151,0.003956406801255095,-0.2149782005238038,0.0,0.0,-0.6,0.0,0.005843639373779297,0.01031494140625,0
1.9704244136810303,-0.024598656222224236,-0.0049161347560584545,-0.4911380708217621,0.03364933765623158,-0.5531822246095018,0.09943757856871151,0.003956406801255095,-0.2149782005238038,0.0,0.0,-0.6,0.0,0.0013127326965332031,0.005709171295166016,0
1.978501558303833,-0.02453584223985672,-0.00466430839151144,-0.4913614094257355,0.033377454836428476,-0.5533908595381161,0.15443134217984522,0.0667906323533544,-0.21320373963015787,0.0,0.0,-0.6,0.0,0.005496501922607422,0.009604930877685547,0
1.9900057315826416,-0.024590231478214264,-0.004473756067454815,-0.4915371537208557,0.03310447460247,-0.5550384577877208,0.15915216102870594,-0.028685033736711198,-0.21140990414582686,0.0,0.0,-0.6,0.0,0.0053751468658447266,0.009160041809082031,0
2.0016305446624756,-0.024590231478214264,-0.004473756067454815,-0.4915371537208557,0.03310447460247,-0.5550384577877208,0.15915216102870594,-0.028685033736711198,-0.21140990414582686,0.0,0.0,-0.6,0.0,0.001062154769897461,0.004960536956787109,0
2.0087180137634277,-0.024611618369817734,-0.004324409179389477,-0.49158090353012085,0.03295863740507643,-0.5552549393045859,0.1310382035355883,-0.03249715175438561,-0.21052258677744584,0.0,0.0,-0.6,0.0,0.005475044250488281,0.00947713851928711,0
2.0195255279541016,-0.024611618369817734,-0.004324409179389477,-0.49158090353012085,0.03295863740507643,-0.5552549393045859,0.1310382035355883,-0.03249715175438561,-0.21052258677744584,0.0,0.0,-0.6,0.0,0.0010542869567871094,0.004790306091308594,0
2.0281968116760254,-0.024429939687252045,-0.004075862001627684,-0.4919885993003845,0.03268802971937386,-0.5547620801831,0.0703004744744413,-0.036861464716776975,-0.20887419101434324,0.0,0.0,-0.6,0.0,0.00558781623840332,0.009521245956420898,0
2.039114475250244,-0.024429939687252045,-0.004075862001627684,-0.4919885993003845,0.03268802971937386,-0.5547620801831,0.0703004744744413,-0.036861464716776975,-0.20887419101434324,0.0,0.0,-0.6,0.0,0.0011086463928222656,0.004800558090209961,0
2.0492923259735107,-0.024324582889676094,-0.003972592297941446,-0.4921112060546875,0.032524389581029434,-0.5544902773647121,0.08078899592203063,-0.04001801520846282,-0.20781418490768158,0.0,0.0,-0.6,0.0,0.0058405399322509766,0.00982522964477539,0
2.0605530738830566,-0.024324582889676094,-0.003972592297941446,-0.4921112060546875,0.032524389581029434,-0.5544902773647121,0.08078899592203063,-0.04001801520846282,-0.20781418490768158,0.0,0.0,-0.6,0.0,0.001142263412475586,0.00503087043762207,0
2.068594455718994,-0.024265455082058907,-0.0038295562844723463,-0.49231165647506714,0.03237619800867863,-0.5530097712403171,0.05505141722947887,0.05298175573662337,-0.2069388270521925,0.0,0.0,-0.6,0.0,0.005591869354248047,0.009519100189208984,0
2.079545021057129,-0.024265455082058907,-0.0038295562844723463,-0.49231165647506714,0.03237619800867863,-0.5530097712403171,0.05505141722947887,0.05298175573662337,-0.2069388270521925,0.0,0.0,-0.6,0.0,0.0010564327239990234,0.004651784896850586,0
2.0885872840881348,-0.024108583107590675,-0.00371781294234097,-0.49250325560569763,0.03208144108091733,-0.5537221143574246,0.11654722611646641,0.05822792127382042,-0.2049630738617925,0.0,0.0,-0.6,0.0,0.005474567413330078,0.00949406623840332,0
2.100010395050049,-0.024108583107590675,-0.00371781294234097,-0.49250325560569763,0.03208144108091733,-0.5537221143574246,0.11654722611646641,0.05822792127382042,-0.2049630738617925,0.0,0.0,-0.6,0.0,0.0010683536529541016,0.004755973815917969,0
2.1081838607788086,-0.024097345769405365,-0.0035912739112973213,-0.49259498715400696,0.031982526247381765,-0.5543641977085519,0.06694288949073447,0.022872655897695885,-0.2043946386188413,0.0,0.0,-0.6,0.0,0.005447864532470703,0.00933218002319336,0
2.119006395339966,-0.024097345769405365,-0.0035912739112973213,-0.49259498715400696,0.031982526247381765,-0.5543641977085519,0.06694288949073447,0.022872655897695885,-0.2043946386188413,0.0,0.0,-0.6,0.0,0.0010616779327392578,0.004962444305419922,0
2.128450870513916,-0.023900650441646576,-0.003485250985249877,-0.4928818941116333,0.031889640109813995,-0.5534741609871411,0.04086213063139745,-0.03392460098673881,-0.20383830056301197,0.0,0.0,-0.6,0.0,0.005509853363037109,0.009189128875732422,0
2.1388885974884033,-0.023900650441646576,-0.003485250985249877,-0.4928818941116333,0.031889640109813995,-0.5534741609871411,0.04086213063139745,-0.03392460098673881,-0.20383830056301197,0.0,0.0,-0.6,0.0,0.0010533332824707031,0.004666328430175781,0
2.148642063140869,-0.023732827976346016,-0.003314921399578452,-0.4931032955646515,0.031911582891983176,-0.5539932734367546,0.028885670353832073,0.02741386948744772,-0.2039952305705373,0.0,0.0,-0.6,0.0,0.005655765533447266,0.009445905685424805,0
2.1593594551086426,-0.023732827976346016,-0.003314921399578452,-0.4931032955646515,0.031911582891983176,-0.5539932734367546,0.028885670353832073,0.02741386948744772,-0.2039952305705373,0.0,0.0,-0.6,0.0,0.0010540485382080078,0.004704952239990234,0
2.168816328048706,-0.02369445376098156,-0.003275043796747923,-0.493245929479599,0.031998795364524255,-0.5534047661853618,-0.02333769809468741,0.04202025338955318,-0.20463200284282412,0.0,0.0,-0.6,0.0,0.0056345462799072266,0.00943446159362793,0
2.179699659347534,-0.02369445376098156,-0.003275043796747923,-0.493245929479599,0.031998795364524255,-0.5534047661853618,-0.02333769809468741,0.04202025338955318,-0.20463200284282412,0.0,0.0,-0.6,0.0,0.001065969467163086,0.005044698715209961,0
2.188544511795044,-0.0235244482755661,-0.0031483133789151907,-0.49342629313468933,0.0318956888686781,-0.5529705388001226,-0.014384650666751035,0.11217102378691049,-0.20392955837724813,0.0,0.0,-0.6,0.0,0.005653858184814453,0.009521007537841797,0
2.1999669075012207,-0.0235244482755661,-0.0031483133789151907,-0.49342629313468933,0.0318956888686781,-0.5529705388001226,-0.014384650666751035,0.11217102378691049,-0.20392955837724813,0.0,0.0,-0.6,0.0,0.0010972023010253906,0.004810333251953125,0
2.208181142807007,-0.02342846989631653,-0.0030524972826242447,-0.4934881329536438,0.03177437749717184,-0.5552055146768661,-0.07793505797026196,0.07135117842728284,-0.20327316693662503,0.0,0.0,-0.6,0.0,0.0059757232666015625,0.00989389419555664,0
2.21962308883667,-0.02342846989631653,-0.0030524972826242447,-0.4934881329536438,0.03177437749717184,-0.5552055146768661,-0.07793505797026196,0.07135117842728284,-0.20327316693662503,0.0,0.0,-0.6,0.0,0.0011811256408691406,0.005063295364379883,0
2.228172540664673,-0.023342566564679146,-0.002995545044541359,-0.493412584066391,0.03185121057267347,-0.5553528388765651,-0.05449535495886984,0.042274194769152854,-0.20374298239543054,0.0,0.0,-0.6,0.0,0.006042003631591797,0.009755373001098633,0
2.239365577697754,-0.023342566564679146,-0.002995545044541359,-0.493412584066391,0.03185121057267347,-0.5553528388765651,-0.05449535495886984,0.042274194769152854,-0.20374298239543054,0.0,0.0,-0.6,0.0,0.001112222671508789,0.004859447479248047,0
2.248176097869873,-0.02322794497013092,-0.002876024227589369,-0.4933496117591858,0.03197515181374987,-0.5570062703910296,-0.07247606452618105,0.05536179070856537,-0.2045583548746688,0.0,0.0,-0.6,0.0,0.005997657775878906,0.010116815567016602,0
2.2597079277038574,-0.02322794497013092,-0.002876024227589369,-0.4933496117591858,0.03197515181374987,-0.5570062703910296,-0.07247606452618105,0.05536179070856537,-0.2045583548746688,0.0,0.0,-0.6,0.0,0.0010688304901123047,0.004904508590698242,0
2.2682011127471924,-0.023010585457086563,-0.0027076308615505695,-0.4932318925857544,0.03193254564390257,-0.5564123733943389,-0.02428183422517937,0.06918089432219235,-0.20419248011429045,0.0,0.0,-0.6,0.0,0.006031036376953125,0.009905099868774414,0
2.279442071914673,-0.023010585457086563,-0.0027076308615505695,-0.4932318925857544,0.03193254564390257,-0.5564123733943389,-0.02428183422517937,0.06918089432219235,-0.20419248011429045,0.0,0.0,-0.6,0.0,0.0011224746704101562,0.0050296783447265625,0
2.2882003784179688,-0.02295306883752346,-0.002533592749387026,-0.4928060472011566,0.03193705267940527,-0.5585157520464997,-0.1413661698631271,0.06844749304700247,-0.20442819192284484,0.0,0.0,-0.6,0.0,0.0059397220611572266,0.009775400161743164,0
2.3000340461730957,-0.02295306883752346,-0.002533592749387026,-0.4928060472011566,0.03193705267940527,-0.5585157520464997,-0.1413661698631271,0.06844749304700247,-0.20442819192284484,0.0,0.0,-0.6,0.0,0.0011279582977294922,0.005120992660522461,0
2.3081679344177246,-0.022850623354315758,-0.00242811581119895,-0.49233368039131165,0.03199662309385064,-0.5580396580184767,-0.17434365600893165,0.08378200377263903,-0.2048592205378963,0.0,0.0,-0.6,0.0,0.005517721176147461,0.009572267532348633,0
2.3191351890563965,-0.022850623354315758,-0.00242811581119895,-0.49233368039131165,0.03199662309385064,-0.5580396580184767,-0.17434365600893165,0.08378200377263903,-0.2048592205378963,0.0,0.0,-0.6,0.0,0.0010502338409423828,0.004937648773193359,0
2.3282675743103027,-0.022665757685899734,-0.002201826311647892,-0.49179747700691223,0.03201276860892956,-0.5592011614650578,-0.16228525146408088,0.21114956290074977,-0.20480859314241123,0.0,0.0,-0.6,0.0,0.005788087844848633,0.009533405303955078,0
2.339331865310669,-0.022665757685899734,-0.002201826311647892,-0.49179747700691223,0.03201276860892956,-0.5592011614650578,-0.16228525146408088,0.21114956290074977,-0.20480859314241123,0.0,0.0,-0.6,0.0,0.0011265277862548828,0.005186557769775391,0
2.3481810092926025,-0.02256868965923786,-0.0020401098299771547,-0.4911035895347595,0.0317728141870958,-0.5612173888310136,-0.1599197320996514,0.11568082598057611,-0.20337420473209233,0.0,0.0,-0.6,0.0,0.00551605224609375,0.009095907211303711,0
2.3586294651031494,-0.02256868965923786,-0.0020401098299771547,-0.4911035895347595,0.0317728141870958,-0.5612173888310136,-0.1599197320996514,0.11568082598057611,-0.20337420473209233,0.0,0.0,-0.6,0.0,0.001039266586303711,0.004683732986450195,0
2.368553400039673,-0.02255338430404663,-0.0018952719401568174,-0.4902421236038208,0.03152829797806866,-0.5626089063465343,-0.14044765884968388,0.06933049732416302,-0.2018163404216666,0.0,0.0,-0.6,0.0,0.005446672439575195,0.00951075553894043,0
2.379127025604248,-0.02255338430404663,-0.0018952719401568174,-0.4902421236038208,0.03152829797806866,-0.5626089063465343,-0.14044765884968388,0.06933049732416302,-0.2018163404216666,0.0,0.0,-0.6,0.0,0.0011203289031982422,0.0055389404296875,0
2.38862943649292,-0.02243616245687008,-0.0017455067718401551,-0.4895090162754059,0.03138339651125398,-0.5628174730515115,-0.14742959323245025,0.048802487500329055,-0.20091380804469855,0.0,0.0,-0.6,0.0,0.005608797073364258,0.009406566619873047,0
2.3999829292297363,-0.02243616245687008,-0.0017455067718401551,-0.4895090162754059,0.03138339651125398,-0.5628174730515115,-0.14742959323245025,0.048802487500329055,-0.20091380804469855,0.0,0.0,-0.6,0.0,0.0010993480682373047,0.0049915313720703125,0
2.408158302307129,-0.0223657488822937,-0.0016059003537520766,-0.4886557161808014,0.031324036504213296,-0.5633252137438491,-0.11690399406301935,0.010168333982303499,-0.20050133077451654,0.0,0.0,-0.6,0.0,0.0052373409271240234,0.009037017822265625,0
2.4186296463012695,-0.0223657488822937,-0.0016059003537520766,-0.4886557161808014,0.031324036504213296,-0.5633252137438491,-0.11690399406301935,0.010168333982303499,-0.20050133077451654,0.0,0.0,-0.6,0.0,0.0010390281677246094,0.00466609001159668,0
2.4285757541656494,-0.022383607923984528,-0.0014399144565686584,-0.48786458373069763,0.03099586227930986,-0.5616252546778379,-0.10236896473447525,0.04012861293461354,-0.19833364090052177,0.0,0.0,-0.6,0.0,0.005602359771728516,0.010386466979980469,0
2.4407055377960205,-0.022383607923984528,-0.0014399144565686584,-0.48786458373069763,0.03099586227930986,-0.5616252546778379,-0.10236896473447525,0.04012861293461354,-0.19833364090052177,0.0,0.0,-0.6,0.0,0.0013346672058105469,0.0055789947509765625,0
