time,x,y,z,yaw,throttle,roll_rate,pitch_rate,yaw_rate,x_ref,y_ref,z_ref,yaw_ref,mpc_time,ctrl_callback_time_history,metadata
4.0531158447265625e-06,0.0030351148452609777,0.039019159972667694,-0.2429436445236206,0.07886712133180733,-0.6352876861659362,-0.3340315994321909,0.11811637389068821,-0.5043685580909982,0.0,0.0,-0.6,0.0,0.016764163970947266,0.0208282470703125,Hardware
0.02214336395263672,0.0030351148452609777,0.039019159972667694,-0.2429436445236206,0.07886712133180733,-0.6352876861659362,-0.3340315994321909,0.11811637389068821,-0.5043685580909982,0.0,0.0,-0.6,0.0,0.0010728836059570312,0.005155801773071289,2x Speed
0.03020620346069336,0.003078627632930875,0.03902038559317589,-0.24292483925819397,0.07885032157384712,-0.6352876861428407,-0.33760075772226306,0.11256051119830017,-0.5042632127917771,0.0,0.0,-0.6,0.0,0.007445335388183594,0.011219024658203125,Horizon:3.0
0.04281163215637207,0.003078627632930875,0.03902038559317589,-0.24292483925819397,0.07885032157384712,-0.6352876861428407,-0.33760075772226306,0.11256051119830017,-0.5042632127917771,0.0,0.0,-0.6,0.0,0.0011222362518310547,0.004851102828979492,Num Steps:20
0.04976677894592285,0.0030926621984690428,0.0390363484621048,-0.24291983246803284,0.07887572909836343,-0.6352876859922598,-0.33519246534295544,0.11728476425242812,-0.504423870113973,0.0,0.0,-0.6,0.0,0.007566928863525391,0.011311769485473633,No Pyjoules
0.06300067901611328,0.0030926621984690428,0.0390363484621048,-0.24291983246803284,0.07887572909836343,-0.6352876859922598,-0.33519246534295544,0.11728476425242812,-0.504423870113973,0.0,0.0,-0.6,0.0,0.0011060237884521484,0.004840850830078125,0
0.06987571716308594,0.0031143862288445234,0.039044447243213654,-0.24292223155498505,0.07863740504310085,-0.6352876861000372,-0.3354072461094603,0.108401413691355,-0.5029021383913233,0.0,0.0,-0.6,0.0,0.007375240325927734,0.011068582534790039,0
0.08239412307739258,0.0031143862288445234,0.039044447243213654,-0.24292223155498505,0.07863740504310085,-0.6352876861000372,-0.3354072461094603,0.108401413691355,-0.5029021383913233,0.0,0.0,-0.6,0.0,0.0010874271392822266,0.00497746467590332,0
0.08976268768310547,0.003104924689978361,0.039072323590517044,-0.24295099079608917,0.07856925000743752,-0.6352876860742417,-0.34026093530339874,0.09704737022820203,-0.5024703502401694,0.0,0.0,-0.6,0.0,0.007369518280029297,0.011049270629882812,0
0.10282111167907715,0.003104924689978361,0.039072323590517044,-0.24295099079608917,0.07856925000743752,-0.6352876860742417,-0.34026093530339874,0.09704737022820203,-0.5024703502401694,0.0,0.0,-0.6,0.0,0.0011506080627441406,0.004869222640991211,0
0.11016678810119629,0.003046533325687051,0.03910049423575401,-0.2430056780576706,0.07799128760359934,-0.635287685703823,-0.3313617174728198,0.09536520384788319,-0.49876772366736605,0.0,0.0,-0.6,0.0,0.007288455963134766,0.011101007461547852,0
0.12266874313354492,0.003046533325687051,0.03910049423575401,-0.2430056780576706,0.07799128760359934,-0.635287685703823,-0.3313617174728198,0.09536520384788319,-0.49876772366736605,0.0,0.0,-0.6,0.0,0.0010676383972167969,0.004933834075927734,0
0.1300830841064453,0.003029031213372946,0.0391019731760025,-0.24306409060955048,0.07747825932783747,-0.6352876855637282,-0.31611248028453875,0.08595915119509309,-0.49548889230290927,0.0,0.0,-0.6,0.0,0.007523775100708008,0.011336803436279297,0
0.1433277130126953,0.003025157144293189,0.03911319375038147,-0.24323412775993347,0.07717809540826695,-0.6352876842324654,-0.3149489611446944,0.11868622477648119,-0.49355237056979395,0.0,0.0,-0.6,0.0,0.008719921112060547,0.012560844421386719,0
0.1578655242919922,0.003025157144293189,0.03911319375038147,-0.24323412775993347,0.07717809540826695,-0.6352876842324654,-0.3149489611446944,0.11868622477648119,-0.49355237056979395,0.0,0.0,-0.6,0.0,0.0011219978332519531,0.004797697067260742,0
0.16481256484985352,0.0030951863154768944,0.03899255394935608,-0.24350951611995697,0.07740876991955321,-0.6352876748188234,-0.29347220551866615,0.12061371889259417,-0.4950265714278564,0.0,0.0,-0.6,0.0,0.007683753967285156,0.01169896125793457,0
0.1784977912902832,0.0030951863154768944,0.03899255394935608,-0.24350951611995697,0.07740876991955321,-0.6352876748188234,-0.29347220551866615,0.12061371889259417,-0.4950265714278564,0.0,0.0,-0.6,0.0,0.0010933876037597656,0.005007266998291016,0
0.1888115406036377,0.003253999864682555,0.038286495953798294,-0.24456830322742462,0.07629429663583155,-0.6352876251962569,-0.12562221966178888,0.14246409237014723,-0.4878846722505344,0.0,0.0,-0.6,0.0,0.008852005004882812,0.012798070907592773,0
0.203521728515625,0.003253999864682555,0.038286495953798294,-0.24456830322742462,0.07629429663583155,-0.6352876251962569,-0.12562221966178888,0.14246409237014723,-0.4878846722505344,0.0,0.0,-0.6,0.0,0.0011010169982910156,0.004879474639892578,0
0.2109527587890625,0.00332157826051116,0.03792477771639824,-0.2452310472726822,0.07558100579262687,-0.6334837189456749,-0.04630810880749997,0.12149238511271601,-0.48332903295120605,0.0,0.0,-0.6,0.0,0.006651878356933594,0.010522603988647461,0
0.2234477996826172,0.003355906344950199,0.03709477558732033,-0.24687473475933075,0.07369121384310327,-0.6264173406862498,0.06569662849870402,0.13450325599881507,-0.4712558029882288,0.0,0.0,-0.6,0.0,0.00717616081237793,0.011342048645019531,0
0.23604226112365723,0.003355906344950199,0.03709477558732033,-0.24687473475933075,0.07369121384310327,-0.6264173406862498,0.06569662849870402,0.13450325599881507,-0.4712558029882288,0.0,0.0,-0.6,0.0,0.001102447509765625,0.004614591598510742,0
0.24295520782470703,0.003380012232810259,0.036042243242263794,-0.24942396581172943,0.07130722832626504,-0.6209568463716226,0.16575274740115925,0.16055196242587105,-0.4560517610735024,0.0,0.0,-0.6,0.0,0.006526947021484375,0.01011800765991211,0
0.2544538974761963,0.003380012232810259,0.036042243242263794,-0.24942396581172943,0.07130722832626504,-0.6209568463716226,0.16575274740115925,0.16055196242587105,-0.4560517610735024,0.0,0.0,-0.6,0.0,0.0010676383972167969,0.004971504211425781,0
0.26198267936706543,0.0032666127663105726,0.03486751392483711,-0.2527129054069519,0.06845279163216289,-0.6131437847620015,0.2717546468506986,0.11555693977719544,-0.4377691915011098,0.0,0.0,-0.6,0.0,0.006766080856323242,0.0107574462890625,0
0.27418065071105957,0.0032666127663105726,0.03486751392483711,-0.2527129054069519,0.06845279163216289,-0.6131437847620015,0.2717546468506986,0.11555693977719544,-0.4377691915011098,0.0,0.0,-0.6,0.0,0.0011031627655029297,0.004963874816894531,0
0.2814340591430664,0.0031362806912511587,0.033604636788368225,-0.2568136751651764,0.06520382842905997,-0.6062518115969812,0.29520202243900984,0.0971186812299258,-0.4170035661122406,0.0,0.0,-0.6,0.0,0.006552457809448242,0.010492563247680664,0
0.2933621406555176,0.0031362806912511587,0.033604636788368225,-0.2568136751651764,0.06520382842905997,-0.6062518115969812,0.29520202243900984,0.0971186812299258,-0.4170035661122406,0.0,0.0,-0.6,0.0,0.0010733604431152344,0.004826068878173828,0
0.3012089729309082,0.002974678063765168,0.03233391419053078,-0.26180315017700195,0.06170870110148322,-0.5985715437170858,0.349203338214264,0.09312426737204547,-0.39465372150635425,0.0,0.0,-0.6,0.0,0.006411314010620117,0.01021718978881836,0
0.3127615451812744,0.002974678063765168,0.03233391419053078,-0.26180315017700195,0.06170870110148322,-0.5985715437170858,0.349203338214264,0.09312426737204547,-0.39465372150635425,0.0,0.0,-0.6,0.0,0.0011174678802490234,0.004941225051879883,0
0.3200418949127197,0.0028233202174305916,0.03103598766028881,-0.2675726115703583,0.05795793160105956,-0.5897908559114121,0.3596042366494069,0.04828172169999247,-0.3705968343908078,0.0,0.0,-0.6,0.0,0.006564617156982422,0.010345935821533203,0
0.33179688453674316,0.0028233202174305916,0.03103598766028881,-0.2675726115703583,0.05795793160105956,-0.5897908559114121,0.3596042366494069,0.04828172169999247,-0.3705968343908078,0.0,0.0,-0.6,0.0,0.0011491775512695312,0.004983663558959961,0
0.338836669921875,0.0026416254695504904,0.029605569317936897,-0.274089515209198,0.05385536962454459,-0.5807789901126179,0.4053572520936166,0.07365474917598415,-0.34440269024765563,0.0,0.0,-0.6,0.0,0.006661415100097656,0.010321617126464844,0
0.3510169982910156,0.0026416254695504904,0.029605569317936897,-0.274089515209198,0.05385536962454459,-0.5807789901126179,0.4053572520936166,0.07365474917598415,-0.34440269024765563,0.0,0.0,-0.6,0.0,0.0011305809020996094,0.0048334598541259766,0
0.35929059982299805,0.0024389438331127167,0.028017161414027214,-0.2813137173652649,0.04954248988807098,-0.5728219889729448,0.48495386611515084,0.04237378440690149,-0.3167647391521514,0.0,0.0,-0.6,0.0,0.006547212600708008,0.010303258895874023,0
0.3714003562927246,0.0024389438331127167,0.028017161414027214,-0.2813137173652649,0.04954248988807098,-0.5728219889729448,0.48495386611515084,0.04237378440690149,-0.3167647391521514,0.0,0.0,-0.6,0.0,0.0010912418365478516,0.004904985427856445,0
0.37845945358276367,0.002197314752265811,0.026309402659535408,-0.28915935754776,0.04479661976016973,-0.5657239150608716,0.4834595942644737,0.020884680866940848,-0.2864228062166798,0.0,0.0,-0.6,0.0,0.006552934646606445,0.010489940643310547,0
0.3907930850982666,0.002197314752265811,0.026309402659535408,-0.28915935754776,0.04479661976016973,-0.5657239150608716,0.4834595942644737,0.020884680866940848,-0.2864228062166798,0.0,0.0,-0.6,0.0,0.0011348724365234375,0.0050008296966552734,0
0.3990771770477295,0.002071692841127515,0.025386331602931023,-0.29338350892066956,0.04245243228123283,-0.5615157375007819,0.47096919969964446,0.004747287296334135,-0.27142186514819105,0.0,0.0,-0.6,0.0,0.0055255889892578125,0.009424448013305664,0
0.41057372093200684,0.0017560189589858055,0.023677324876189232,-0.3018893897533417,0.038040682770023856,-0.5558380680636632,0.4540950669715876,-0.018448368749997265,-0.2432056310413047,0.0,0.0,-0.6,0.0,0.006653308868408203,0.010521888732910156,0
0.4230520725250244,0.0017560189589858055,0.023677324876189232,-0.3018893897533417,0.038040682770023856,-0.5558380680636632,0.4540950669715876,-0.018448368749997265,-0.2432056310413047,0.0,0.0,-0.6,0.0,0.0011110305786132812,0.0048999786376953125,0
0.4300966262817383,0.001383537775836885,0.021880758926272392,-0.3108499348163605,0.03389570971692299,-0.5521316801994423,0.42413717205729584,-0.12094142895068363,-0.2166445772261217,0.0,0.0,-0.6,0.0,0.006610393524169922,0.01035451889038086,0
0.4424171447753906,0.001383537775836885,0.021880758926272392,-0.3108499348163605,0.03389570971692299,-0.5521316801994423,0.42413717205729584,-0.12094142895068363,-0.2166445772261217,0.0,0.0,-0.6,0.0,0.0010807514190673828,0.0049991607666015625,0
0.4494345188140869,0.0010090367868542671,0.02005745656788349,-0.32000991702079773,0.0300372363771299,-0.5462154370384646,0.39159896621886364,-0.12590540969338707,-0.19202847554275443,0.0,0.0,-0.6,0.0,0.006502866744995117,0.010149478912353516,0
0.461437463760376,0.0010090367868542671,0.02005745656788349,-0.32000991702079773,0.0300372363771299,-0.5462154370384646,0.39159896621886364,-0.12590540969338707,-0.19202847554275443,0.0,0.0,-0.6,0.0,0.0011341571807861328,0.005003929138183594,0
0.4684641361236572,0.0005534201045520604,0.01813281886279583,-0.3294036388397217,0.026316805010593754,-0.5438965023008321,0.31435245259235634,-0.12315671672840951,-0.16829526497671865,0.0,0.0,-0.6,0.0,0.0066738128662109375,0.010498523712158203,0
0.48083019256591797,0.0005534201045520604,0.01813281886279583,-0.3294036388397217,0.026316805010593754,-0.5438965023008321,0.31435245259235634,-0.12315671672840951,-0.16829526497671865,0.0,0.0,-0.6,0.0,0.0011413097381591797,0.0049822330474853516,0
0.48906469345092773,0.00010309345088899136,0.01623457670211792,-0.338744580745697,0.022694794940429346,-0.5399188013139467,0.2501888848015059,-0.06423946358566895,-0.1451432228879915,0.0,0.0,-0.6,0.0,0.006612539291381836,0.010568380355834961,0
0.5014593601226807,0.00010309345088899136,0.01623457670211792,-0.338744580745697,0.022694794940429346,-0.5399188013139467,0.2501888848015059,-0.06423946358566895,-0.1451432228879915,0.0,0.0,-0.6,0.0,0.0011143684387207031,0.005082368850708008,0
0.5085320472717285,-0.0003758479142561555,0.0144140450283885,-0.34816545248031616,0.019287611674477703,-0.536853216944504,0.16154041509281453,-0.061332429745344585,-0.12337932286221122,0.0,0.0,-0.6,0.0,0.006693363189697266,0.010551929473876953,0
0.5204379558563232,-0.0003758479142561555,0.0144140450283885,-0.34816545248031616,0.019287611674477703,-0.536853216944504,0.16154041509281453,-0.061332429745344585,-0.12337932286221122,0.0,0.0,-0.6,0.0,0.0011780261993408203,0.00494837760925293,0
0.528876781463623,-0.0008562842849642038,0.012758783996105194,-0.3574574887752533,0.01610324797735652,-0.5344519399251056,0.08113188434804412,-0.029631243072999754,-0.10300445795848323,0.0,0.0,-0.6,0.0,0.006619453430175781,0.010740518569946289,0
0.5408341884613037,-0.0008562842849642038,0.012758783996105194,-0.3574574887752533,0.01610324797735652,-0.5344519399251056,0.08113188434804412,-0.029631243072999754,-0.10300445795848323,0.0,0.0,-0.6,0.0,0.0010981559753417969,0.00501704216003418,0
0.5496978759765625,-0.0012516732094809413,0.01115027628839016,-0.3666682541370392,0.013186722279304902,-0.5323952098567196,0.010938719660478198,0.007142157098670414,-0.08431156201257939,0.0,0.0,-0.6,0.0,0.005528926849365234,0.009385824203491211,0
0.5605378150939941,-0.0012516732094809413,0.01115027628839016,-0.3666682541370392,0.013186722279304902,-0.5323952098567196,0.010938719660478198,0.007142157098670414,-0.08431156201257939,0.0,0.0,-0.6,0.0,0.0011134147644042969,0.005253314971923828,0
0.5687589645385742,-0.0016601050738245249,0.00956079550087452,-0.3757968842983246,0.01037761485411677,-0.5312274170995417,-0.05910134651078815,0.03217408890890196,-0.06632226559121822,0.0,0.0,-0.6,0.0,0.005786418914794922,0.009604930877685547,0
0.5796599388122559,-0.0016601050738245249,0.00956079550087452,-0.3757968842983246,0.01037761485411677,-0.5312274170995417,-0.05910134651078815,0.03217408890890196,-0.06632226559121822,0.0,0.0,-0.6,0.0,0.0010941028594970703,0.0049896240234375,0
0.5884907245635986,-0.002088415203616023,0.007984744384884834,-0.38475683331489563,0.007484969999351846,-0.5301452809705833,-0.11576490409002724,0.05247383499203388,-0.047807008614564286,0.0,0.0,-0.6,0.0,0.005531787872314453,0.009548664093017578,0
0.6001181602478027,-0.002088415203616023,0.007984744384884834,-0.38475683331489563,0.007484969999351846,-0.5301452809705833,-0.11576490409002724,0.05247383499203388,-0.047807008614564286,0.0,0.0,-0.6,0.0,0.0010504722595214844,0.005288124084472656,0
0.6084713935852051,-0.0025132601149380207,0.006410251837223768,-0.3935272693634033,0.004889573239933119,-0.5294198407517197,-0.16359321192322313,0.07190449894785197,-0.03119466921499165,0.0,0.0,-0.6,0.0,0.005545139312744141,0.00945591926574707,0
0.6193861961364746,-0.0025132601149380207,0.006410251837223768,-0.3935272693634033,0.004889573239933119,-0.5294198407517197,-0.16359321192322313,0.07190449894785197,-0.03119466921499165,0.0,0.0,-0.6,0.0,0.0010726451873779297,0.005026340484619141,0
0.6290614604949951,-0.002939823316410184,0.004880980122834444,-0.40207216143608093,0.002386401115271487,-0.5290111282473648,-0.20680283377728317,0.07659503721840637,-0.015229392162317902,0.0,0.0,-0.6,0.0,0.005660295486450195,0.00961923599243164,0
0.6400620937347412,-0.002939823316410184,0.004880980122834444,-0.40207216143608093,0.002386401115271487,-0.5290111282473648,-0.20680283377728317,0.07659503721840637,-0.015229392162317902,0.0,0.0,-0.6,0.0,0.0010743141174316406,0.0049495697021484375,0
0.6488256454467773,-0.0033840362448245287,0.0034153908491134644,-0.41040369868278503,0.0002470678309823897,-0.5285309386890144,-0.23361269491870718,0.08175567211215679,-0.0015869344812463244,0.0,0.0,-0.6,0.0,0.0055315494537353516,0.009437799453735352,0
0.6594445705413818,-0.0033840362448245287,0.0034153908491134644,-0.41040369868278503,0.0002470678309823897,-0.5285309386890144,-0.23361269491870718,0.08175567211215679,-0.0015869344812463244,0.0,0.0,-0.6,0.0,0.0011138916015625,0.005059719085693359,0
0.668503999710083,-0.003828982589766383,0.00205611577257514,-0.4184231162071228,-0.001616219424827526,-0.528512768543867,-0.23789045734723577,0.06859132091064733,0.010250625821244912,0.0,0.0,-0.6,0.0,0.005579710006713867,0.009589672088623047,0
0.6794304847717285,-0.003828982589766383,0.00205611577257514,-0.4184231162071228,-0.001616219424827526,-0.528512768543867,-0.23789045734723577,0.06859132091064733,0.010250625821244912,0.0,0.0,-0.6,0.0,0.0011162757873535156,0.005149364471435547,0
0.6885015964508057,-0.004292256198823452,0.0007789880037307739,-0.4262290298938751,-0.0034341403741973402,-0.528311232116103,-0.21992197437099328,0.05195635538436887,0.02182195172080124,0.0,0.0,-0.6,0.0,0.005570173263549805,0.0095367431640625,0
0.7001047134399414,-0.004292256198823452,0.0007789880037307739,-0.4262290298938751,-0.0034341403741973402,-0.528311232116103,-0.21992197437099328,0.05195635538436887,0.02182195172080124,0.0,0.0,-0.6,0.0,0.0011172294616699219,0.00498652458190918,0
0.7085227966308594,-0.004752208944410086,-0.0003910634550265968,-0.43383970856666565,-0.005042698530316969,-0.5287065208609435,-0.18752859338398445,0.024611827405394478,0.03205363483786364,0.0,0.0,-0.6,0.0,0.005572795867919922,0.009476423263549805,0
0.7193467617034912,-0.004752208944410086,-0.0003910634550265968,-0.43383970856666565,-0.005042698530316969,-0.5287065208609435,-0.18752859338398445,0.024611827405394478,0.03205363483786364,0.0,0.0,-0.6,0.0,0.0010912418365478516,0.0050771236419677734,0
0.7284622192382812,-0.005201020278036594,-0.001445010188035667,-0.44126439094543457,-0.006491519644659856,-0.5281258618951736,-0.14585224637300406,0.0021204658513771426,0.041308499789977846,0.0,0.0,-0.6,0.0,0.005561113357543945,0.00937795639038086,0
0.7392549514770508,-0.005201020278036594,-0.001445010188035667,-0.44126439094543457,-0.006491519644659856,-0.5281258618951736,-0.14585224637300406,0.0021204658513771426,0.041308499789977846,0.0,0.0,-0.6,0.0,0.0011401176452636719,0.005040168762207031,0
0.7485384941101074,-0.005594315938651562,-0.002371920272707939,-0.4484493136405945,-0.007744310737746177,-0.5276190188137556,-0.07889218859624333,-0.017307082834636563,0.04936343311262144,0.0,0.0,-0.6,0.0,0.0056264400482177734,0.009708881378173828,0
0.7596292495727539,-0.005594315938651562,-0.002371920272707939,-0.4484493136405945,-0.007744310737746177,-0.5276190188137556,-0.07889218859624333,-0.017307082834636563,0.04936343311262144,0.0,0.0,-0.6,0.0,0.001172780990600586,0.0052645206451416016,0
0.768500804901123,-0.006000980734825134,-0.00322537450119853,-0.4553239941596985,-0.008696888162034896,-0.5291044849941532,-0.03704370724967648,-0.05704022530223115,0.055437518309563824,0.0,0.0,-0.6,0.0,0.005590915679931641,0.00947713851928711,0
0.7793154716491699,-0.006000980734825134,-0.00322537450119853,-0.4553239941596985,-0.008696888162034896,-0.5291044849941532,-0.03704370724967648,-0.05704022530223115,0.055437518309563824,0.0,0.0,-0.6,0.0,0.0011065006256103516,0.005052804946899414,0
0.7885193824768066,-0.0064088148064911366,-0.0039908140897750854,-0.46181976795196533,-0.009426582284472108,-0.5301004438579844,-0.010244270805016765,-0.06559709102861284,0.06014063082419969,0.0,0.0,-0.6,0.0,0.005960941314697266,0.009939908981323242,0
0.8005268573760986,-0.0064088148064911366,-0.0039908140897750854,-0.46181976795196533,-0.009426582284472108,-0.5301004438579844,-0.010244270805016765,-0.06559709102861284,0.06014063082419969,0.0,0.0,-0.6,0.0,0.001064300537109375,0.004904747009277344,0
0.8086750507354736,-0.006601543165743351,-0.00434525404125452,-0.46497470140457153,-0.009784063442265617,-0.5299369419764478,-0.0036130219184810773,-0.07156104372953404,0.06243522789096395,0.0,0.0,-0.6,0.0,0.005713224411010742,0.009531259536743164,0
0.8202083110809326,-0.006964101456105709,-0.005005198065191507,-0.4711121916770935,-0.010378743637605116,-0.5297954651163529,0.015317389708631819,-0.05966347668694796,0.06629398464391865,0.0,0.0,-0.6,0.0,0.005607128143310547,0.009557008743286133,0
0.8310863971710205,-0.006964101456105709,-0.005005198065191507,-0.4711121916770935,-0.010378743637605116,-0.5297954651163529,0.015317389708631819,-0.05966347668694796,0.06629398464391865,0.0,0.0,-0.6,0.0,0.0011279582977294922,0.004895925521850586,0
0.8384308815002441,-0.007132885046303272,-0.005328694824129343,-0.47407838702201843,-0.010702124086482894,-0.5302162666313349,0.02206531108468967,-0.04756194871760983,0.06839117405827005,0.0,0.0,-0.6,0.0,0.005772113800048828,0.009436845779418945,0
0.8498482704162598,-0.007434191647917032,-0.005941244773566723,-0.4798056483268738,-0.011217955699452302,-0.5312689342820224,0.03951233736790497,0.002281098172675239,0.0717701937867943,0.0,0.0,-0.6,0.0,0.005495548248291016,0.00946807861328125,0
0.8611624240875244,-0.007434191647917032,-0.005941244773566723,-0.4798056483268738,-0.011217955699452302,-0.5312689342820224,0.03951233736790497,0.002281098172675239,0.0717701937867943,0.0,0.0,-0.6,0.0,0.0010688304901123047,0.004901409149169922,0
0.8693857192993164,-0.0076949140056967735,-0.006505860481411219,-0.4852554202079773,-0.01149762415671057,-0.532036098948812,0.05074808110688866,0.05202850096843381,0.07361799126349775,0.0,0.0,-0.6,0.0,0.005570650100708008,0.009462833404541016,0
0.8800966739654541,-0.0076949140056967735,-0.006505860481411219,-0.4852554202079773,-0.01149762415671057,-0.532036098948812,0.05074808110688866,0.05202850096843381,0.07361799126349775,0.0,0.0,-0.6,0.0,0.0010676383972167969,0.004852294921875,0
0.8890674114227295,-0.00796290673315525,-0.007002390921115875,-0.49042797088623047,-0.011594816309700747,-0.5332331381592347,0.055127168651856864,0.08902463982200128,0.07427390253517455,0.0,0.0,-0.6,0.0,0.005624532699584961,0.009453296661376953,0
0.9003252983093262,-0.00796290673315525,-0.007002390921115875,-0.49042797088623047,-0.011594816309700747,-0.5332331381592347,0.055127168651856864,0.08902463982200128,0.07427390253517455,0.0,0.0,-0.6,0.0,0.0010707378387451172,0.005089282989501953,0
0.9085202217102051,-0.008233950473368168,-0.007435453124344349,-0.49529942870140076,-0.011614752621288797,-0.5340846968006805,0.07253434865933807,0.12112917007427833,0.07444849034681988,0.0,0.0,-0.6,0.0,0.006076335906982422,0.010162591934204102,0
0.9201157093048096,-0.008233950473368168,-0.007435453124344349,-0.49529942870140076,-0.011614752621288797,-0.5340846968006805,0.07253434865933807,0.12112917007427833,0.07444849034681988,0.0,0.0,-0.6,0.0,0.0011208057403564453,0.005163431167602539,0
0.928511381149292,-0.008470246568322182,-0.00784103013575077,-0.4999733865261078,-0.01164165035135575,-0.5346260625387679,0.10190479725502015,0.1532183618932069,0.07468770174129782,0.0,0.0,-0.6,0.0,0.005676746368408203,0.009696245193481445,0
0.9394915103912354,-0.008470246568322182,-0.00784103013575077,-0.4999733865261078,-0.01164165035135575,-0.5346260625387679,0.10190479725502015,0.1532183618932069,0.07468770174129782,0.0,0.0,-0.6,0.0,0.0010755062103271484,0.004815101623535156,0
0.948613166809082,-0.00864450354129076,-0.008266094140708447,-0.5044775009155273,-0.011668814322351631,-0.5352487719952698,0.12478147481299344,0.16323212615778476,0.07491108675776581,0.0,0.0,-0.6,0.0,0.005809307098388672,0.009894609451293945,0
0.9598722457885742,-0.00864450354129076,-0.008266094140708447,-0.5044775009155273,-0.011668814322351631,-0.5352487719952698,0.12478147481299344,0.16323212615778476,0.07491108675776581,0.0,0.0,-0.6,0.0,0.0011298656463623047,0.004948139190673828,0
0.9684650897979736,-0.008771347813308239,-0.008661552332341671,-0.5087878108024597,-0.011476951107810603,-0.5360649023750381,0.13120118977063977,0.17731666051945882,0.07371429595200665,0.0,0.0,-0.6,0.0,0.00594329833984375,0.009821653366088867,0
0.979752779006958,-0.008771347813308239,-0.008661552332341671,-0.5087878108024597,-0.011476951107810603,-0.5360649023750381,0.13120118977063977,0.17731666051945882,0.07371429595200665,0.0,0.0,-0.6,0.0,0.0012087821960449219,0.005144357681274414,0
0.9884154796600342,-0.008855069987475872,-0.009033544920384884,-0.512825608253479,-0.011200289255545118,-0.5371260371475995,0.13096926519626614,0.1625141119873721,0.07193530625784818,0.0,0.0,-0.6,0.0,0.00467991828918457,0.008587837219238281,0
0.999030590057373,-0.008855069987475872,-0.009033544920384884,-0.512825608253479,-0.011200289255545118,-0.5371260371475995,0.13096926519626614,0.1625141119873721,0.07193530625784818,0.0,0.0,-0.6,0.0,0.0012006759643554688,0.00523066520690918,0
1.0084357261657715,-0.008946998976171017,-0.00941154919564724,-0.5166308283805847,-0.01095313325963957,-0.5380113808505624,0.1286446197036174,0.13792561011604532,0.0703264053816279,0.0,0.0,-0.6,0.0,0.004666328430175781,0.008605480194091797,0
1.0185487270355225,-0.008946998976171017,-0.00941154919564724,-0.5166308283805847,-0.01095313325963957,-0.5380113808505624,0.1286446197036174,0.13792561011604532,0.0703264053816279,0.0,0.0,-0.6,0.0,0.0011401176452636719,0.005318880081176758,0
1.0291917324066162,-0.009052426554262638,-0.00981717649847269,-0.5202383399009705,-0.010704089215791305,-0.5388078329733904,0.11081533997160883,0.10863434486085105,0.06867779321142436,0.0,0.0,-0.6,0.0,0.00457310676574707,0.008577823638916016,0
1.0394618511199951,-0.009052426554262638,-0.00981717649847269,-0.5202383399009705,-0.010704089215791305,-0.5388078329733904,0.11081533997160883,0.10863434486085105,0.06867779321142436,0.0,0.0,-0.6,0.0,0.0010886192321777344,0.004881381988525391,0
1.0486180782318115,-0.00915756169706583,-0.010232346132397652,-0.5237147212028503,-0.010511107722374124,-0.5396978021078768,0.07407065870504112,0.08815004527710091,0.06737760008828661,0.0,0.0,-0.6,0.0,0.004575014114379883,0.008357524871826172,0
1.0595507621765137,-0.009207197465002537,-0.010436809621751308,-0.5254150629043579,-0.010340884429205369,-0.5397486975141012,0.05185845129165045,0.07612683065020696,0.06625358833687747,0.0,0.0,-0.6,0.0,0.0045318603515625,0.008391380310058594,0
1.0692715644836426,-0.009207197465002537,-0.010436809621751308,-0.5254150629043579,-0.010340884429205369,-0.5397486975141012,0.05185845129165045,0.07612683065020696,0.06625358833687747,0.0,0.0,-0.6,0.0,0.0010633468627929688,0.005472421646118164,0
1.0785250663757324,-0.009305628947913647,-0.01083594374358654,-0.5287370681762695,-0.009924598231683634,-0.5404977949671109,0.004336165668342805,0.053169754300354734,0.06352348564170708,0.0,0.0,-0.6,0.0,0.00466465950012207,0.00908517837524414,0
1.0894076824188232,-0.009305628947913647,-0.01083594374358654,-0.5287370681762695,-0.009924598231683634,-0.5404977949671109,0.004336165668342805,0.053169754300354734,0.06352348564170708,0.0,0.0,-0.6,0.0,0.001287698745727539,0.0061397552490234375,0
1.099008321762085,-0.009397882036864758,-0.011241563595831394,-0.5318803191184998,-0.009471146963665543,-0.5403542157085531,-0.026279789932445688,0.027122548617833964,0.060569198783271355,0.0,0.0,-0.6,0.0,0.004664182662963867,0.008623361587524414,0
1.1091008186340332,-0.009397882036864758,-0.011241563595831394,-0.5318803191184998,-0.009471146963665543,-0.5403542157085531,-0.026279789932445688,0.027122548617833964,0.060569198783271355,0.0,0.0,-0.6,0.0,0.0010607242584228516,0.004942178726196289,0
1.1185050010681152,-0.009493096731603146,-0.01163629163056612,-0.534868061542511,-0.008928460557476007,-0.5402731552179972,-0.06638648147683478,0.010886112173647657,0.057055640892040814,0.0,0.0,-0.6,0.0,0.004480838775634766,0.008599042892456055,0
1.128614902496338,-0.009493096731603146,-0.01163629163056612,-0.534868061542511,-0.008928460557476007,-0.5402731552179972,-0.06638648147683478,0.010886112173647657,0.057055640892040814,0.0,0.0,-0.6,0.0,0.0011837482452392578,0.005509376525878906,0
1.1388721466064453,-0.009535039775073528,-0.011979731731116772,-0.5377101302146912,-0.008519296779291082,-0.540893672795556,-0.10754226603664921,0.020259904728733368,0.054441958361972444,0.0,0.0,-0.6,0.0,0.004437923431396484,0.008384227752685547,0
1.1486468315124512,-0.009535039775073528,-0.011979731731116772,-0.5377101302146912,-0.008519296779291082,-0.540893672795556,-0.10754226603664921,0.020259904728733368,0.054441958361972444,0.0,0.0,-0.6,0.0,0.0010657310485839844,0.0051577091217041016,0
1.1584205627441406,-0.009498251602053642,-0.012272806838154793,-0.540432333946228,-0.008177526523520147,-0.5410144076765895,-0.13385455195676157,0.034916883385717905,0.052278207877262034,0.0,0.0,-0.6,0.0,0.0047149658203125,0.008407831192016602,0
1.1694927215576172,-0.009454934857785702,-0.012408733367919922,-0.5417622923851013,-0.007935066722856144,-0.5409038556516006,-0.1382564665525057,0.04512024259108173,0.050744786232060655,0.0,0.0,-0.6,0.0,0.0047223567962646484,0.008475780487060547,0
1.1792962551116943,-0.009454934857785702,-0.012408733367919922,-0.5417622923851013,-0.007935066722856144,-0.5409038556516006,-0.1382564665525057,0.04512024259108173,0.050744786232060655,0.0,0.0,-0.6,0.0,0.0011029243469238281,0.005130290985107422,0
1.1884877681732178,-0.009360847994685173,-0.01266032736748457,-0.5443445444107056,-0.007397471660890029,-0.5409973921919041,-0.1409280916476488,0.06171401060286889,0.04733456651975219,0.0,0.0,-0.6,0.0,0.004644870758056641,0.008508920669555664,0
1.199068546295166,-0.009360847994685173,-0.01266032736748457,-0.5443445444107056,-0.007397471660890029,-0.5409973921919041,-0.1409280916476488,0.06171401060286889,0.04733456651975219,0.0,0.0,-0.6,0.0,0.0011522769927978516,0.005472898483276367,0
1.20849609375,-0.009266954846680164,-0.012890147045254707,-0.5468285083770752,-0.006738782400834883,-0.5410451737542102,-0.12932818795884418,0.06897015650940738,0.0431355576788277,0.0,0.0,-0.6,0.0,0.004529714584350586,0.008546829223632812,0
1.2186779975891113,-0.009266954846680164,-0.012890147045254707,-0.5468285083770752,-0.006738782400834883,-0.5410451737542102,-0.12932818795884418,0.06897015650940738,0.0431355576788277,0.0,0.0,-0.6,0.0,0.001310110092163086,0.00574040412902832,0
1.2284870147705078,-0.009215272963047028,-0.013117707334458828,-0.549145519733429,-0.006160429065467819,-0.5423464353254912,-0.1020753034919375,0.06622903109195107,0.03943822969846217,0.0,0.0,-0.6,0.0,0.0046155452728271484,0.008561849594116211,0
1.238555908203125,-0.009215272963047028,-0.013117707334458828,-0.549145519733429,-0.006160429065467819,-0.5423464353254912,-0.1020753034919375,0.06622903109195107,0.03943822969846217,0.0,0.0,-0.6,0.0,0.0011262893676757812,0.005011796951293945,0
1.2486519813537598,-0.009221971966326237,-0.01337024662643671,-0.5513159036636353,-0.005621698931555363,-0.5430923041679451,-0.06164729671035812,0.04688691907203863,0.035974645485323954,0.0,0.0,-0.6,0.0,0.00464177131652832,0.008559465408325195,0
1.2586669921875,-0.009221971966326237,-0.01337024662643671,-0.5513159036636353,-0.005621698931555363,-0.5430923041679451,-0.06164729671035812,0.04688691907203863,0.035974645485323954,0.0,0.0,-0.6,0.0,0.0012714862823486328,0.005454063415527344,0
1.2689051628112793,-0.009270277805626392,-0.013601833023130894,-0.5533672571182251,-0.004963207474558314,-0.5437469451732998,-0.0313745254108506,0.02693665599121397,0.03174575540114834,0.0,0.0,-0.6,0.0,0.004462242126464844,0.008213043212890625,0
1.278442144393921,-0.009270277805626392,-0.013601833023130894,-0.5533672571182251,-0.004963207474558314,-0.5437469451732998,-0.0313745254108506,0.02693665599121397,0.03174575540114834,0.0,0.0,-0.6,0.0,0.0011143684387207031,0.0049021244049072266,0
1.2886574268341064,-0.009364924393594265,-0.013771038502454758,-0.5552722811698914,-0.004194824623256439,-0.5447631594390491,-0.003956862201859538,0.009804699859165817,0.02682095368171387,0.0,0.0,-0.6,0.0,0.0046234130859375,0.008439302444458008,0
1.298983097076416,-0.009364924393594265,-0.013771038502454758,-0.5552722811698914,-0.004194824623256439,-0.5447631594390491,-0.003956862201859538,0.009804699859165817,0.02682095368171387,0.0,0.0,-0.6,0.0,0.001123666763305664,0.00514531135559082,0
1.308720588684082,-0.00946032628417015,-0.013903308659791946,-0.5570316910743713,-0.0032972819492310683,-0.5453122703127277,0.034185525399907435,-0.0152179737994187,0.02106516174136295,0.0,0.0,-0.6,0.0,0.004692792892456055,0.008522272109985352,0
1.3184988498687744,-0.00946032628417015,-0.013903308659791946,-0.5570316910743713,-0.0032972819492310683,-0.5453122703127277,0.034185525399907435,-0.0152179737994187,0.02106516174136295,0.0,0.0,-0.6,0.0,0.0010793209075927734,0.0050241947174072266,0
1.3288967609405518,-0.009607776999473572,-0.014048360288143158,-0.5586598515510559,-0.002440463967182795,-0.5459168406549323,0.08753694115685741,-0.05928618983483128,0.015552908521877525,0.0,0.0,-0.6,0.0,0.0046405792236328125,0.00849294662475586,0
1.3387017250061035,-0.009607776999473572,-0.014048360288143158,-0.5586598515510559,-0.002440463967182795,-0.5459168406549323,0.08753694115685741,-0.05928618983483128,0.015552908521877525,0.0,0.0,-0.6,0.0,0.0010726451873779297,0.004976987838745117,0
1.3487122058868408,-0.009821485728025436,-0.014259054325520992,-0.5601557493209839,-0.001680470893447183,-0.5461504287300627,0.154206795403845,-0.0985035767102731,0.01066089863667336,0.0,0.0,-0.6,0.0,0.004878997802734375,0.009127616882324219,0
1.3591458797454834,-0.009821485728025436,-0.014259054325520992,-0.5601557493209839,-0.001680470893447183,-0.5461504287300627,0.154206795403845,-0.0985035767102731,0.01066089863667336,0.0,0.0,-0.6,0.0,0.0011627674102783203,0.005295276641845703,0
1.3688349723815918,-0.010093171149492264,-0.014507115818560123,-0.5615177750587463,-0.0007953036262866511,-0.5472476211929997,0.195640236911401,-0.12881980277276844,0.004975072851491933,0.0,0.0,-0.6,0.0,0.0047168731689453125,0.008634567260742188,0
1.3788490295410156,-0.010093171149492264,-0.014507115818560123,-0.5615177750587463,-0.0007953036262866511,-0.5472476211929997,0.195640236911401,-0.12881980277276844,0.004975072851491933,0.0,0.0,-0.6,0.0,0.0011610984802246094,0.00551295280456543,0
1.3885724544525146,-0.010371322743594646,-0.014784015715122223,-0.5626993775367737,8.361673579507523e-05,-0.5488034222350462,0.24511080263795118,-0.15302985709271036,-0.0006596452295355461,0.0,0.0,-0.6,0.0,0.005102634429931641,0.009106874465942383,0
1.399782419204712,-0.010371322743594646,-0.014784015715122223,-0.5626993775367737,8.361673579507523e-05,-0.5488034222350462,0.24511080263795118,-0.15302985709271036,-0.0006596452295355461,0.0,0.0,-0.6,0.0,0.0011823177337646484,0.005328655242919922,0
1.4084649085998535,-0.010661369189620018,-0.015111732296645641,-0.5636866688728333,0.0010008609051788927,-0.5502728599007901,0.28376466464010974,-0.18743352403064936,-0.006527126456594224,0.0,0.0,-0.6,0.0,0.0049550533294677734,0.008799552917480469,0
1.418837070465088,-0.010661369189620018,-0.015111732296645641,-0.5636866688728333,0.0010008609051788927,-0.5502728599007901,0.28376466464010974,-0.18743352403064936,-0.006527126456594224,0.0,0.0,-0.6,0.0,0.0011832714080810547,0.005239725112915039,0
1.428492546081543,-0.010976007208228111,-0.01546414103358984,-0.5644825100898743,0.0017716369933103585,-0.5514727735340478,0.30437543788320937,-0.2177863628448911,-0.011445904451937315,0.0,0.0,-0.6,0.0,0.005082607269287109,0.00915074348449707,0
1.439119577407837,-0.010976007208228111,-0.01546414103358984,-0.5644825100898743,0.0017716369933103585,-0.5514727735340478,0.30437543788320937,-0.2177863628448911,-0.011445904451937315,0.0,0.0,-0.6,0.0,0.0011973381042480469,0.005232810974121094,0
1.448502779006958,-0.011317329481244087,-0.01578362286090851,-0.5650750994682312,0.0022649053566028594,-0.553063278816398,0.28601377928471305,-0.24306666692105322,-0.014571882608882411,0.0,0.0,-0.6,0.0,0.004713296890258789,0.008707761764526367,0
1.4587345123291016,-0.011317329481244087,-0.01578362286090851,-0.5650750994682312,0.0022649053566028594,-0.553063278816398,0.28601377928471305,-0.24306666692105322,-0.014571882608882411,0.0,0.0,-0.6,0.0,0.0011832714080810547,0.005475282669067383,0
1.4686172008514404,-0.011683452874422073,-0.01606694981455803,-0.5655437707901001,0.0026057519757840433,-0.5542546051583859,0.24117064560844587,-0.2652779071193723,-0.016718391788550644,0.0,0.0,-0.6,0.0,0.00476384162902832,0.008989334106445312,0
1.4789705276489258,-0.011683452874422073,-0.01606694981455803,-0.5655437707901001,0.0026057519757840433,-0.5542546051583859,0.24117064560844587,-0.2652779071193723,-0.016718391788550644,0.0,0.0,-0.6,0.0,0.0013120174407958984,0.0055942535400390625,0
1.4885244369506836,-0.012093120254576206,-0.016292298212647438,-0.5659161806106567,0.0028465438710953282,-0.5552693275097628,0.16673073717196174,-0.284117796593,-0.01824314181022837,0.0,0.0,-0.6,0.0,0.004585981369018555,0.00853872299194336,0
1.4990925788879395,-0.012093120254576206,-0.016292298212647438,-0.5659161806106567,0.0028465438710953282,-0.5552693275097628,0.16673073717196174,-0.284117796593,-0.01824314181022837,0.0,0.0,-0.6,0.0,0.0011775493621826172,0.005160808563232422,0
1.5085134506225586,-0.012553706765174866,-0.016430649906396866,-0.5661721229553223,0.0030380498577397912,-0.5567231198187441,0.08806655754321102,-0.2971938876072919,-0.01950268467338644,0.0,0.0,-0.6,0.0,0.004682064056396484,0.008710384368896484,0
1.5185816287994385,-0.012553706765174866,-0.016430649906396866,-0.5661721229553223,0.0030380498577397912,-0.5567231198187441,0.08806655754321102,-0.2971938876072919,-0.01950268467338644,0.0,0.0,-0.6,0.0,0.001077413558959961,0.004930257797241211,0
1.5284974575042725,-0.013055955059826374,-0.016521714627742767,-0.5663500428199768,0.003179433770166983,-0.5567860077697574,0.02770676769193003,-0.27637671372198924,-0.020481279180429787,0.0,0.0,-0.6,0.0,0.004815340042114258,0.00875997543334961,0
1.538705825805664,-0.013055955059826374,-0.016521714627742767,-0.5663500428199768,0.003179433770166983,-0.5567860077697574,0.02770676769193003,-0.27637671372198924,-0.020481279180429787,0.0,0.0,-0.6,0.0,0.0012123584747314453,0.005460023880004883,0
1.5485129356384277,-0.013534607365727425,-0.016661446541547775,-0.5665420293807983,0.0031097522150167374,-0.5559926378879577,0.0009505096020294683,-0.2329686136736495,-0.02009618055935195,0.0,0.0,-0.6,0.0,0.004434347152709961,0.008362293243408203,0
1.559699535369873,-0.01377324853092432,-0.016741173341870308,-0.5666546821594238,0.003073986667520357,-0.555444102339689,-0.02167860325264379,-0.2136241132397007,-0.019900118827845495,0.0,0.0,-0.6,0.0,0.004670143127441406,0.008454322814941406,0
1.56956148147583,-0.01377324853092432,-0.016741173341870308,-0.5666546821594238,0.003073986667520357,-0.555444102339689,-0.02167860325264379,-0.2136241132397007,-0.019900118827845495,0.0,0.0,-0.6,0.0,0.0010585784912109375,0.005057573318481445,0
1.5785398483276367,-0.014293168671429157,-0.016831332817673683,-0.5669252276420593,0.0028876093088567945,-0.5557217064984495,-0.0819665872172897,-0.15794193221109437,-0.018763259728547733,0.0,0.0,-0.6,0.0,0.004639387130737305,0.008813142776489258,0
1.588789939880371,-0.014293168671429157,-0.016831332817673683,-0.5669252276420593,0.0028876093088567945,-0.5557217064984495,-0.0819665872172897,-0.15794193221109437,-0.018763259728547733,0.0,0.0,-0.6,0.0,0.0011429786682128906,0.0053174495697021484,0
1.5997014045715332,-0.014793077483773232,-0.016859831288456917,-0.5671347379684448,0.002615506251868625,-0.5560839218217946,-0.12754295391207973,-0.07391089524329882,-0.017009990949187467,0.0,0.0,-0.6,0.0,0.004891395568847656,0.00898599624633789,0
1.6103060245513916,-0.014793077483773232,-0.016859831288456917,-0.5671347379684448,0.002615506251868625,-0.5560839218217946,-0.12754295391207973,-0.07391089524329882,-0.017009990949187467,0.0,0.0,-0.6,0.0,0.0011637210845947266,0.005568504333496094,0
1.6188621520996094,-0.015213344246149063,-0.016887394711375237,-0.5673278570175171,0.0024508853525402065,-0.5555967538556754,-0.14338199682972147,0.0011307484298674704,-0.01590016802332892,0.0,0.0,-0.6,0.0,0.004667043685913086,0.00838923454284668,0
1.6286475658416748,-0.015213344246149063,-0.016887394711375237,-0.5673278570175171,0.0024508853525402065,-0.5555967538556754,-0.14338199682972147,0.0011307484298674704,-0.01590016802332892,0.0,0.0,-0.6,0.0,0.0010640621185302734,0.005243539810180664,0
1.6385154724121094,-0.015604003332555294,-0.016931820660829544,-0.5675927996635437,0.002190244784908411,-0.5544450998033944,-0.14858965072755326,0.06120612745080546,-0.014169479458766024,0.0,0.0,-0.6,0.0,0.004668712615966797,0.008729219436645508,0
1.6487176418304443,-0.015604003332555294,-0.016931820660829544,-0.5675927996635437,0.002190244784908411,-0.5544450998033944,-0.14858965072755326,0.06120612745080546,-0.014169479458766024,0.0,0.0,-0.6,0.0,0.0011157989501953125,0.0052564144134521484,0
1.6586549282073975,-0.015956977382302284,-0.01695418916642666,-0.5679381489753723,0.0018283499405775357,-0.5538939903070264,-0.1629027339639244,0.12144358896975078,-0.011805612817031215,0.0,0.0,-0.6,0.0,0.004698753356933594,0.008771657943725586,0
1.6688203811645508,-0.015956977382302284,-0.01695418916642666,-0.5679381489753723,0.0018283499405775357,-0.5538939903070264,-0.1629027339639244,0.12144358896975078,-0.011805612817031215,0.0,0.0,-0.6,0.0,0.001104593276977539,0.005279064178466797,0
1.6784870624542236,-0.016222292557358742,-0.016898076981306076,-0.568274199962616,0.0014591269832071895,-0.5535002499225722,-0.18733900425292502,0.2039701440115052,-0.009382139876829393,0.0,0.0,-0.6,0.0,0.00456547737121582,0.008768320083618164,0
1.6889290809631348,-0.016222292557358742,-0.016898076981306076,-0.568274199962616,0.0014591269832071895,-0.5535002499225722,-0.18733900425292502,0.2039701440115052,-0.009382139876829393,0.0,0.0,-0.6,0.0,0.0012254714965820312,0.0055582523345947266,0
1.6996982097625732,-0.016306376084685326,-0.016790933907032013,-0.5685920715332031,0.001021915145459858,-0.5531686540864966,-0.1918340221281788,0.3137691060257317,-0.006435483721412766,0.0,0.0,-0.6,0.0,0.004648685455322266,0.008638381958007812,0
1.7098193168640137,-0.016306376084685326,-0.016790933907032013,-0.5685920715332031,0.001021915145459858,-0.5531686540864966,-0.1918340221281788,0.3137691060257317,-0.006435483721412766,0.0,0.0,-0.6,0.0,0.001116037368774414,0.005301475524902344,0
1.718496561050415,-0.01627625897526741,-0.016655297949910164,-0.5690076947212219,0.0006862216141271353,-0.5527890646515988,-0.19838122563142813,0.39406274389506524,-0.004214708393357392,0.0,0.0,-0.6,0.0,0.004701375961303711,0.008530139923095703,0
1.730196237564087,-0.016254469752311707,-0.016569778323173523,-0.5692474842071533,0.0005524326034737192,-0.5525315702695001,-0.2051847125828502,0.4206122231919445,-0.003361168986969996,0.0,0.0,-0.6,0.0,0.0044476985931396484,0.008377552032470703,0
1.7398653030395508,-0.016254469752311707,-0.016569778323173523,-0.5692474842071533,0.0005524326034737192,-0.5525315702695001,-0.2051847125828502,0.4206122231919445,-0.003361168986969996,0.0,0.0,-0.6,0.0,0.0010731220245361328,0.005029201507568359,0
1.748534917831421,-0.016242852434515953,-0.016324177384376526,-0.5697137713432312,0.00029079399123729674,-0.5533941746931558,-0.2336678139423624,0.4443890226875776,-0.001800973896292311,0.0,0.0,-0.6,0.0,0.004617452621459961,0.008402824401855469,0
1.7602508068084717,-0.016267817467451096,-0.016153786331415176,-0.5699469447135925,0.000131109428594199,-0.5537201014089913,-0.23278366237486714,0.44558252748275784,-0.0008008395610632881,0.0,0.0,-0.6,0.0,0.004429817199707031,0.008568525314331055,0
1.7702391147613525,-0.016267817467451096,-0.016153786331415176,-0.5699469447135925,0.000131109428594199,-0.5537201014089913,-0.23278366237486714,0.44558252748275784,-0.0008008395610632881,0.0,0.0,-0.6,0.0,0.0010638236999511719,0.005210161209106445,0
1.778515100479126,-0.0163318682461977,-0.01577216386795044,-0.5703839063644409,-8.822789973075555e-05,-0.5546094665800796,-0.23142854874762686,0.4378713024994244,0.0005526179784006841,0.0,0.0,-0.6,0.0,0.0043871402740478516,0.008194446563720703,0
1.7894012928009033,-0.01635228469967842,-0.015558953396975994,-0.5705870389938354,-0.0002080840111717459,-0.5546702638666706,-0.22337197829435873,0.4275334730058359,0.001315499642478167,0.0,0.0,-0.6,0.0,0.004540681838989258,0.008617162704467773,0
1.7999613285064697,-0.01635228469967842,-0.015558953396975994,-0.5705870389938354,-0.0002080840111717459,-0.5546702638666706,-0.22337197829435873,0.4275334730058359,0.001315499642478167,0.0,0.0,-0.6,0.0,0.0010638236999511719,0.00501251220703125,0
1.808687686920166,-0.016361940652132034,-0.015103551559150219,-0.5710150003433228,-0.0003816793537197342,-0.5549699192911505,-0.2022552221223554,0.3921691679203346,0.002417342417975309,0.0,0.0,-0.6,0.0,0.004943370819091797,0.009001016616821289,0
1.8190851211547852,-0.016361940652132034,-0.015103551559150219,-0.5710150003433228,-0.0003816793537197342,-0.5549699192911505,-0.2022552221223554,0.3921691679203346,0.002417342417975309,0.0,0.0,-0.6,0.0,0.0011138916015625,0.005044698715209961,0
1.828624963760376,-0.01636825129389763,-0.014655156061053276,-0.5714479684829712,-0.0005469468371729274,-0.5541603492984644,-0.1579946651853524,0.3259952720533322,0.003495460017522161,0.0,0.0,-0.6,0.0,0.005199909210205078,0.009383678436279297,0
1.8395116329193115,-0.01636825129389763,-0.014655156061053276,-0.5714479684829712,-0.0005469468371729274,-0.5541603492984644,-0.1579946651853524,0.3259952720533322,0.003495460017522161,0.0,0.0,-0.6,0.0,0.0011973381042480469,0.005385637283325195,0
1.848501443862915,-0.016376404091715813,-0.014219033531844616,-0.571972668170929,-0.0007293272712125132,-0.5531237750479476,-0.12769846064664372,0.25437690292345255,0.004646023597213232,0.0,0.0,-0.6,0.0,0.0047566890716552734,0.008765935897827148,0
1.8587205410003662,-0.016376404091715813,-0.014219033531844616,-0.571972668170929,-0.0007293272712125132,-0.5531237750479476,-0.12769846064664372,0.25437690292345255,0.004646023597213232,0.0,0.0,-0.6,0.0,0.0011401176452636719,0.004930734634399414,0
1.8685665130615234,-0.016394130885601044,-0.013713612221181393,-0.5725114345550537,-0.000939837665866292,-0.5531218849606577,-0.1043444648883886,0.16818316642784234,0.005975546551152587,0.0,0.0,-0.6,0.0,0.0048792362213134766,0.0088348388671875,0
1.878896951675415,-0.016394130885601044,-0.013713612221181393,-0.5725114345550537,-0.000939837665866292,-0.5531218849606577,-0.1043444648883886,0.16818316642784234,0.005975546551152587,0.0,0.0,-0.6,0.0,0.0012273788452148438,0.00524592399597168,0
1.8884577751159668,-0.016363447532057762,-0.013151315040886402,-0.5729712247848511,-0.0012210272265733527,-0.553438672396853,-0.07549428580415951,0.10489850972265173,0.00778874144433867,0.0,0.0,-0.6,0.0,0.004713773727416992,0.008433818817138672,0
1.9003417491912842,-0.01630794256925583,-0.012863882817327976,-0.5731649398803711,-0.00135473456775009,-0.5530989816568734,-0.05226400029467371,0.07371868604066535,0.008654944359186309,0.0,0.0,-0.6,0.0,0.004474163055419922,0.00825047492980957,0
1.9099161624908447,-0.01630794256925583,-0.012863882817327976,-0.5731649398803711,-0.00135473456775009,-0.5530989816568734,-0.05226400029467371,0.07371868604066535,0.008654944359186309,0.0,0.0,-0.6,0.0,0.0010738372802734375,0.00515294075012207,0
1.9184510707855225,-0.016159864142537117,-0.012323933653533459,-0.5735875964164734,-0.0016760069033476188,-0.5520664566518666,-0.0026140402678038184,-0.007798160392363846,0.010719705103309211,0.0,0.0,-0.6,0.0,0.005084037780761719,0.008964776992797852,0
1.928924560546875,-0.016159864142537117,-0.012323933653533459,-0.5735875964164734,-0.0016760069033476188,-0.5520664566518666,-0.0026140402678038184,-0.007798160392363846,0.010719705103309211,0.0,0.0,-0.6,0.0,0.0011904239654541016,0.005335569381713867,0
1.9384727478027344,-0.016088811680674553,-0.011831150390207767,-0.5740498304367065,-0.0020108272717603475,-0.5516987232963261,0.04005476154845088,-0.11115621615120667,0.012874458271895489,0.0,0.0,-0.6,0.0,0.004717826843261719,0.008819580078125,0
1.9488165378570557,-0.016088811680674553,-0.011831150390207767,-0.5740498304367065,-0.0020108272717603475,-0.5516987232963261,0.04005476154845088,-0.11115621615120667,0.012874458271895489,0.0,0.0,-0.6,0.0,0.0012218952178955078,0.005268096923828125,0
1.958540439605713,-0.01614634320139885,-0.011353743262588978,-0.5744695663452148,-0.0023671804152997056,-0.5519908549811792,0.07394711101373835,-0.2246422828988818,0.01518432621253281,0.0,0.0,-0.6,0.0,0.004711627960205078,0.008986711502075195,0
1.9690842628479004,-0.01614634320139885,-0.011353743262588978,-0.5744695663452148,-0.0023671804152997056,-0.5519908549811792,0.07394711101373835,-0.2246422828988818,0.01518432621253281,0.0,0.0,-0.6,0.0,0.0011806488037109375,0.005597829818725586,0
1.9785027503967285,-0.016315003857016563,-0.010869164019823074,-0.5747900605201721,-0.0027520934410499276,-0.5528910687853165,0.10665914781592707,-0.3290377991078334,0.017675149239130904,0.0,0.0,-0.6,0.0,0.004811525344848633,0.008753061294555664,0
1.9886517524719238,-0.016315003857016563,-0.010869164019823074,-0.5747900605201721,-0.0027520934410499276,-0.5528910687853165,0.10665914781592707,-0.3290377991078334,0.017675149239130904,0.0,0.0,-0.6,0.0,0.0010919570922851562,0.005052328109741211,0
1.9997470378875732,-0.016489291563630104,-0.010424509644508362,-0.5750288963317871,-0.0030009471325062047,-0.5527574370634433,0.15524844850927585,-0.4090575774262723,0.01924451776400623,0.0,0.0,-0.6,0.0,0.004712820053100586,0.008933305740356445,0
2.010178327560425,-0.016489291563630104,-0.010424509644508362,-0.5750288963317871,-0.0030009471325062047,-0.5527574370634433,0.15524844850927585,-0.4090575774262723,0.01924451776400623,0.0,0.0,-0.6,0.0,0.0011692047119140625,0.0054531097412109375,0
2.018777370452881,-0.016654178500175476,-0.01006663590669632,-0.5753251314163208,-0.003201163719467351,-0.5509679136320853,0.22244310534827932,-0.47826254406031543,0.020434515614232315,0.0,0.0,-0.6,0.0,0.004488945007324219,0.008319377899169922,0
2.0284194946289062,-0.016654178500175476,-0.01006663590669632,-0.5753251314163208,-0.003201163719467351,-0.5509679136320853,0.22244310534827932,-0.47826254406031543,0.020434515614232315,0.0,0.0,-0.6,0.0,0.001070261001586914,0.004942655563354492,0
2.0385546684265137,-0.016847729682922363,-0.009744815528392792,-0.5756833553314209,-0.003426861700523213,-0.5514970564780599,0.25092084486169475,-0.49549453942767735,0.021822242852066322,0.0,0.0,-0.6,0.0,0.00472259521484375,0.008611917495727539,0
2.0486466884613037,-0.016847729682922363,-0.009744815528392792,-0.5756833553314209,-0.003426861700523213,-0.5514970564780599,0.25092084486169475,-0.49549453942767735,0.021822242852066322,0.0,0.0,-0.6,0.0,0.0011157989501953125,0.005437135696411133,0
2.0585575103759766,-0.017042012885212898,-0.00938437134027481,-0.5758732557296753,-0.003496519303506764,-0.552902376370474,0.2235366958692859,-0.5014437135716913,0.022337061612437488,0.0,0.0,-0.6,0.0,0.004475831985473633,0.00838160514831543,0
2.0697662830352783,-0.017150970175862312,-0.009196935221552849,-0.5759550333023071,-0.0034903593531253724,-0.5530749242759581,0.20349810454477077,-0.4863662700516068,0.02232876936224786,0.0,0.0,-0.6,0.0,0.004723548889160156,0.00873255729675293,0
2.079861640930176,-0.017150970175862312,-0.009196935221552849,-0.5759550333023071,-0.0034903593531253724,-0.5530749242759581,0.20349810454477077,-0.4863662700516068,0.02232876936224786,0.0,0.0,-0.6,0.0,0.0010614395141601562,0.004942178726196289,0
2.088475465774536,-0.017391109839081764,-0.008864161558449268,-0.576158344745636,-0.0033874773054372916,-0.5527827023952216,0.16252402955355022,-0.47560300969049285,0.021762686971558174,0.0,0.0,-0.6,0.0,0.004595279693603516,0.008888483047485352,0
2.099533796310425,-0.017391109839081764,-0.008864161558449268,-0.576158344745636,-0.0033874773054372916,-0.5527827023952216,0.16252402955355022,-0.47560300969049285,0.021762686971558174,0.0,0.0,-0.6,0.0,0.0011799335479736328,0.005441188812255859,0
2.108452320098877,-0.017738139256834984,-0.008578578010201454,-0.5763168931007385,-0.003275839411993945,-0.5535815765385119,0.12273875240071244,-0.46226424607934236,0.02110077908466049,0.0,0.0,-0.6,0.0,0.004614114761352539,0.008484601974487305,0
2.1203012466430664,-0.01794114150106907,-0.008447946049273014,-0.5763563513755798,-0.003239755073022132,-0.5540710881737482,0.10753716352079105,-0.43826429444321846,0.020857324733208366,0.0,0.0,-0.6,0.0,0.004831790924072266,0.00884866714477539,0
2.1305272579193115,-0.01794114150106907,-0.008447946049273014,-0.5763563513755798,-0.003239755073022132,-0.5540710881737482,0.10753716352079105,-0.43826429444321846,0.020857324733208366,0.0,0.0,-0.6,0.0,0.0010845661163330078,0.00496220588684082,0
2.1384856700897217,-0.018354084342718124,-0.00823836587369442,-0.5764063000679016,-0.003257854370923405,-0.5543439325633867,0.08195159484676136,-0.39196543051469424,0.020926633281253264,0.0,0.0,-0.6,0.0,0.004734516143798828,0.008616447448730469,0
2.1485755443573,-0.018354084342718124,-0.00823836587369442,-0.5764063000679016,-0.003257854370923405,-0.5543439325633867,0.08195159484676136,-0.39196543051469424,0.020926633281253264,0.0,0.0,-0.6,0.0,0.0011134147644042969,0.0053174495697021484,0
2.158565044403076,-0.018861522898077965,-0.008089251816272736,-0.5764359831809998,-0.003221727558733806,-0.5544082169037475,0.06036735799738244,-0.3373567841388108,0.02062473848456547,0.0,0.0,-0.6,0.0,0.004762887954711914,0.008756399154663086,0
2.168808698654175,-0.018861522898077965,-0.008089251816272736,-0.5764359831809998,-0.003221727558733806,-0.5544082169037475,0.06036735799738244,-0.3373567841388108,0.02062473848456547,0.0,0.0,-0.6,0.0,0.0011920928955078125,0.005276203155517578,0
2.1785967350006104,-0.019513528794050217,-0.007991062477231026,-0.5764205455780029,-0.003190232283212316,-0.5549055082198342,0.0419034853974042,-0.28286595298847095,0.02035694531400365,0.0,0.0,-0.6,0.0,0.00478363037109375,0.008724689483642578,0
2.18868350982666,-0.019513528794050217,-0.007991062477231026,-0.5764205455780029,-0.003190232283212316,-0.5549055082198342,0.0419034853974042,-0.28286595298847095,0.02035694531400365,0.0,0.0,-0.6,0.0,0.0011005401611328125,0.005217075347900391,0
2.199049234390259,-0.020302003249526024,-0.007925796322524548,-0.5763736963272095,-0.0031478269635985515,-0.5551991585966383,0.026385837984532413,-0.2172130552617239,0.020044632034117486,0.0,0.0,-0.6,0.0,0.00479578971862793,0.008996248245239258,0
2.2094380855560303,-0.020302003249526024,-0.007925796322524548,-0.5763736963272095,-0.0031478269635985515,-0.5551991585966383,0.026385837984532413,-0.2172130552617239,0.020044632034117486,0.0,0.0,-0.6,0.0,0.001123189926147461,0.004960536956787109,0
2.2186200618743896,-0.021137181669473648,-0.00786843616515398,-0.5762894153594971,-0.0031551267924802176,-0.5555897393057468,0.008168801854207082,-0.13877914339160408,0.020082241512172944,0.0,0.0,-0.6,0.0,0.004659175872802734,0.008913040161132812,0
2.228898048400879,-0.021137181669473648,-0.00786843616515398,-0.5762894153594971,-0.0031551267924802176,-0.5555897393057468,0.008168801854207082,-0.13877914339160408,0.020082241512172944,0.0,0.0,-0.6,0.0,0.001100778579711914,0.0052220821380615234,0
2.238548755645752,-0.02195250615477562,-0.007814556360244751,-0.5761927366256714,-0.0033030964764432878,-0.5559087428735544,-0.0063957415746324665,-0.06386266311560132,0.02104372505973351,0.0,0.0,-0.6,0.0,0.004870414733886719,0.009062767028808594,0
2.2490592002868652,-0.02195250615477562,-0.007814556360244751,-0.5761927366256714,-0.0033030964764432878,-0.5559087428735544,-0.0063957415746324665,-0.06386266311560132,0.02104372505973351,0.0,0.0,-0.6,0.0,0.0010936260223388672,0.005116939544677734,0
2.2585480213165283,-0.022727996110916138,-0.007781180087476969,-0.5760061144828796,-0.0034195599326552312,-0.5566115327678862,-0.016717168058031178,0.013332725328436856,0.021831206426420693,0.0,0.0,-0.6,0.0,0.0047223567962646484,0.008834600448608398,0
2.2687923908233643,-0.022727996110916138,-0.007781180087476969,-0.5760061144828796,-0.0034195599326552312,-0.5566115327678862,-0.016717168058031178,0.013332725328436856,0.021831206426420693,0.0,0.0,-0.6,0.0,0.0010902881622314453,0.005034446716308594,0
2.2786593437194824,-0.023473143577575684,-0.007794527802616358,-0.5757643580436707,-0.0035018202804375054,-0.557202415288092,-0.02549915889075365,0.07830274042274075,0.022407987211598354,0.0,0.0,-0.6,0.0,0.004750728607177734,0.008877992630004883,0
2.288914442062378,-0.023473143577575684,-0.007794527802616358,-0.5757643580436707,-0.0035018202804375054,-0.557202415288092,-0.02549915889075365,0.07830274042274075,0.022407987211598354,0.0,0.0,-0.6,0.0,0.001112222671508789,0.005333900451660156,0
2.2997772693634033,-0.0242000799626112,-0.007843017578125,-0.5754941701889038,-0.0036002367099970535,-0.557513193077826,-0.02970082014217387,0.14003047736541244,0.023104790783300227,0.0,0.0,-0.6,0.0,0.004513978958129883,0.008271932601928711,0
2.310141086578369,-0.024548698216676712,-0.007882526144385338,-0.5753482580184937,-0.003637202031901865,-0.5576187509711613,-0.030017026953600107,0.1598887390767986,0.02336556864763818,0.0,0.0,-0.6,0.0,0.004473209381103516,0.008339166641235352,0
2.319789409637451,-0.024548698216676712,-0.007882526144385338,-0.5753482580184937,-0.003637202031901865,-0.5576187509711613,-0.030017026953600107,0.1598887390767986,0.02336556864763818,0.0,0.0,-0.6,0.0,0.0010998249053955078,0.005082130432128906,0
2.328529119491577,-0.025216547772288322,-0.007926441729068756,-0.5750211477279663,-0.003893335973554744,-0.5581059847578678,-0.042568241585388196,0.18836836509049384,0.02500123131504647,0.0,0.0,-0.6,0.0,0.004595041275024414,0.00862431526184082,0
2.338608741760254,-0.025216547772288322,-0.007926441729068756,-0.5750211477279663,-0.003893335973554744,-0.5581059847578678,-0.042568241585388196,0.18836836509049384,0.02500123131504647,0.0,0.0,-0.6,0.0,0.0011353492736816406,0.005112409591674805,0
2.348487138748169,-0.025801576673984528,-0.007892567664384842,-0.5746063590049744,-0.00407791354692063,-0.5590263224296715,-0.062316398308539564,0.21635390516822406,0.026158339012376533,0.0,0.0,-0.6,0.0,0.004813194274902344,0.008852005004882812,0
2.3587522506713867,-0.025801576673984528,-0.007892567664384842,-0.5746063590049744,-0.00407791354692063,-0.5590263224296715,-0.062316398308539564,0.21635390516822406,0.026158339012376533,0.0,0.0,-0.6,0.0,0.0011870861053466797,0.005055904388427734,0
2.368452787399292,-0.026262110099196434,-0.007823986932635307,-0.574108362197876,-0.004172538955643332,-0.5595415548528119,-0.07589936568899222,0.23366610311704972,0.02674758230001558,0.0,0.0,-0.6,0.0,0.004522800445556641,0.008418560028076172,0
2.3796613216400146,-0.026459328830242157,-0.0077775102108716965,-0.5738449692726135,-0.004206341202169957,-0.5598885436051108,-0.08272319737894122,0.23806302312860408,0.026949978138507538,0.0,0.0,-0.6,0.0,0.004509687423706055,0.008101701736450195,0
2.3890788555145264,-0.026459328830242157,-0.0077775102108716965,-0.5738449692726135,-0.004206341202169957,-0.5598885436051108,-0.08272319737894122,0.23806302312860408,0.026949978138507538,0.0,0.0,-0.6,0.0,0.0010788440704345703,0.004741191864013672,0
2.3996098041534424,-0.026784779503941536,-0.0076749445870518684,-0.5732614398002625,-0.004194683695972914,-0.5606818669280956,-0.09046757162664958,0.2281471766800126,0.026841120938504208,0.0,0.0,-0.6,0.0,0.004865884780883789,0.00865483283996582,0
2.4097542762756348,-0.026784779503941536,-0.0076749445870518684,-0.5732614398002625,-0.004194683695972914,-0.5606818669280956,-0.09046757162664958,0.2281471766800126,0.026841120938504208,0.0,0.0,-0.6,0.0,0.0013256072998046875,0.00522923469543457,0
2.4184916019439697,-0.027066370472311974,-0.007564004044979811,-0.5726544260978699,-0.004209129134957218,-0.56088166106292,-0.09228741380913122,0.20283594650174738,0.026898555127978924,0.0,0.0,-0.6,0.0,0.004762172698974609,0.008684873580932617,0
