time,x,y,z,yaw,throttle,roll_rate,pitch_rate,yaw_rate,x_ref,y_ref,z_ref,yaw_ref,pred_time,nr_time,ctrl_callback_time,metadata
4.5299530029296875e-06,-0.053659576922655106,-0.1797953099012375,-0.2413812279701233,0.03174673899078783,-0.4961770728856507,0.08422237131730101,-0.05098633800747579,-0.011905027121543859,0.0,0.0,-0.6,0.0,0.006984710693359375,0.008422136306762695,0.011242151260375977,Hardware
0.013521432876586914,-0.053659576922655106,-0.1797953099012375,-0.2413812279701233,0.03174673899078783,-0.5044726375394092,0.14158262820224474,-0.0870963031870639,-0.02023854610662503,0.0,0.0,-0.6,0.0,0.005514621734619141,0.0065042972564697266,0.008939743041992188,Nonlinear
0.02455925941467285,-0.05368473008275032,-0.1797783523797989,-0.24130555987358093,0.03173079139716442,-0.5111371855325055,0.17912121473358705,-0.1119103301727962,-0.026066029048578458,0.0,0.0,-0.6,0.0,0.006560564041137695,0.007605552673339844,0.009997129440307617,1x Speed
0.03759503364562988,-0.05371083319187164,-0.1797514706850052,-0.24121986329555511,0.03171294787199975,-0.5165187482281965,0.20293828632434602,-0.1281778978315109,-0.030138575786006053,0.0,0.0,-0.6,0.0,0.0014958381652832031,0.0027284622192382812,0.006239652633666992,0OrderHold
0.04733777046203613,-0.05371083319187164,-0.1797514706850052,-0.24121986329555511,0.03171294787199975,-0.5208736796570589,0.21707677880784512,-0.13892191858491487,-0.03298935850220376,0.0,0.0,-0.6,0.0,0.002856731414794922,0.005301237106323242,0.010712623596191406,QuatYawError
0.06286430358886719,-0.05372268706560135,-0.1797386109828949,-0.24118424952030182,0.03174072551390539,-0.5243167411650349,0.22534891941042035,-0.1449836191273151,-0.034995323019256015,0.0,0.0,-0.6,0.0,0.0023598670959472656,0.004583835601806641,0.010130167007446289,NoPyJoules
0.07589006423950195,-0.05372268706560135,-0.1797386109828949,-0.24118424952030182,0.03174072551390539,-0.527095222346164,0.22937061704079292,-0.1487125475402693,-0.03639949818119294,0.0,0.0,-0.6,0.0,0.0024633407592773438,0.004713773727416992,0.009986400604248047,0
0.09048986434936523,-0.05370907112956047,-0.17980337142944336,-0.24119620025157928,0.03218132110929959,-0.5293491415823847,0.2320326301190735,-0.1506737674989613,-0.03754764414282175,0.0,0.0,-0.6,0.0,0.0023696422576904297,0.0046558380126953125,0.010126352310180664,0
0.10334992408752441,-0.05370907112956047,-0.17980337142944336,-0.24119620025157928,0.03218132110929959,-0.5311608263620211,0.2327312535790859,-0.15169207562740766,-0.03835134631596212,0.0,0.0,-0.6,0.0,0.002471446990966797,0.004652738571166992,0.010035514831542969,0
0.1185605525970459,-0.053682539612054825,-0.17984947562217712,-0.24122563004493713,0.0321583781643877,-0.5326143435851814,0.23060596950422277,-0.15005950990915135,-0.038905334232818556,0.0,0.0,-0.6,0.0,0.0015614032745361328,0.003499746322631836,0.008270978927612305,0
0.12976765632629395,-0.05356774106621742,-0.17985256016254425,-0.24122242629528046,0.032581546084151605,-0.5338428353629737,0.22597906744539975,-0.14820123847508704,-0.03945181374452953,0.0,0.0,-0.6,0.0,0.001863718032836914,0.004216909408569336,0.008457183837890625,0
0.1409463882446289,-0.05356774106621742,-0.17985256016254425,-0.24122242629528046,0.032581546084151605,-0.5348124549487274,0.22218557704516767,-0.14673727325207453,-0.039834349402727474,0.0,0.0,-0.6,0.0,0.0023353099822998047,0.004229545593261719,0.009198427200317383,0
0.15491080284118652,-0.0533580482006073,-0.17981131374835968,-0.24132877588272095,0.03294970463615592,-0.5354185702097235,0.21767752209239635,-0.14215371705454044,-0.0402401838204673,0.0,0.0,-0.6,0.0,0.002589702606201172,0.004762172698974609,0.010171651840209961,0
0.16846227645874023,-0.05306097865104675,-0.17969276010990143,-0.24147948622703552,0.033228373892316185,-0.5359050448880979,0.21263871408457288,-0.13257253154557544,-0.04062876888394529,0.0,0.0,-0.6,0.0,0.002617359161376953,0.0048787593841552734,0.010462760925292969,0
0.18230271339416504,-0.05306097865104675,-0.17969276010990143,-0.24147948622703552,0.033228373892316185,-0.5362718396911433,0.20893421904438103,-0.12594172092837,-0.04090077842838047,0.0,0.0,-0.6,0.0,0.002209186553955078,0.004256486892700195,0.008780956268310547,0
0.19440770149230957,-0.052711449563503265,-0.17953276634216309,-0.24160906672477722,0.03420935175147581,-0.5365351048560428,0.2009577208870441,-0.11740440558523778,-0.041459051806669686,0.0,0.0,-0.6,0.0,0.0017969608306884766,0.003937959671020508,0.008187055587768555,0
0.2057344913482666,-0.052711449563503265,-0.17953276634216309,-0.24160906672477722,0.03420935175147581,-0.5367186218680918,0.19534831488205015,-0.11152751172960373,-0.04184984317147216,0.0,0.0,-0.6,0.0,0.0020613670349121094,0.0035147666931152344,0.008991241455078125,0
0.2198784351348877,-0.05200706049799919,-0.17926327884197235,-0.2420862317085266,0.03657632721015507,-0.5366131561942465,0.18385517813463942,-0.09808388851951672,-0.0430110129238375,0.0,0.0,-0.6,0.0,0.002121448516845703,0.004189491271972656,0.00928044319152832,0
0.23071002960205078,-0.05200706049799919,-0.17926327884197235,-0.2420862317085266,0.03657632721015507,-0.5364885178410973,0.17600192747894672,-0.08892052535446963,-0.0438238317504943,0.0,0.0,-0.6,0.0,0.002462148666381836,0.004686594009399414,0.008825063705444336,0
0.24364018440246582,-0.051511500030756,-0.1789657324552536,-0.24283218383789062,0.03839687704623642,-0.5360973855219481,0.1642525142288042,-0.07635185384514233,-0.0450755111176845,0.0,0.0,-0.6,0.0,0.0026047229766845703,0.004919290542602539,0.008422136306762695,0
0.25550103187561035,-0.051511500030756,-0.1789657324552536,-0.24283218383789062,0.03839687704623642,-0.5357477064777001,0.15636503109610606,-0.06783162237425211,-0.04595168667471769,0.0,0.0,-0.6,0.0,0.0026793479919433594,0.005022287368774414,0.010305166244506836,0
0.2697179317474365,-0.050821345299482346,-0.1783602237701416,-0.24438442289829254,0.04171989565698084,-0.5352688225800735,0.14344015319721765,-0.04867375489211457,-0.04781114154366995,0.0,0.0,-0.6,0.0,0.001991748809814453,0.0035152435302734375,0.007242918014526367,0
0.2797231674194336,-0.050821345299482346,-0.1783602237701416,-0.24438442289829254,0.04171989565698084,-0.5348403992415025,0.13478305882420982,-0.035680701391707204,-0.04911275995193548,0.0,0.0,-0.6,0.0,0.0025255680084228516,0.0048787593841552734,0.009330034255981445,0
0.2932004928588867,-0.05035959929227829,-0.17793811857700348,-0.24573509395122528,0.04434637285078326,-0.5341636318248647,0.12192226140994064,-0.019170580882464486,-0.05100882178539666,0.0,0.0,-0.6,0.0,0.0022470951080322266,0.004518985748291016,0.009936332702636719,0
0.3074953556060791,-0.0498470813035965,-0.177485391497612,-0.24758534133434296,0.04709247540804426,-0.5332425838572045,0.1063763063268439,-0.003856270245603732,-0.0533658535277919,0.0,0.0,-0.6,0.0,0.0019605159759521484,0.0042955875396728516,0.008538484573364258,0
0.3190758228302002,-0.0498470813035965,-0.177485391497612,-0.24758534133434296,0.04709247540804426,-0.5324628458127231,0.09618534076463871,0.006453349273660041,-0.055015775747470706,0.0,0.0,-0.6,0.0,0.002111196517944336,0.003374814987182617,0.007317304611206055,0
0.3305671215057373,-0.04924030974507332,-0.17697946727275848,-0.2498081624507904,0.05004019647002228,-0.5314162759857457,0.07981901284370206,0.016303988706659958,-0.05727611669948559,0.0,0.0,-0.6,0.0,0.0027561187744140625,0.005121469497680664,0.009434223175048828,0
0.3420896530151367,-0.04924030974507332,-0.17697946727275848,-0.2498081624507904,0.05004019647002228,-0.5305410625667795,0.06915087243694405,0.02288869734453946,-0.05885835536589943,0.0,0.0,-0.6,0.0,0.003034830093383789,0.004557132720947266,0.009011030197143555,0
0.3537633419036865,-0.04867004230618477,-0.17640332877635956,-0.25238803029060364,0.05328089150323716,-0.5297689048516768,0.04933847103760286,0.022517704544137165,-0.06118118306984121,0.0,0.0,-0.6,0.0,0.0023813247680664062,0.003752470016479492,0.007289886474609375,0
0.3634002208709717,-0.04867004230618477,-0.17640332877635956,-0.25238803029060364,0.05328089150323716,-0.5291122207022229,0.03618642328814504,0.022170439855208442,-0.06280716246260397,0.0,0.0,-0.6,0.0,0.0019767284393310547,0.003345489501953125,0.006966352462768555,0
0.3789834976196289,-0.04805263131856918,-0.17578457295894623,-0.25520431995391846,0.056785360487824524,-0.5281032586568443,0.017613114903170485,0.02341345674907734,-0.06525952390675664,0.0,0.0,-0.6,0.0,0.0023424625396728516,0.003469228744506836,0.008087396621704102,0
0.39379119873046875,-0.04746504873037338,-0.17519529163837433,-0.2585115134716034,0.060509443174528936,-0.5271598658462209,-0.004947062417964821,0.023690031434983463,-0.06837270792517758,0.0,0.0,-0.6,0.0,0.0022063255310058594,0.00609135627746582,0.013880729675292969,0
0.4080941677093506,-0.04746504873037338,-0.17519529163837433,-0.2585115134716034,0.060509443174528936,-0.5263657794862127,-0.019892334254956005,0.023732372921142553,-0.07055193673807236,0.0,0.0,-0.6,0.0,0.0032262802124023438,0.0062596797943115234,0.012861490249633789,0
0.4253664016723633,-0.04626329615712166,-0.17393897473812103,-0.26543715596199036,0.06858595274194025,-0.525441080715751,-0.04112435375130233,0.034053836296213794,-0.07510608799488949,0.0,0.0,-0.6,0.0,0.003735065460205078,0.005590200424194336,0.009902715682983398,0
0.4397001266479492,-0.04626329615712166,-0.17393897473812103,-0.26543715596199036,0.06858595274194025,-0.5246651374426771,-0.05521909281908864,0.04091057981807161,-0.07829399387464982,0.0,0.0,-0.6,0.0,0.0027971267700195312,0.004647970199584961,0.011258602142333984,0
0.45793819427490234,-0.045640766620635986,-0.17327028512954712,-0.26926514506340027,0.07294064778178917,-0.5233957268410468,-0.06455136557564158,0.05174337861327889,-0.08215853863042194,0.0,0.0,-0.6,0.0,0.003639698028564453,0.004750251770019531,0.012350082397460938,0
0.4750077724456787,-0.04497608169913292,-0.1724506914615631,-0.273358017206192,0.07743857505680919,-0.5221961338681702,-0.07436733172094719,0.06422605235401489,-0.08655044268760204,0.0,0.0,-0.6,0.0,0.0034360885620117188,0.0067517757415771484,0.012914896011352539,0
0.4939107894897461,-0.044254131615161896,-0.17148549854755402,-0.27762094140052795,0.08216852704890179,-0.521133494581828,-0.08473023187025558,0.07236162390145806,-0.09139850752467157,0.0,0.0,-0.6,0.0,0.0015044212341308594,0.003918886184692383,0.008269071578979492,0
0.5066754817962646,-0.04388061538338661,-0.17095761001110077,-0.27979010343551636,0.08456378999016,-0.5201470977084138,-0.0943941051373354,0.07952424263014696,-0.09569037651359069,0.0,0.0,-0.6,0.0,0.003045797348022461,0.004131793975830078,0.008847236633300781,0
0.5216424465179443,-0.043005675077438354,-0.16986024379730225,-0.28442469239234924,0.08938784354687812,-0.5188845411050885,-0.10422032009731783,0.08816347215803694,-0.10050370488960467,0.0,0.0,-0.6,0.0,0.001112222671508789,0.002396106719970703,0.008216381072998047,0
0.5324029922485352,-0.043005675077438354,-0.16986024379730225,-0.28442469239234924,0.08938784354687812,-0.5178632498128833,-0.11046200483760918,0.09388540055228475,-0.10387303475281089,0.0,0.0,-0.6,0.0,0.0023605823516845703,0.0040416717529296875,0.008181333541870117,0
0.5475094318389893,-0.04168909415602684,-0.16807875037193298,-0.29177477955818176,0.09688005309782106,-0.5166477696941626,-0.11763479023568811,0.10861445478285152,-0.10904114423864535,0.0,0.0,-0.6,0.0,0.0021507740020751953,0.006325960159301758,0.012232780456542969,0
0.5617413520812988,-0.04168909415602684,-0.16807875037193298,-0.29177477955818176,0.09688005309782106,-0.5156667602982862,-0.12213928535624732,0.11850107743794608,-0.11265882087873103,0.0,0.0,-0.6,0.0,0.001613616943359375,0.00388336181640625,0.008764982223510742,0
0.576167106628418,-0.04071963578462601,-0.16684241592884064,-0.2968553900718689,0.1018673268897176,-0.514681605306259,-0.12137418069289242,0.1359602308657216,-0.11706142219875905,0.0,0.0,-0.6,0.0,0.0026412010192871094,0.0036840438842773438,0.009254693984985352,0
0.5910248756408691,-0.039684925228357315,-0.16548892855644226,-0.30201929807662964,0.10687476476937413,-0.5138052143301808,-0.11571541371187134,0.14764804806054035,-0.12202103232765889,0.0,0.0,-0.6,0.0,0.0033626556396484375,0.00553131103515625,0.012202739715576172,0
0.6088950634002686,-0.039684925228357315,-0.16548892855644226,-0.30201929807662964,0.10687476476937413,-0.51310637187617,-0.11162060289017,0.15559718419621274,-0.1254927594178851,0.0,0.0,-0.6,0.0,0.002243518829345703,0.003994464874267578,0.008643865585327148,0
0.6231896877288818,-0.038040436804294586,-0.16328956186771393,-0.3097245693206787,0.11440383891254843,-0.5122715681467132,-0.10923464570556123,0.15964002220657778,-0.13074637118472,0.0,0.0,-0.6,0.0,0.0034542083740234375,0.005373239517211914,0.009050846099853516,0
0.6342768669128418,-0.038040436804294586,-0.16328956186771393,-0.3097245693206787,0.11440383891254843,-0.5116037022808481,-0.10737013802965804,0.16240183099182098,-0.13442389942150598,0.0,0.0,-0.6,0.0,0.002086162567138672,0.003746509552001953,0.009572505950927734,0
0.6487565040588379,-0.03616613149642944,-0.16098207235336304,-0.31742408871650696,0.12187096385023856,-0.5109838083138323,-0.10742008908849546,0.16546025658591218,-0.13979834103888825,0.0,0.0,-0.6,0.0,0.001697540283203125,0.003938436508178711,0.009564638137817383,0
0.6632847785949707,-0.03616613149642944,-0.16098207235336304,-0.31742408871650696,0.12187096385023856,-0.5104874381295028,-0.10729126823378472,0.1675551942108336,-0.14356045017105748,0.0,0.0,-0.6,0.0,0.002605915069580078,0.004258155822753906,0.011467456817626953,0
0.6786379814147949,-0.03422563895583153,-0.15849842131137848,-0.3251346945762634,0.12949562739844983,-0.5098331070855003,-0.11037845061298059,0.1703259582512365,-0.14905317539415344,0.0,0.0,-0.6,0.0,0.0031485557556152344,0.0050127506256103516,0.01028895378112793,0
0.6928465366363525,-0.03422563895583153,-0.15849842131137848,-0.3251346945762634,0.12949562739844983,-0.5093081976942327,-0.1123253142441275,0.17223958581267346,-0.15289808305032224,0.0,0.0,-0.6,0.0,0.0024750232696533203,0.004244089126586914,0.00963902473449707,0
0.7044994831085205,-0.03213324770331383,-0.15577158331871033,-0.33286744356155396,0.1370237137568449,-0.5088889836831726,-0.11112549985959667,0.16603156466908606,-0.1584125507940369,0.0,0.0,-0.6,0.0,0.0038683414459228516,0.006842374801635742,0.010366678237915039,0
0.7211873531341553,-0.03213324770331383,-0.15577158331871033,-0.33286744356155396,0.1370237137568449,-0.5085464011674994,-0.11019564955258464,0.16184480608432214,-0.1622726782146388,0.0,0.0,-0.6,0.0,0.0010704994201660156,0.0019969940185546875,0.006006479263305664,0
0.7331027984619141,-0.030716555193066597,-0.15399868786334991,-0.3379445970058441,0.14192024218850713,-0.508155731248522,-0.10558084789385017,0.15574114551028223,-0.1668109655709328,0.0,0.0,-0.6,0.0,0.002058267593383789,0.005634784698486328,0.009732484817504883,0
0.747377872467041,-0.029160387814044952,-0.15219631791114807,-0.343061238527298,0.14667245486835384,-0.5076906889724137,-0.10077067573715418,0.15492768783264685,-0.1717698464752807,0.0,0.0,-0.6,0.0,0.0026197433471679688,0.004887819290161133,0.010934829711914062,0
0.7610189914703369,-0.029160387814044952,-0.15219631791114807,-0.343061238527298,0.14667245486835384,-0.5073163481895648,-0.09739447703720268,0.15444636096304462,-0.1752410631083257,0.0,0.0,-0.6,0.0,0.002675771713256836,0.004753589630126953,0.01028752326965332,0
0.7759425640106201,-0.02672978676855564,-0.14952681958675385,-0.3504258096218109,0.1533917082243622,-0.5070513461159435,-0.09550125326118657,0.14798948817710705,-0.1801906347599589,0.0,0.0,-0.6,0.0,0.0025882720947265625,0.00458216667175293,0.008105993270874023,0
0.7878680229187012,-0.02672978676855564,-0.14952681958675385,-0.3504258096218109,0.1533917082243622,-0.5068318339967642,-0.09414646060580777,0.1436351246486783,-0.18365533491610359,0.0,0.0,-0.6,0.0,0.0018084049224853516,0.003080129623413086,0.008057117462158203,0
0.8020656108856201,-0.025110553950071335,-0.14779303967952728,-0.35522040724754333,0.1577034634310843,-0.5067249654450047,-0.08960476340987958,0.13576735592953756,-0.1876975332279251,0.0,0.0,-0.6,0.0,0.002304553985595703,0.004287242889404297,0.01074361801147461,0
0.8152084350585938,-0.025110553950071335,-0.14779303967952728,-0.35522040724754333,0.1577034634310843,-0.5066314619130587,-0.08647656640544657,0.1304308958444644,-0.19052707204620134,0.0,0.0,-0.6,0.0,0.0025780200958251953,0.006276845932006836,0.011130809783935547,0
0.8304226398468018,-0.022546982392668724,-0.14511431753635406,-0.3623864948749542,0.16381707612198254,-0.5065499412681592,-0.07971101659796673,0.12444551660329829,-0.19480035397808013,0.0,0.0,-0.6,0.0,0.0011420249938964844,0.002019643783569336,0.005800008773803711,0
0.8433468341827393,-0.021683335304260254,-0.14421050250530243,-0.3647644817829132,0.16576791389585582,-0.5063372518128505,-0.07390913670004756,0.11822283618560975,-0.1985232154955983,0.0,0.0,-0.6,0.0,0.002692699432373047,0.004841327667236328,0.010223627090454102,0
0.8552799224853516,-0.021683335304260254,-0.14421050250530243,-0.3647644817829132,0.16576791389585582,-0.5061607671978464,-0.06990926473655988,0.11403026368504844,-0.20112921855786212,0.0,0.0,-0.6,0.0,0.004238605499267578,0.005634307861328125,0.010681390762329102,0
0.8714206218719482,-0.0192232858389616,-0.14157572388648987,-0.3717699348926544,0.17146008910539226,-0.5058191543785061,-0.0652923266839383,0.10811059138619364,-0.20508798640502163,0.0,0.0,-0.6,0.0,0.0032100677490234375,0.005618095397949219,0.010527372360229492,0
0.8852148056030273,-0.0192232858389616,-0.14157572388648987,-0.3717699348926544,0.17146008910539226,-0.5055389818129659,-0.062080646422320564,0.10415557352391407,-0.20785912389803446,0.0,0.0,-0.6,0.0,0.0028486251831054688,0.003813505172729492,0.00988316535949707,0
0.9004640579223633,-0.01676221936941147,-0.13896475732326508,-0.3787553608417511,0.17691443484847136,-0.5054671557748048,-0.05703656121482198,0.08510841120635065,-0.2118442997967969,0.0,0.0,-0.6,0.0,0.0036423206329345703,0.0059473514556884766,0.01036834716796875,0
0.9144477844238281,-0.01676221936941147,-0.13896475732326508,-0.3787553608417511,0.17691443484847136,-0.5053887206129727,-0.053552796226244134,0.07214710687988772,-0.21463392292593178,0.0,0.0,-0.6,0.0,0.002399921417236328,0.004765748977661133,0.009641885757446289,0
0.9311954975128174,-0.014398099854588509,-0.1363886147737503,-0.38565146923065186,0.1822297456440199,-0.5048620408158232,-0.042993677160709724,0.05946557188599134,-0.21857990066465577,0.0,0.0,-0.6,0.0,0.0018317699432373047,0.0036034584045410156,0.008814811706542969,0
0.9411649703979492,-0.014398099854588509,-0.1363886147737503,-0.38565146923065186,0.1822297456440199,-0.5044267661767282,-0.03570373802349438,0.050968668907206124,-0.22134208508176373,0.0,0.0,-0.6,0.0,0.002791166305541992,0.004777669906616211,0.008388042449951172,0
0.9566833972930908,-0.012869209982454777,-0.13466614484786987,-0.3902324140071869,0.18554771274752996,-0.5045151710563138,-0.031166647866671265,0.04003980070442946,-0.22451985183755516,0.0,0.0,-0.6,0.0,0.0023369789123535156,0.0049288272857666016,0.009699106216430664,0
0.9725637435913086,-0.0113866301253438,-0.1330108642578125,-0.39479807019233704,0.18863458261056798,-0.5042135503269279,-0.026520233905589843,0.026315740828214647,-0.2279018647652482,0.0,0.0,-0.6,0.0,0.002961397171020508,0.004518985748291016,0.010857105255126953,0
0.9864964485168457,-0.009903492406010628,-0.1313263326883316,-0.3993113934993744,0.191598724883288,-0.5039199870275477,-0.021087162149308784,0.010458880744983481,-0.23138082716690325,0.0,0.0,-0.6,0.0,0.0031414031982421875,0.00574183464050293,0.011144876480102539,0
1.0011892318725586,-0.009903492406010628,-0.1313263326883316,-0.3993113934993744,0.191598724883288,-0.5036724798041262,-0.017314626130310158,-0.0002729620845959707,-0.23381610084806284,0.0,0.0,-0.6,0.0,0.0019905567169189453,0.004418134689331055,0.00884699821472168,0
1.0166780948638916,-0.00852495152503252,-0.1297042816877365,-0.4038379490375519,0.1944123686108693,-0.5036059064121982,-0.014573814162425645,-0.014126945011261133,-0.23657590882271723,0.0,0.0,-0.6,0.0,0.00180816650390625,0.003696918487548828,0.009850740432739258,0
1.0311684608459473,-0.007153017912060022,-0.12815794348716736,-0.4084136486053467,0.19706801957390885,-0.5034994292190021,-0.008905462582639745,-0.02377871417262826,-0.23950364351611494,0.0,0.0,-0.6,0.0,0.0013017654418945312,0.0032231807708740234,0.007298469543457031,0
1.044534683227539,-0.006502931006252766,-0.12737083435058594,-0.4106167256832123,0.19836439781641832,-0.5031886456896277,-0.002702636646349327,-0.028019351745527356,-0.24203919964243478,0.0,0.0,-0.6,0.0,0.0019409656524658203,0.0028803348541259766,0.010315179824829102,0
1.0612645149230957,-0.005268635228276253,-0.12586191296577454,-0.41511890292167664,0.20073983923714842,-0.5029347624697755,0.0017312109222365167,-0.03289909665809609,-0.24470487946363234,0.0,0.0,-0.6,0.0,0.0036802291870117188,0.006035327911376953,0.011157989501953125,0
1.0728390216827393,-0.005268635228276253,-0.12586191296577454,-0.41511890292167664,0.20073983923714842,-0.5027300533615902,0.004798219010664928,-0.036172206782721324,-0.24657085533847142,0.0,0.0,-0.6,0.0,0.0026886463165283203,0.004770994186401367,0.010226011276245117,0
1.0892789363861084,-0.0035502188839018345,-0.1236785277724266,-0.4217279255390167,0.20416249532516081,-0.5025553814464694,0.011152336272437991,-0.04655492831774216,-0.24916053448386272,0.0,0.0,-0.6,0.0,0.0014183521270751953,0.0033011436462402344,0.00821232795715332,0
1.1036579608917236,-0.002981749130412936,-0.12296325713396072,-0.4239451289176941,0.20528733169739555,-0.5021778598088654,0.016669199613976726,-0.05365949687883222,-0.25139512352522503,0.0,0.0,-0.6,0.0,0.0026149749755859375,0.004891633987426758,0.010143041610717773,0
1.1179823875427246,-0.0019043893553316593,-0.12155170738697052,-0.4283559322357178,0.20733275138924556,-0.5020958183894653,0.018584448443949644,-0.058036411176269176,-0.25372636823862227,0.0,0.0,-0.6,0.0,0.002277851104736328,0.004897117614746094,0.010613203048706055,0
1.1321630477905273,-0.0019043893553316593,-0.12155170738697052,-0.4283559322357178,0.20733275138924556,-0.5020300391976195,0.019908609644125556,-0.0610064723984353,-0.255358239538001,0.0,0.0,-0.6,0.0,0.002512693405151367,0.00430750846862793,0.008227109909057617,0
1.1431474685668945,-0.0005247614462859929,-0.119526207447052,-0.4347595274448395,0.2101400325498264,-0.5017198946097948,0.02464965680512115,-0.057660899626646465,-0.2575532798827834,0.0,0.0,-0.6,0.0,0.002110004425048828,0.005837202072143555,0.01004648208618164,0
1.157715082168579,-0.0005247614462859929,-0.119526207447052,-0.4347595274448395,0.2101400325498264,-0.5014721030894744,0.0279262995772656,-0.0553424627078743,-0.2590898081241318,0.0,0.0,-0.6,0.0,0.0021097660064697266,0.003058195114135742,0.008564233779907227,0
1.1712610721588135,0.0003705308772623539,-0.11820846796035767,-0.43910714983940125,0.2118624249116682,-0.5011799329462954,0.029794600917426705,-0.05597636736550557,-0.2608112750287661,0.0,0.0,-0.6,0.0,0.002075672149658203,0.0038585662841796875,0.008972883224487305,0
1.1853013038635254,0.001133092911913991,-0.11694546788930893,-0.44324204325675964,0.21353167301415052,-0.5009715808648776,0.03381753107117265,-0.059497467777948385,-0.2626422699004409,0.0,0.0,-0.6,0.0,0.00365447998046875,0.006410121917724609,0.01209402084350586,0
1.2011303901672363,0.001133092911913991,-0.11694546788930893,-0.44324204325675964,0.21353167301415052,-0.5008058190721327,0.03660188256182072,-0.06187470616308902,-0.26392396631059595,0.0,0.0,-0.6,0.0,0.0019898414611816406,0.004372835159301758,0.008071184158325195,0
1.2159931659698486,0.0018878119299188256,-0.1157657578587532,-0.4474896788597107,0.21519051859116112,-0.5006860187151158,0.03846287623707744,-0.06165109336300886,-0.26544322088910105,0.0,0.0,-0.6,0.0,0.002174854278564453,0.004350423812866211,0.008202552795410156,0
1.2301173210144043,0.0025817910209298134,-0.11465708166360855,-0.4516184628009796,0.21670124456551762,-0.5003600385906569,0.042249430453546594,-0.05733290888269447,-0.2670732213344382,0.0,0.0,-0.6,0.0,0.0018324851989746094,0.003866434097290039,0.009061098098754883,0
1.2433311939239502,0.0028809322975575924,-0.11413589119911194,-0.4537232220172882,0.21739718325697102,-0.5001926237909204,0.044171990469917655,-0.05059586026593222,-0.2684751986554695,0.0,0.0,-0.6,0.0,0.0069005489349365234,0.009196996688842773,0.013698101043701172,0
1.2612919807434082,0.0034949863329529762,-0.11303229629993439,-0.4578136205673218,0.21865975902900167,-0.5000034579761071,0.04611751669591574,-0.04258645445268816,-0.26993004869470283,0.0,0.0,-0.6,0.0,0.0015904903411865234,0.0027441978454589844,0.006165981292724609,0
1.2715096473693848,0.0037570178974419832,-0.11249227076768875,-0.45976853370666504,0.21927711269929562,-0.49991736398865205,0.04669905104494554,-0.040922289465095046,-0.27117995134852657,0.0,0.0,-0.6,0.0,0.002328157424926758,0.003991365432739258,0.008886098861694336,0
1.2844984531402588,0.004288662690669298,-0.11147729307413101,-0.4637259840965271,0.22045681554366625,-0.4996620194827117,0.04854339164186121,-0.03936325559456399,-0.2724972717728421,0.0,0.0,-0.6,0.0,0.0025582313537597656,0.0039713382720947266,0.0071735382080078125,0
1.2952618598937988,0.004288662690669298,-0.11147729307413101,-0.4637259840965271,0.22045681554366625,-0.4994571655132485,0.04985164545318215,-0.03829418463540795,-0.2734193960698634,0.0,0.0,-0.6,0.0,0.0019419193267822266,0.0034754276275634766,0.007478952407836914,0
1.3180954456329346,0.00507707754150033,-0.10996386408805847,-0.4695151448249817,0.22223286061038622,-0.49957263970027244,0.04860681926050204,-0.029312723156123405,-0.27473089997779787,0.0,0.0,-0.6,0.0,0.0021054744720458984,0.0042972564697265625,0.008691787719726562,0
1.3300998210906982,0.00507707754150033,-0.10996386408805847,-0.4695151448249817,0.22223286061038622,-0.4996625067442666,0.04772446358828457,-0.0231892310595224,-0.27564895271335244,0.0,0.0,-0.6,0.0,0.002443075180053711,0.004352092742919922,0.008584022521972656,0
1.341432809829712,0.0054931435734033585,-0.10898037254810333,-0.47325459122657776,0.22316265348310227,-0.4996614883529982,0.04512848602091317,-0.01412341580651205,-0.27664026195550906,0.0,0.0,-0.6,0.0,0.0017058849334716797,0.002933502197265625,0.006067037582397461,0
1.3516321182250977,0.005707753822207451,-0.10849737375974655,-0.47508561611175537,0.2236467739478233,-0.4995198806380611,0.04387545803727685,-0.004834488295847176,-0.2775157235992892,0.0,0.0,-0.6,0.0,0.0029022693634033203,0.004158973693847656,0.0072040557861328125,0
1.3606960773468018,0.005707753822207451,-0.10849737375974655,-0.47508561611175537,0.2236467739478233,-0.499403676610936,0.04304743121235783,0.0014964718361688391,-0.2781285467499356,0.0,0.0,-0.6,0.0,0.0021409988403320312,0.003354787826538086,0.006426572799682617,0
1.372396469116211,0.006071200594305992,-0.10754045099020004,-0.47868359088897705,0.2245809852671237,-0.49950155222970605,0.03827525722626198,0.0014026651403289078,-0.27890785220012554,0.0,0.0,-0.6,0.0,0.0022325515747070312,0.0035393238067626953,0.009224176406860352,0
1.383615493774414,0.006071200594305992,-0.10754045099020004,-0.47868359088897705,0.2245809852671237,-0.49957680393222803,0.03499790663077016,0.001334565925617631,-0.2794533660152587,0.0,0.0,-0.6,0.0,0.0021979808807373047,0.004085540771484375,0.009193658828735352,0
1.3952012062072754,0.006607423070818186,-0.10614053905010223,-0.4837852716445923,0.22576263431288823,-0.4997734527778509,0.034789455925519935,0.002962200143224616,-0.2802783440780134,0.0,0.0,-0.6,0.0,0.002062559127807617,0.0036077499389648438,0.007922887802124023,0
1.406583309173584,0.006607423070818186,-0.10614053905010223,-0.4837852716445923,0.22576263431288823,-0.4999317752594815,0.03460161326953429,0.004072358791407808,-0.28085582872194187,0.0,0.0,-0.6,0.0,0.0020859241485595703,0.003593921661376953,0.008764028549194336,0
1.419205665588379,0.006921906024217606,-0.10522077232599258,-0.48695454001426697,0.2264352986474679,-0.5000775806740843,0.03229213447664265,0.010582238970892967,-0.28151231709814994,0.0,0.0,-0.6,0.0,0.00153350830078125,0.0026001930236816406,0.00690913200378418,0
1.429673671722412,0.006921906024217606,-0.10522077232599258,-0.48695454001426697,0.2264352986474679,-0.5001929974257614,0.030678965618471363,0.015019753740397143,-0.28197185896151133,0.0,0.0,-0.6,0.0,0.0023674964904785156,0.003933429718017578,0.008566141128540039,0
1.4405550956726074,0.007360483985394239,-0.10387014597654343,-0.4915574789047241,0.227044898166222,-0.5003087392960545,0.021850973498574205,0.019136550751687284,-0.2825221380853906,0.0,0.0,-0.6,0.0,0.0013043880462646484,0.0025017261505126953,0.005358219146728516,0
1.4506309032440186,0.007360483985394239,-0.10387014597654343,-0.4915574789047241,0.227044898166222,-0.5003950406055789,0.015799189200131018,0.021938870020881608,-0.2829073334721063,0.0,0.0,-0.6,0.0,0.0014574527740478516,0.002663850784301758,0.006273508071899414,0
1.4655210971832275,0.007581751793622971,-0.10297102481126785,-0.4944446384906769,0.22747253222089892,-0.5005991135354098,0.011933002686169685,0.01987311090652201,-0.28333733301331104,0.0,0.0,-0.6,0.0,0.0033288002014160156,0.006708621978759766,0.01787257194519043,0
1.488131046295166,0.007581751793622971,-0.10297102481126785,-0.4944446384906769,0.22747253222089892,-0.50076077156222,0.009249249739704264,0.0184603919234251,-0.28363833269215455,0.0,0.0,-0.6,0.0,0.003560781478881836,0.00738978385925293,0.014844179153442383,0
1.5044615268707275,0.008053340949118137,-0.101071797311306,-0.4997541904449463,0.22779466476056687,-0.5010699509756421,0.001449984457295008,0.0212912289076133,-0.28396983216972044,0.0,0.0,-0.6,0.0,0.0021543502807617188,0.003681659698486328,0.00701451301574707,0
1.5152432918548584,0.008053340949118137,-0.101071797311306,-0.4997541904449463,0.22779466476056687,-0.5013136023106202,-0.003948760944439031,0.02321599438615587,-0.2842018818040167,0.0,0.0,-0.6,0.0,0.002386808395385742,0.004606485366821289,0.008073806762695312,0
1.5268173217773438,0.0082857059314847,-0.10014642775058746,-0.5022989511489868,0.2278156077530684,-0.5013628314128761,-0.012711809208034098,0.023563845172808934,-0.28437217017021216,0.0,0.0,-0.6,0.0,0.0013594627380371094,0.002218008041381836,0.006305694580078125,0
1.5377376079559326,0.0082857059314847,-0.10014642775058746,-0.5022989511489868,0.2278156077530684,-0.5013969383607697,-0.018699560206298933,0.02379875691137713,-0.28449137202654734,0.0,0.0,-0.6,0.0,0.0018742084503173828,0.002972126007080078,0.006785869598388672,0
1.5480856895446777,0.008536755107343197,-0.09918584674596786,-0.5047265887260437,0.22766110000090806,-0.5013917799861315,-0.022968051338983986,0.02340387760503328,-0.28451687291892364,0.0,0.0,-0.6,0.0,0.0013158321380615234,0.002929210662841797,0.006552934646606445,0
1.5576198101043701,0.008536755107343197,-0.09918584674596786,-0.5047265887260437,0.22766110000090806,-0.5013854774083049,-0.02587751575396735,0.023134706417954575,-0.28453472354358705,0.0,0.0,-0.6,0.0,0.0019297599792480469,0.002824544906616211,0.007490396499633789,0
1.569373607635498,0.008765341714024544,-0.09825282543897629,-0.5070956945419312,0.22745094960085266,-0.5015263836691449,-0.024820771705268377,0.023413357779655895,-0.2844684125808307,0.0,0.0,-0.6,0.0,0.0021753311157226562,0.004372119903564453,0.008696794509887695,0
1.580066204071045,0.008765341714024544,-0.09825282543897629,-0.5070956945419312,0.22745094960085266,-0.5016403419169465,-0.02412857651870989,0.023599559880062078,-0.2844219949069013,0.0,0.0,-0.6,0.0,0.0023403167724609375,0.004178285598754883,0.007960081100463867,0
1.5922722816467285,0.009158259257674217,-0.09672623872756958,-0.5106791257858276,0.2269932668047882,-0.5018191161052731,-0.027457947086208676,0.020159263521976747,-0.2842178714866267,0.0,0.0,-0.6,0.0,0.0027451515197753906,0.0044214725494384766,0.008320808410644531,0
1.6025021076202393,0.009158259257674217,-0.09672623872756958,-0.5106791257858276,0.2269932668047882,-0.5019610622217227,-0.029765612112039163,0.01780861480750694,-0.2840749850924344,0.0,0.0,-0.6,0.0,0.002711057662963867,0.00499415397644043,0.008031606674194336,0
1.617124080657959,0.009413191117346287,-0.09572728723287582,-0.5129238367080688,0.22655541193726647,-0.5019260750552038,-0.03339578021214389,0.01792682079592837,-0.2838107690411829,0.0,0.0,-0.6,0.0,0.002199888229370117,0.003255128860473633,0.0073702335357666016,0
1.6265995502471924,0.009413191117346287,-0.09572728723287582,-0.5129238367080688,0.22655541193726647,-0.5018965021106807,-0.03586417558522979,0.018008533906211682,-0.28362581780530316,0.0,0.0,-0.6,0.0,0.0014519691467285156,0.0030999183654785156,0.0068242549896240234,0
1.6392567157745361,0.009649340994656086,-0.0947129875421524,-0.5150955319404602,0.2261659022291306,-0.5019180218285608,-0.03507732567026981,0.020544142946235133,-0.2833502857996327,0.0,0.0,-0.6,0.0,0.002415895462036133,0.0045053958892822266,0.00912332534790039,0
1.6495354175567627,0.009649340994656086,-0.0947129875421524,-0.5150955319404602,0.2261659022291306,-0.5019357636309614,-0.034544107851300285,0.022272021621596454,-0.2831574133956697,0.0,0.0,-0.6,0.0,0.0012006759643554688,0.0028629302978515625,0.005720376968383789,0
1.6606342792510986,0.009868836961686611,-0.09369409084320068,-0.5172386765480042,0.22568655071315039,-0.5019919009893181,-0.03205755069487669,0.01979510532378395,-0.2828426458944005,0.0,0.0,-0.6,0.0,0.001987934112548828,0.0034151077270507812,0.006958484649658203,0
1.6711781024932861,0.009994174353778362,-0.0931432694196701,-0.518257737159729,0.22535575275913233,-0.5020819713078545,-0.028567912240588116,0.018715799899473265,-0.2824982594107553,0.0,0.0,-0.6,0.0,0.002222299575805664,0.0041196346282958984,0.007582187652587891,0
1.6831903457641602,0.010221284814178944,-0.0920778140425682,-0.5203685164451599,0.22480179408046408,-0.502257526549112,-0.026800390793338708,0.015707400267962707,-0.2820494543677032,0.0,0.0,-0.6,0.0,0.00205230712890625,0.0038480758666992188,0.007893085479736328,0
1.6920228004455566,0.010221284814178944,-0.0920778140425682,-0.5203685164451599,0.22480179408046408,-0.502399000942116,-0.02562539151352658,0.013650728529627426,-0.28173529083756654,0.0,0.0,-0.6,0.0,0.0022842884063720703,0.004079580307006836,0.007745265960693359,0
1.7053513526916504,0.010452467948198318,-0.09096760302782059,-0.5223707556724548,0.2243127742120218,-0.5023272647808035,-0.028116881066455223,0.010696479758568127,-0.2813319939157996,0.0,0.0,-0.6,0.0,0.0020058155059814453,0.003957986831665039,0.008055448532104492,0
1.7177398204803467,0.010452467948198318,-0.09096760302782059,-0.5223707556724548,0.2243127742120218,-0.5022683716190333,-0.029804684225486627,0.008684846614253904,-0.2810496860705682,0.0,0.0,-0.6,0.0,0.0024538040161132812,0.004318714141845703,0.008991479873657227,0
1.7292759418487549,0.010629701428115368,-0.08985387533903122,-0.5242698788642883,0.2237451136798998,-0.50240713934943,-0.030444395175605543,0.011458411352963245,-0.28063919787936054,0.0,0.0,-0.6,0.0,0.00229644775390625,0.004345893859863281,0.007840394973754883,0
1.7399334907531738,0.010629701428115368,-0.08985387533903122,-0.5242698788642883,0.2237451136798998,-0.5025187712260191,-0.03090081602630973,0.013347393977252698,-0.2803518561455111,0.0,0.0,-0.6,0.0,0.001634359359741211,0.0037920475006103516,0.006658792495727539,0
1.7511241436004639,0.010815045796334743,-0.08877524733543396,-0.5261017084121704,0.22290654116509195,-0.5025621092151009,-0.0273101560448957,0.014510961223007011,-0.2798362522387678,0.0,0.0,-0.6,0.0,0.002040863037109375,0.004073381423950195,0.008460521697998047,0
1.7618961334228516,0.010975499637424946,-0.08763860166072845,-0.5276980996131897,0.22206799081345457,-0.502624456964018,-0.023598107027437396,0.012029693046612102,-0.2791608731221836,0.0,0.0,-0.6,0.0,0.0022306442260742188,0.004065513610839844,0.008116960525512695,0
1.7736546993255615,0.010975499637424946,-0.08763860166072845,-0.5276980996131897,0.22206799081345457,-0.5026752635928876,-0.021077518760565496,0.010334835499828249,-0.27868810774057445,0.0,0.0,-0.6,0.0,0.002500772476196289,0.0036208629608154297,0.007951736450195312,0
1.785278081893921,0.01112467423081398,-0.08653967082500458,-0.5292542576789856,0.22134879956629816,-0.5028506960126907,-0.02202800385238803,0.006076926000033507,-0.27808747525576455,0.0,0.0,-0.6,0.0,0.002602100372314453,0.004457950592041016,0.008947134017944336,0
1.7968714237213135,0.01112467423081398,-0.08653967082500458,-0.5292542576789856,0.22134879956629816,-0.5029911805323627,-0.02270577169598992,0.003170329602963353,-0.2776670325163974,0.0,0.0,-0.6,0.0,0.004559040069580078,0.006563663482666016,0.009953975677490234,0
1.815432071685791,0.01130165345966816,-0.08540672808885574,-0.5307051539421082,0.22048284234175006,-0.5031418577782463,-0.025679570391562923,0.0018049587894505075,-0.2770479886396351,0.0,0.0,-0.6,0.0,0.0030553340911865234,0.006865501403808594,0.01507425308227539,0
1.8367247581481934,0.011541031301021576,-0.0837203785777092,-0.5327603220939636,0.21903914848259837,-0.503226184870893,-0.026287131096981362,0.00573309013597976,-0.2760732727287199,0.0,0.0,-0.6,0.0,0.0044786930084228516,0.007987022399902344,0.016075611114501953,0
1.8558545112609863,0.011541031301021576,-0.0837203785777092,-0.5327603220939636,0.21903914848259837,-0.5032938063801478,-0.026711975369759923,0.008410411097985846,-0.275390971591079,0.0,0.0,-0.6,0.0,0.0028760433197021484,0.006043434143066406,0.014360904693603516,0
1.8754596710205078,0.011811275035142899,-0.08142167329788208,-0.5354108810424805,0.2169282568789821,-0.5034971980888735,-0.02972978677618789,0.0015210920258758925,-0.2741217764433749,0.0,0.0,-0.6,0.0,0.003184795379638672,0.006730556488037109,0.014961957931518555,0
1.8951175212860107,0.011811275035142899,-0.08142167329788208,-0.5354108810424805,0.2169282568789821,-0.5036590903105319,-0.031823205816266985,-0.0031797350807861923,-0.2732333398399816,0.0,0.0,-0.6,0.0,0.0035364627838134766,0.007156848907470703,0.01565408706665039,0
1.915130615234375,0.012098339386284351,-0.07906436175107956,-0.537908136844635,0.21453208701475604,-0.5038346014037932,-0.031232122065319886,-0.0021296034881016393,-0.27171287051852216,0.0,0.0,-0.6,0.0,0.0037415027618408203,0.007192373275756836,0.016246557235717773,0
1.9345624446868896,0.012098339386284351,-0.07906436175107956,-0.537908136844635,0.21453208701475604,-0.5039759821447694,-0.030851470262220706,-0.001416949656224333,-0.27064854199351485,0.0,0.0,-0.6,0.0,0.0033142566680908203,0.0061647891998291016,0.014238595962524414,0
1.954057216644287,0.012265508063137531,-0.07727817445993423,-0.5397145748138428,0.21244093881392148,-0.5041408550741491,-0.0333864497496676,-0.0017248819975897594,-0.2691193314506825,0.0,0.0,-0.6,0.0,0.0033218860626220703,0.0066149234771728516,0.01407170295715332,0
1.9740593433380127,0.012265508063137531,-0.07727817445993423,-0.5397145748138428,0.21244093881392148,-0.5042728915227785,-0.03513771944011366,-0.0019362374239910597,-0.2680488840706994,0.0,0.0,-0.6,0.0,0.0031151771545410156,0.006293296813964844,0.014272451400756836,0
1.9947896003723145,0.012446511536836624,-0.07445178180932999,-0.5422898530960083,0.208734622522722,-0.5042890022369377,-0.03200321876355575,-0.009774971653330683,-0.2659097022955125,0.0,0.0,-0.6,0.0,0.0023796558380126953,0.0046308040618896484,0.013256311416625977,0
2.0150561332702637,0.012446511536836624,-0.07445178180932999,-0.5422898530960083,0.208734622522722,-0.5043016072627817,-0.029878244365032607,-0.015123495288143836,-0.26441227505288095,0.0,0.0,-0.6,0.0,0.0026400089263916016,0.005335330963134766,0.013559341430664062,0
2.035710573196411,0.01252010278403759,-0.07279131561517715,-0.5436494946479797,0.20644564576869437,-0.5042595703375551,-0.026500644655659315,-0.01320372125977817,-0.262505709700279,0.0,0.0,-0.6,0.0,0.003199338912963867,0.006896257400512695,0.015692472457885742,0
2.058723211288452,0.012548846192657948,-0.07118508964776993,-0.544949471950531,0.203987936991896,-0.5042967054505058,-0.02582961430065286,-0.01618460944237414,-0.2602494731621585,0.0,0.0,-0.6,0.0,0.003415346145629883,0.006305217742919922,0.013535022735595703,0
2.076897144317627,0.012548846192657948,-0.07118508964776993,-0.544949471950531,0.203987936991896,-0.5043267680276752,-0.025380480444455608,-0.018218405207549943,-0.25867010758547354,0.0,0.0,-0.6,0.0,0.0035724639892578125,0.006781101226806641,0.01473546028137207,0
2.0977981090545654,0.012673506513237953,-0.06899585574865341,-0.5467648506164551,0.20080216612688997,-0.5044768673421574,-0.019130991465792814,-0.021854585964181553,-0.2563698876074175,0.0,0.0,-0.6,0.0,0.0029561519622802734,0.00570988655090332,0.012696504592895508,0
2.11197829246521,0.012673506513237953,-0.06899585574865341,-0.5467648506164551,0.20080216612688997,-0.5045985234254423,-0.014889344129609608,-0.02434225210949013,-0.25475973362277765,0.0,0.0,-0.6,0.0,0.00773167610168457,0.010495424270629883,0.016252994537353516,0
2.134791612625122,0.012789892964065075,-0.06683285534381866,-0.5485140085220337,0.19736969638434576,-0.5045263868962777,-0.009302359245659121,-0.01634620266419303,-0.25234544968007644,0.0,0.0,-0.6,0.0,0.003699064254760742,0.0072100162506103516,0.016468048095703125,0
2.1534535884857178,0.012789892964065075,-0.06683285534381866,-0.5485140085220337,0.19736969638434576,-0.5044674582874732,-0.005475550380913893,-0.010905544095351405,-0.2506554509201849,0.0,0.0,-0.6,0.0,0.0033485889434814453,0.006623268127441406,0.014183282852172852,0
2.1738462448120117,0.01289580762386322,-0.06525657325983047,-0.5498461723327637,0.19479364887300035,-0.50449484705988,-0.0045503653635056785,-0.013408678600267331,-0.24850643397150668,0.0,0.0,-0.6,0.0,0.0028121471405029297,0.005950450897216797,0.014977693557739258,0
2.1916074752807617,0.01289580762386322,-0.06525657325983047,-0.5498461723327637,0.19479364887300035,-0.5045172439068927,-0.003925751377979809,-0.015116530441333976,-0.2470021221074313,0.0,0.0,-0.6,0.0,0.003923892974853516,0.006655216217041016,0.014613866806030273,0
2.2157175540924072,0.01312209665775299,-0.06319530308246613,-0.5516262054443359,0.191501645172929,-0.5045377098576616,0.0032316408938120956,-0.00874381657921928,-0.24471460241505258,0.0,0.0,-0.6,0.0,0.0021200180053710938,0.005835056304931641,0.01376795768737793,0
2.2364180088043213,0.013306223787367344,-0.06175047159194946,-0.5530055165290833,0.18891884402869188,-0.5044358244270442,0.007629233489445635,0.0017423768614446972,-0.2421447882012988,0.0,0.0,-0.6,0.0,0.0027022361755371094,0.0064241886138916016,0.014373064041137695,0
2.2548375129699707,0.013306223787367344,-0.06175047159194946,-0.5530055165290833,0.18891884402869188,-0.5043523423884756,0.01065264510626872,0.00887849326044057,-0.2403459182516704,0.0,0.0,-0.6,0.0,0.002970457077026367,0.005909919738769531,0.013810157775878906,0
2.275240182876587,0.013474545441567898,-0.06041819974780083,-0.5543079376220703,0.18643188351204118,-0.5042934373608527,0.015470719749906362,0.01180008417697931,-0.2381540990931869,0.0,0.0,-0.6,0.0,0.0077877044677734375,0.010470867156982422,0.020020246505737305,0
2.297227621078491,0.013743426650762558,-0.059141915291547775,-0.5555976033210754,0.18401357154161727,-0.5042375416592245,0.02365517009069451,0.013838108332080245,-0.23571295869333975,0.0,0.0,-0.6,0.0,0.0016527175903320312,0.0032014846801757812,0.007094383239746094,0
2.3062102794647217,0.013743426650762558,-0.059141915291547775,-0.5555976033210754,0.18401357154161727,-0.5041943637737785,0.029243450093428405,0.015212904049824798,-0.234004160413446,0.0,0.0,-0.6,0.0,0.0017383098602294922,0.003139972686767578,0.007052898406982422,0
2.316316843032837,0.013926760293543339,-0.0582956038415432,-0.5562896728515625,0.18255050712812798,-0.5041571026846167,0.035696885148643165,0.023307108848822852,-0.23225935246246193,0.0,0.0,-0.6,0.0,0.0019998550415039062,0.003589153289794922,0.007555246353149414,0
2.3259408473968506,0.013926760293543339,-0.0582956038415432,-0.5562896728515625,0.18255050712812798,-0.5041286564248095,0.04010980146964188,0.02881684176229713,-0.23103798689677257,0.0,0.0,-0.6,0.0,0.0016503334045410156,0.0030450820922851562,0.00667572021484375,0
2.3363797664642334,0.01408386044204235,-0.0574985109269619,-0.5570581555366516,0.18084728071360162,-0.5041073303292873,0.04051588217691,0.03585832208243109,-0.2295443210953429,0.0,0.0,-0.6,0.0,0.0016827583312988281,0.003124237060546875,0.0069637298583984375,0
2.3452796936035156,0.01408386044204235,-0.0574985109269619,-0.5570581555366516,0.18084728071360162,-0.50409051466444,0.0408022405061932,0.04065744641935697,-0.22849875503434167,0.0,0.0,-0.6,0.0,0.0019867420196533203,0.0034236907958984375,0.006580829620361328,0
2.355884552001953,0.014295235276222229,-0.056719254702329636,-0.5577269196510315,0.17912775890262625,-0.5041115716720391,0.040859571712265806,0.041027845199155824,-0.22712203811252538,0.0,0.0,-0.6,0.0,0.0016248226165771484,0.0031404495239257812,0.006736040115356445,0
2.3648931980133057,0.014295235276222229,-0.056719254702329636,-0.5577269196510315,0.17912775890262625,-0.5041286088596112,0.040896100524698206,0.04127964949151465,-0.22615833626725357,0.0,0.0,-0.6,0.0,0.0017817020416259766,0.0031991004943847656,0.0063326358795166016,0
2.374126672744751,0.014440784230828285,-0.055967554450035095,-0.5582543611526489,0.17755119637731756,-0.5042956744007284,0.04066451827647246,0.038776254595243455,-0.22489253402857284,0.0,0.0,-0.6,0.0,0.0016334056854248047,0.0028128623962402344,0.00594019889831543,0
2.381786584854126,0.014440784230828285,-0.055967554450035095,-0.5582543611526489,0.17755119637731756,-0.5044295289002247,0.04047970798518334,0.03706740210145648,-0.22400647246149596,0.0,0.0,-0.6,0.0,0.002245187759399414,0.003656625747680664,0.006894350051879883,0
2.3926467895507812,0.014689107425510883,-0.055276915431022644,-0.5588351488113403,0.1759463510763672,-0.5045131452577559,0.04157356396711261,0.036124138259470494,-0.2227844123766861,0.0,0.0,-0.6,0.0,0.002073526382446289,0.003632068634033203,0.0073909759521484375,0
2.4017889499664307,0.014689107425510883,-0.055276915431022644,-0.5588351488113403,0.1759463510763672,-0.5045808790825522,0.04230630860574343,0.03547988565414004,-0.22192897031731879,0.0,0.0,-0.6,0.0,0.0017154216766357422,0.003080129623413086,0.006792783737182617,0
2.41141414642334,0.014848950318992138,-0.05456705018877983,-0.5592102408409119,0.17423574023377356,-0.5048641494811017,0.039838734225904546,0.035816936571782136,-0.22068868180978946,0.0,0.0,-0.6,0.0,0.0022170543670654297,0.0037589073181152344,0.007708072662353516,0
2.4216620922088623,0.014848950318992138,-0.05456705018877983,-0.5592102408409119,0.17423574023377356,-0.5050906422256284,0.03810791193325047,0.03604623064243735,-0.21982047985451858,0.0,0.0,-0.6,0.0,0.0048410892486572266,0.006348609924316406,0.010068893432617188,0
2.4345054626464844,0.014990152791142464,-0.05396953597664833,-0.5595834851264954,0.17263366773624422,-0.5050241194966761,0.03733117138382412,0.03839467894891172,-0.21861196129925578,0.0,0.0,-0.6,0.0,0.001596689224243164,0.002988100051879883,0.006960868835449219,0
2.4443461894989014,0.014990152791142464,-0.05396953597664833,-0.5595834851264954,0.17263366773624422,-0.5049704800034757,0.03681488478077882,0.039996700997307094,-0.21776599831057147,0.0,0.0,-0.6,0.0,0.0014972686767578125,0.0029239654541015625,0.006330013275146484,0
2.453890800476074,0.015121305361390114,-0.053367987275123596,-0.5598024129867554,0.17100606567196205,-0.5051272672054441,0.030133388031337492,0.038041068726454415,-0.216563473444387,0.0,0.0,-0.6,0.0,0.001796722412109375,0.0032148361206054688,0.006949901580810547,0
2.464242935180664,0.015121305361390114,-0.053367987275123596,-0.5598024129867554,0.17100606567196205,-0.5052484722305599,0.025544579139587322,0.036706474484793396,-0.21572170603805751,0.0,0.0,-0.6,0.0,0.001644134521484375,0.0032219886779785156,0.0066547393798828125,0
2.473763942718506,0.015235056169331074,-0.05291660875082016,-0.5600554943084717,0.16926467160142933,-0.505362079579397,0.022425124151450707,0.02758393187503523,-0.2144794460771775,0.0,0.0,-0.6,0.0,0.0015110969543457031,0.0027735233306884766,0.0058820247650146484,0
2.4826393127441406,0.015235056169331074,-0.05291660875082016,-0.5600554943084717,0.16926467160142933,-0.5054490621923698,0.020269981586216502,0.021361917160619238,-0.21360986410456112,0.0,0.0,-0.6,0.0,0.0017178058624267578,0.0030183792114257812,0.006621837615966797,0
2.492158889770508,0.015357185155153275,-0.052446719259023666,-0.5600713491439819,0.16769556998829155,-0.5055304121767066,0.02045003141978242,0.019277758074205363,-0.2124127436188033,0.0,0.0,-0.6,0.0,0.0017197132110595703,0.0031113624572753906,0.006134510040283203,0
2.5010881423950195,0.015357185155153275,-0.052446719259023666,-0.5600713491439819,0.16769556998829155,-0.5055956751746219,0.020556631875731646,0.017854456092842814,-0.21157475927877248,0.0,0.0,-0.6,0.0,0.0020551681518554688,0.003634929656982422,0.006647586822509766,0
2.5116355419158936,0.015506790950894356,-0.052030302584171295,-0.5602113604545593,0.16617630152203575,-0.505835634163301,0.01780227356189532,0.01277212068080914,-0.21041844456590528,0.0,0.0,-0.6,0.0,0.0025048255920410156,0.004304170608520508,0.009124755859375,0
2.5244290828704834,0.015506790950894356,-0.052030302584171295,-0.5602113604545593,0.16617630152203575,-0.5060262163613326,0.015873482402912524,0.009301267889840325,-0.20960902426689793,0.0,0.0,-0.6,0.0,0.0018553733825683594,0.0033109188079833984,0.00868678092956543,0
2.536576747894287,0.015609923750162125,-0.05159220099449158,-0.5602003931999207,0.16437351435668227,-0.506065647644111,0.011122787895153174,0.007030887651146137,-0.20836638487058565,0.0,0.0,-0.6,0.0,0.0018796920776367188,0.003290891647338867,0.00665736198425293,0
2.546473503112793,0.015609923750162125,-0.05159220099449158,-0.5602003931999207,0.16437351435668227,-0.506094223055552,0.007872980973589372,0.005484721689643162,-0.20749653729316667,0.0,0.0,-0.6,0.0,0.0017147064208984375,0.003243684768676758,0.006884574890136719,0
2.5567469596862793,0.015694374218583107,-0.05125117674469948,-0.5602313280105591,0.16267203238386782,-0.5062218072517767,0.0011202028553657494,0.0027478833321487287,-0.20624958824916834,0.0,0.0,-0.6,0.0,0.0016674995422363281,0.003194570541381836,0.0071485042572021484,0
2.5663256645202637,0.015694374218583107,-0.05125117674469948,-0.5602313280105591,0.16267203238386782,-0.5063200624526503,-0.0035131310336156928,0.0008803855680769627,-0.20537672391836914,0.0,0.0,-0.6,0.0,0.0017566680908203125,0.003070354461669922,0.006712436676025391,0
2.5761640071868896,0.015833230689167976,-0.0508827269077301,-0.5602779984474182,0.16109741938476388,-0.5062071008678543,-0.0062801895453342875,-0.007580179813617112,-0.20417523901214604,0.0,0.0,-0.6,0.0,0.0015003681182861328,0.002836942672729492,0.005738735198974609,0
2.5833687782287598,0.015833230689167976,-0.0508827269077301,-0.5602779984474182,0.16109741938476388,-0.5061133759643446,-0.008153011765804104,-0.01334054442323359,-0.20333419957778953,0.0,0.0,-0.6,0.0,0.001623392105102539,0.002900362014770508,0.005958080291748047,0
2.5919604301452637,0.01596822962164879,-0.05053083226084709,-0.5602691769599915,0.15939819443279413,-0.5061367474588174,-0.008662143388801172,-0.02003084347595876,-0.2021082626167517,0.0,0.0,-0.6,0.0,0.0013384819030761719,0.002431631088256836,0.005724191665649414,0
2.601830005645752,0.01606578566133976,-0.050371233373880386,-0.5602893829345703,0.15852375010896788,-0.5061917789143848,-0.008095473980541555,-0.024609266892254174,-0.20092219012259033,0.0,0.0,-0.6,0.0,0.0024437904357910156,0.004141807556152344,0.00866079330444336,0
2.6140072345733643,0.01606578566133976,-0.050371233373880386,-0.5602893829345703,0.15852375010896788,-0.5062362711479249,-0.007721958535007418,-0.027732910046219722,-0.20009193937667702,0.0,0.0,-0.6,0.0,0.001986265182495117,0.003113269805908203,0.006325244903564453,0
2.624391555786133,0.016234418377280235,-0.049948398023843765,-0.5602819919586182,0.15692611590664626,-0.5063859095639712,-0.007274624642191887,-0.028638503784178298,-0.19891165102866745,0.0,0.0,-0.6,0.0,0.0020503997802734375,0.003580808639526367,0.00791621208190918,0
2.634672164916992,0.016234418377280235,-0.049948398023843765,-0.5602819919586182,0.15692611590664626,-0.5065065357565661,-0.006998226414304023,-0.029258879868619032,-0.19808544918506038,0.0,0.0,-0.6,0.0,0.0011904239654541016,0.0023305416107177734,0.0050220489501953125,0
2.6431939601898193,0.016345854848623276,-0.049572836607694626,-0.5602452754974365,0.1553017741615557,-0.5064742638812642,-0.01031763555520086,-0.03016060578079542,-0.19689797974012685,0.0,0.0,-0.6,0.0,0.0013103485107421875,0.002488851547241211,0.005787849426269531,0
2.6505520343780518,0.016345854848623276,-0.049572836607694626,-0.5602452754974365,0.1553017741615557,-0.5064467333838287,-0.012575879951798277,-0.030772967253013154,-0.196066751128673,0.0,0.0,-0.6,0.0,0.0014908313751220703,0.002703428268432617,0.0054666996002197266,0
2.661665201187134,0.016498936340212822,-0.049202535301446915,-0.5602434873580933,0.15357346144365036,-0.5063539401810544,-0.018301889051441277,-0.02854534664066042,-0.1948367738314412,0.0,0.0,-0.6,0.0,0.0015683174133300781,0.0035920143127441406,0.007934808731079102,0
2.671715259552002,0.016498936340212822,-0.049202535301446915,-0.5602434873580933,0.15357346144365036,-0.5062762263287214,-0.022187530586290707,-0.027022440005069325,-0.1939757897233786,0.0,0.0,-0.6,0.0,0.002429962158203125,0.003964662551879883,0.00841522216796875,0
2.6837480068206787,0.016597718000411987,-0.04881471395492554,-0.5602960586547852,0.1519225387586087,-0.5062930299179207,-0.025307667925477867,-0.027539264579365987,-0.19275400484084448,0.0,0.0,-0.6,0.0,0.0018880367279052734,0.0028657913208007812,0.00608372688293457,0
2.692702293395996,0.016597718000411987,-0.04881471395492554,-0.5602960586547852,0.1519225387586087,-0.506305360797234,-0.027438802995922128,-0.027889910952743825,-0.19189875542307025,0.0,0.0,-0.6,0.0,0.002777099609375,0.004182100296020508,0.008776426315307617,0
2.7047696113586426,0.016670409590005875,-0.04848155006766319,-0.5603213906288147,0.15043142252168926,-0.5062417944770572,-0.026307799250674044,-0.03135190796849639,-0.1907409122417838,0.0,0.0,-0.6,0.0,0.0014586448669433594,0.0024809837341308594,0.005610942840576172,0
2.715378999710083,0.016670409590005875,-0.04848155006766319,-0.5603213906288147,0.15043142252168926,-0.506191315712264,-0.025528574066411916,-0.03371307091112085,-0.18993042201488294,0.0,0.0,-0.6,0.0,0.0013432502746582031,0.002991914749145508,0.0075283050537109375,0
2.726069688796997,0.016786852851510048,-0.048116620630025864,-0.560401439666748,0.1488776999086873,-0.5061798363647937,-0.023242866252688114,-0.033487077303661676,-0.18878043287617693,0.0,0.0,-0.6,0.0,0.0014503002166748047,0.003676891326904297,0.007536888122558594,0
2.7379417419433594,0.016786852851510048,-0.048116620630025864,-0.560401439666748,0.1488776999086873,-0.5061712728953454,-0.021682339132579016,-0.0333350914315905,-0.18797544047908238,0.0,0.0,-0.6,0.0,0.002764463424682617,0.0048220157623291016,0.008079051971435547,0
2.7494399547576904,0.016783496364951134,-0.04757149890065193,-0.5604764223098755,0.14666121441995733,-0.506105510989004,-0.021016742665364806,-0.028120041410975235,-0.18658076374284308,0.0,0.0,-0.6,0.0,0.002239704132080078,0.004592418670654297,0.009369850158691406,0
2.7634124755859375,0.016783496364951134,-0.04757149890065193,-0.5604764223098755,0.14666121441995733,-0.5060516135400704,-0.020548176236043002,-0.024567134230756956,-0.18560449002747512,0.0,0.0,-0.6,0.0,0.001905679702758789,0.003958940505981445,0.008581399917602539,0
2.775761127471924,0.016767745837569237,-0.04724287986755371,-0.5606105923652649,0.14520085544593864,-0.5060361137513087,-0.02515747262674221,-0.023639330174300734,-0.1843734638114608,0.0,0.0,-0.6,0.0,0.0015096664428710938,0.003717184066772461,0.008364200592041016,0
2.7868363857269287,0.016767745837569237,-0.04724287986755371,-0.5606105923652649,0.14520085544593864,-0.5060217391538645,-0.02829744572788296,-0.023003934470926655,-0.18351174546025042,0.0,0.0,-0.6,0.0,0.0074231624603271484,0.009401559829711914,0.013144493103027344,0
2.8051345348358154,0.016657814383506775,-0.04677259549498558,-0.5607587695121765,0.14299528827170313,-0.5059437420876604,-0.025220567969578812,-0.025046946733420623,-0.1820814549240654,0.0,0.0,-0.6,0.0,0.002141237258911133,0.003180265426635742,0.007923126220703125,0
2.8183836936950684,0.016657814383506775,-0.04677259549498558,-0.5607587695121765,0.14299528827170313,-0.5058819305238221,-0.023113913383523806,-0.026444032600742486,-0.18108025154873547,0.0,0.0,-0.6,0.0,0.0025022029876708984,0.004679203033447266,0.009147167205810547,0
2.8314454555511475,0.0165962353348732,-0.046225257217884064,-0.5609660744667053,0.14085139945524783,-0.5057605345982344,-0.019375413437514963,-0.026843243523568983,-0.17957545087983426,0.0,0.0,-0.6,0.0,0.0013775825500488281,0.003246307373046875,0.007889747619628906,0
2.8421971797943115,0.0165962353348732,-0.046225257217884064,-0.5609660744667053,0.14085139945524783,-0.5056638385606976,-0.0168102533753169,-0.027123388035086713,-0.17852209041160297,0.0,0.0,-0.6,0.0,0.002439737319946289,0.004367828369140625,0.009977579116821289,0
2.85477876663208,0.016465770080685616,-0.04585796222090721,-0.5610319972038269,0.13938916545599356,-0.505592704985605,-0.01557344325933449,-0.02188751013470598,-0.17723640033412094,0.0,0.0,-0.6,0.0,0.0019276142120361328,0.0039632320404052734,0.007677316665649414,0
2.8673014640808105,0.016465770080685616,-0.04585796222090721,-0.5610319972038269,0.13938916545599356,-0.5055345013707868,-0.014716118677962658,-0.018322302237268502,-0.17633641727988314,0.0,0.0,-0.6,0.0,0.0018510818481445312,0.004147529602050781,0.009678125381469727,0
2.8792026042938232,0.01634654402732849,-0.0455031655728817,-0.5611795783042908,0.1379139094274832,-0.5055714871687946,-0.01799424650070432,-0.012872581798918096,-0.1751532081312256,0.0,0.0,-0.6,0.0,0.0019526481628417969,0.0035080909729003906,0.007605552673339844,0
2.8906614780426025,0.016172226518392563,-0.04519848898053169,-0.5611894726753235,0.13643724108718353,-0.5056422725678088,-0.01912326213337148,-0.014718166316687802,-0.17377121109955312,0.0,0.0,-0.6,0.0,0.002537965774536133,0.004456281661987305,0.00841832160949707,0
2.901782751083374,0.016172226518392563,-0.04519848898053169,-0.5611894726753235,0.13643724108718353,-0.505699103866106,-0.01990512011903219,-0.015973495427907457,-0.17280381317738197,0.0,0.0,-0.6,0.0,0.001974344253540039,0.003171682357788086,0.006940603256225586,0
2.912764072418213,0.01598484441637993,-0.044959139078855515,-0.5611358880996704,0.13502405129096598,-0.5057281563293693,-0.015147801041749441,-0.01513505375368422,-0.17159668845828083,0.0,0.0,-0.6,0.0,0.0020182132720947266,0.003767251968383789,0.008556604385375977,0
2.9237685203552246,0.01598484441637993,-0.044959139078855515,-0.5611358880996704,0.13502405129096598,-0.5057524316717026,-0.01190737970858688,-0.014565828224216988,-0.17075170115490965,0.0,0.0,-0.6,0.0,0.001325368881225586,0.0023708343505859375,0.006460666656494141,0
2.935760736465454,0.015827130526304245,-0.04473370686173439,-0.5611717700958252,0.13372734116634458,-0.5058326206448013,-0.005980035423386185,-0.011378680697436867,-0.16967394374581704,0.0,0.0,-0.6,0.0,0.0011506080627441406,0.0023772716522216797,0.007293224334716797,0
2.9454455375671387,0.015827130526304245,-0.04473370686173439,-0.5611717700958252,0.13372734116634458,-0.5058979127257665,-0.001947319472958598,-0.009205346547453523,-0.1689195135594519,0.0,0.0,-0.6,0.0,0.0018727779388427734,0.0029125213623046875,0.006697416305541992,0
2.9569523334503174,0.015602270141243935,-0.04452855885028839,-0.5610482692718506,0.13244640328042365,-0.5058365908510799,0.0019065639815945812,-0.005411925768916312,-0.1679110607217762,0.0,0.0,-0.6,0.0,0.0021131038665771484,0.003916501998901367,0.0074160099029541016,0
