time,x,y,z,yaw,throttle,roll_rate,pitch_rate,yaw_rate,x_ref,y_ref,z_ref,yaw_ref,pred_time,nr_time,ctrl_callback_time,metadata
3.814697265625e-06,-0.1481519490480423,-0.10845048725605011,-0.2391824871301651,-0.07216766082249886,-0.5324017473275352,0.053999663070187616,-0.06674151441656566,0.027062872808456956,0.0,0.0,-0.6,0.0,0.0013015270233154297,0.002366781234741211,0.005001544952392578,Hardware
0.011591434478759766,-0.1481519490480423,-0.10845048725605011,-0.2391824871301651,-0.07216766082249886,-0.5412535739011057,0.08933347367777039,-0.11313833821771829,0.046006883774337995,0.0,0.0,-0.6,0.0,0.0015621185302734375,0.0026938915252685547,0.006430625915527344,Nonlinear
0.021952152252197266,-0.14816762506961823,-0.10843260586261749,-0.23921172320842743,-0.07213929762578085,-0.5482962001548117,0.11157586213412882,-0.14410357322369383,0.05925705525169117,0.0,0.0,-0.6,0.0,0.0010399818420410156,0.0018427371978759766,0.004900693893432617,2x Speed
0.0301516056060791,-0.14816425740718842,-0.10842566937208176,-0.2392331063747406,-0.07212467642734763,-0.5539378254661803,0.12504885871736582,-0.16379871231743034,0.06852669233644598,0.0,0.0,-0.6,0.0,0.0010106563568115234,0.0017883777618408203,0.004155158996582031,0OrderHold
0.04014921188354492,-0.14817187190055847,-0.10841980576515198,-0.2392488420009613,-0.07214062506927148,-0.5584669970101348,0.13269853968250672,-0.1759615826215078,0.07502141903648814,0.0,0.0,-0.6,0.0,0.0018541812896728516,0.003427267074584961,0.0063877105712890625,QuatYawError
0.05006265640258789,-0.14817187190055847,-0.10841980576515198,-0.2392488420009613,-0.07214062506927148,-0.5620916754821307,0.13664213440264802,-0.1829046906799132,0.0795677277265179,0.0,0.0,-0.6,0.0,0.0016775131225585938,0.002716064453125,0.006196022033691406,NoPyJoules
0.06046628952026367,-0.14818212389945984,-0.10840974003076553,-0.23926237225532532,-0.07213424723144951,-0.5649723123039125,0.13826388774690618,-0.1866204329853019,0.08274775212035844,0.0,0.0,-0.6,0.0,0.0023682117462158203,0.0034461021423339844,0.007993698120117188,0
0.07002902030944824,-0.14818212389945984,-0.10840974003076553,-0.23926237225532532,-0.07213424723144951,-0.5672683512268123,0.13851030967200656,-0.18816395350715684,0.08497376919604226,0.0,0.0,-0.6,0.0,0.002006053924560547,0.0030274391174316406,0.006539821624755859,0
0.08134126663208008,-0.1482330858707428,-0.10837405920028687,-0.2393210232257843,-0.07237126792713675,-0.5690977927547752,0.138391366080196,-0.1889028659116048,0.08662086390990421,0.0,0.0,-0.6,0.0,0.0020592212677001953,0.0031745433807373047,0.006606340408325195,0
0.0910789966583252,-0.1482573002576828,-0.10836540907621384,-0.23935210704803467,-0.07242782537349429,-0.5705286199307006,0.13737424563600834,-0.18930431043121423,0.08779503925199417,0.0,0.0,-0.6,0.0,0.0021865367889404297,0.0036356449127197266,0.007091045379638672,0
0.10077691078186035,-0.1482573002576828,-0.10836540907621384,-0.23935210704803467,-0.07242782537349429,-0.5716634465417448,0.13624419491693684,-0.18906395370821583,0.08861696199145545,0.0,0.0,-0.6,0.0,0.0015480518341064453,0.0025403499603271484,0.005671262741088867,0
0.11185717582702637,-0.14831052720546722,-0.10838916152715683,-0.23943045735359192,-0.0717959193435285,-0.5724676223733127,0.13630568434232113,-0.18802755537423724,0.08895534314784283,0.0,0.0,-0.6,0.0,0.002426624298095703,0.003467082977294922,0.006664276123046875,0
0.12016153335571289,-0.14831052720546722,-0.10838916152715683,-0.23943045735359192,-0.0717959193435285,-0.5731038970747363,0.13611074502948733,-0.18702650133707266,0.08919220995731375,0.0,0.0,-0.6,0.0,0.0012619495391845703,0.0021173954010009766,0.005391120910644531,0
0.129929780960083,-0.14830288290977478,-0.10847103595733643,-0.23957262933254242,-0.07099733244507772,-0.5736169378110337,0.13809908233530532,-0.1832820459475947,0.08905854663702391,0.0,0.0,-0.6,0.0,0.0013744831085205078,0.002356290817260742,0.005312681198120117,0
0.1405467987060547,-0.14823588728904724,-0.10856956988573074,-0.2396664023399353,-0.07110967682491555,-0.5740218173983985,0.14051401858883078,-0.17907686877928297,0.08900711145526002,0.0,0.0,-0.6,0.0,0.0018498897552490234,0.003509044647216797,0.006799936294555664,0
0.1504049301147461,-0.14817656576633453,-0.10862784832715988,-0.23975183069705963,-0.07124664225081258,-0.5743019492085651,0.1413176665044204,-0.1765331605393282,0.08902246886273672,0.0,0.0,-0.6,0.0,0.0014753341674804688,0.0032711029052734375,0.006307840347290039,0
0.16107559204101562,-0.1480909138917923,-0.10868239402770996,-0.2398587465286255,-0.0713042840576874,-0.5744628435406586,0.1401291253181971,-0.1730776784080273,0.08905483472554857,0.0,0.0,-0.6,0.0,0.0021157264709472656,0.0037331581115722656,0.006964683532714844,0
0.1709427833557129,-0.1480909138917923,-0.10868239402770996,-0.2398587465286255,-0.0713042840576874,-0.5745817243597104,0.13925900595821727,-0.17064348169626342,0.08907749082951678,0.0,0.0,-0.6,0.0,0.0015060901641845703,0.0027208328247070312,0.006163358688354492,0
0.18024706840515137,-0.14789815247058868,-0.10866713523864746,-0.2401011437177658,-0.07074877003717472,-0.5746219534887528,0.13331469560174403,-0.16468988851916772,0.08888503234460246,0.0,0.0,-0.6,0.0,0.0017418861389160156,0.002897024154663086,0.00659942626953125,0
0.19079256057739258,-0.14775477349758148,-0.10867120325565338,-0.24029286205768585,-0.07036928001875271,-0.574496954070519,0.12884706283399547,-0.15893693127199102,0.08860800264825426,0.0,0.0,-0.6,0.0,0.0020759105682373047,0.0032796859741210938,0.006455898284912109,0
0.2005138397216797,-0.14757119119167328,-0.10865215957164764,-0.2405366748571396,-0.06990507837216335,-0.574256427336193,0.12459802903663694,-0.15428628199541372,0.08824000624333961,0.0,0.0,-0.6,0.0,0.0018274784088134766,0.0029129981994628906,0.006128072738647461,0
0.21142244338989258,-0.14734861254692078,-0.10862647742033005,-0.2408568561077118,-0.06937873059905242,-0.5740416224737415,0.119892943917358,-0.14919153998370369,0.08778502834498284,0.0,0.0,-0.6,0.0,0.0020112991333007812,0.0034637451171875,0.006611347198486328,0
0.22369766235351562,-0.14734861254692078,-0.10862647742033005,-0.2408568561077118,-0.06937873059905242,-0.5738542817239652,0.11671367843362333,-0.14575882587354963,0.0874665438161324,0.0,0.0,-0.6,0.0,0.0032281875610351562,0.004657745361328125,0.008980512619018555,0
0.23593378067016602,-0.14674140512943268,-0.10848753154277802,-0.24213409423828125,-0.06675149961895821,-0.5733201965792951,0.11235224707344746,-0.13225690835622314,0.08625839302840113,0.0,0.0,-0.6,0.0,0.0037360191345214844,0.0062236785888671875,0.010029077529907227,0
0.24874544143676758,-0.14674140512943268,-0.10848753154277802,-0.24213409423828125,-0.06675149961895821,-0.5728617075975734,0.10948559175784482,-0.1231789907166472,0.08541268747699098,0.0,0.0,-0.6,0.0,0.0035784244537353516,0.004563331604003906,0.008235931396484375,0
0.26011085510253906,-0.14619719982147217,-0.10832660645246506,-0.2436930388212204,-0.06350580908018413,-0.5721198119510881,0.10260610164769728,-0.10696981972700728,0.08360355963895826,0.0,0.0,-0.6,0.0,0.004685878753662109,0.00628209114074707,0.010375022888183594,0
0.2731807231903076,-0.14619719982147217,-0.10832660645246506,-0.2436930388212204,-0.06350580908018413,-0.5714873771789771,0.09807458198982287,-0.09612077042538048,0.08233717015233889,0.0,0.0,-0.6,0.0,0.001889944076538086,0.0028362274169921875,0.005935192108154297,0
0.2827737331390381,-0.14574509859085083,-0.10816585272550583,-0.24550405144691467,-0.060734443819305435,-0.5705786289550788,0.08780586149525749,-0.0821285287660667,0.080411435538872,0.0,0.0,-0.6,0.0,0.0022847652435302734,0.005005598068237305,0.009616613388061523,0
0.29494524002075195,-0.14574509859085083,-0.10816585272550583,-0.24550405144691467,-0.060734443819305435,-0.5698152646505356,0.08101197497432354,-0.07286111934705418,0.07906342130944895,0.0,0.0,-0.6,0.0,0.002335071563720703,0.0038208961486816406,0.007598161697387695,0
0.30582189559936523,-0.14509202539920807,-0.10794524848461151,-0.2480469048023224,-0.05644541304337606,-0.5687601301035613,0.06542725426019086,-0.05585217615556648,0.07651142480787398,0.0,0.0,-0.6,0.0,0.0027799606323242188,0.004548311233520508,0.009114265441894531,0
0.31860995292663574,-0.14509202539920807,-0.10794524848461151,-0.2480469048023224,-0.05644541304337606,-0.5678676850251881,0.05503380888854394,-0.04458528762119601,0.07472502725677806,0.0,0.0,-0.6,0.0,0.002208709716796875,0.0039000511169433594,0.008271932601928711,0
0.3324580192565918,-0.14438696205615997,-0.10764512419700623,-0.25187739729881287,-0.05049156542950108,-0.5665784383059413,0.04339529051828496,-0.03152315862126036,0.07124185611579895,0.0,0.0,-0.6,0.0,0.0017418861389160156,0.0027637481689453125,0.00612950325012207,0
0.34276866912841797,-0.1440945267677307,-0.10751315951347351,-0.25349298119544983,-0.04849004263554262,-0.5653018751802458,0.03254126816569104,-0.01872300413037931,0.06805306526938816,0.0,0.0,-0.6,0.0,0.0018892288208007812,0.003850698471069336,0.008208274841308594,0
0.3534259796142578,-0.1440945267677307,-0.10751315951347351,-0.25349298119544983,-0.04849004263554262,-0.5642539445980079,0.025457986511426053,-0.010425709010270297,0.06582091167690049,0.0,0.0,-0.6,0.0,0.0027322769165039062,0.0051615238189697266,0.009642362594604492,0
0.3673841953277588,-0.1434813141822815,-0.10722358524799347,-0.2570361793041229,-0.044193968543958295,-0.5629076815324848,0.016437899069583938,0.0060051080620291235,0.06264737637781513,0.0,0.0,-0.6,0.0,0.0019426345825195312,0.0029480457305908203,0.00760960578918457,0
0.38074421882629395,-0.14293316006660461,-0.10698485374450684,-0.2605608105659485,-0.03925261687478558,-0.5613990255013244,0.009576900715243919,0.021592708632420042,0.05857289479251572,0.0,0.0,-0.6,0.0,0.0012805461883544922,0.002366304397583008,0.0065991878509521484,0
0.3925490379333496,-0.14257226884365082,-0.1068369522690773,-0.2627383768558502,-0.03648276214814748,-0.5599292194590166,0.0033066855404652465,0.036589854768570004,0.054682062160320205,0.0,0.0,-0.6,0.0,0.0020966529846191406,0.0033864974975585938,0.008095979690551758,0
0.40405726432800293,-0.14257226884365082,-0.1068369522690773,-0.2627383768558502,-0.03648276214814748,-0.5587352260306196,-0.0005755902253000008,0.04634087098986215,0.05195847931778217,0.0,0.0,-0.6,0.0,0.0024216175079345703,0.004277706146240234,0.008233070373535156,0
0.41637516021728516,-0.14134106040000916,-0.10634470731019974,-0.26998841762542725,-0.0282209224637651,-0.5570117395255677,-0.00800890742133372,0.06856597747939187,0.04695378144636444,0.0,0.0,-0.6,0.0,0.0020978450775146484,0.00404047966003418,0.00725555419921875,0
0.4280281066894531,-0.14134106040000916,-0.10634470731019974,-0.26998841762542725,-0.0282209224637651,-0.5556072431845805,-0.0126322842724663,0.08317053825206144,0.043450492936364445,0.0,0.0,-0.6,0.0,0.0023026466369628906,0.004205226898193359,0.008414983749389648,0
0.44104766845703125,-0.14041411876678467,-0.10599972307682037,-0.2753303349018097,-0.02263774211883925,-0.5539861532346987,-0.01960991813457729,0.10019033241314927,0.03890449835002438,0.0,0.0,-0.6,0.0,0.002256155014038086,0.0031280517578125,0.007707357406616211,0
0.45317983627319336,-0.13995276391506195,-0.10578661412000656,-0.2781442105770111,-0.019513211480415044,-0.5524984164733965,-0.02735276735700134,0.11101211709143594,0.03455060315017706,0.0,0.0,-0.6,0.0,0.001851797103881836,0.003876924514770508,0.008505821228027344,0
0.46451854705810547,-0.13995276391506195,-0.10578661412000656,-0.2781442105770111,-0.019513211480415044,-0.551300215803869,-0.0322344163670356,0.11797860332546224,0.03150287651028131,0.0,0.0,-0.6,0.0,0.002263784408569336,0.0040624141693115234,0.008851051330566406,0
0.47558021545410156,-0.13871541619300842,-0.10496538132429123,-0.28701385855674744,-0.009907839968800758,-0.5496933385775762,-0.0361538590032364,0.12380440181815064,0.025767453545492983,0.0,0.0,-0.6,0.0,0.001264333724975586,0.003404378890991211,0.006738185882568359,0
0.4869508743286133,-0.13871541619300842,-0.10496538132429123,-0.28701385855674744,-0.009907839968800758,-0.5484077373539592,-0.03840578633137328,0.1273518573508378,0.021752657470145903,0.0,0.0,-0.6,0.0,0.0022394657135009766,0.003931283950805664,0.008061647415161133,0
0.5001883506774902,-0.1377609372138977,-0.10442233830690384,-0.29336124658584595,-0.0035048258997952605,-0.5470213217202243,-0.042774326092854635,0.12762249570561054,0.016541169941526046,0.0,0.0,-0.6,0.0,0.0017139911651611328,0.002960205078125,0.007498025894165039,0
0.5106620788574219,-0.1377609372138977,-0.10442233830690384,-0.29336124658584595,-0.0035048258997952605,-0.5459131183167482,-0.04538940762312194,0.12744741257289177,0.01289312867149352,0.0,0.0,-0.6,0.0,0.0020775794982910156,0.003907203674316406,0.008912324905395508,0
0.5244791507720947,-0.1366487592458725,-0.103829525411129,-0.29999470710754395,0.0030086679133582944,-0.5446852689368327,-0.05169059127856529,0.12994362174989288,0.007896939602535683,0.0,0.0,-0.6,0.0,0.0020513534545898438,0.0044651031494140625,0.008073568344116211,0
0.5338973999023438,-0.1354227215051651,-0.10321192443370819,-0.30687469244003296,0.010241793428486651,-0.5432923071791574,-0.059720382388259344,0.13419419894530404,0.0016871851860933073,0.0,0.0,-0.6,0.0,0.0018849372863769531,0.0039670467376708984,0.011722087860107422,0
0.5509426593780518,-0.1354227215051651,-0.10321192443370819,-0.30687469244003296,0.010241793428486651,-0.5421753963479071,-0.06488665546896016,0.13671911803803768,-0.002659642905417546,0.0,0.0,-0.6,0.0,0.003810405731201172,0.0064809322357177734,0.01528477668762207,0
0.5684020519256592,-0.13337096571922302,-0.10227488726377487,-0.3175879716873169,0.020649462995420906,-0.5407326512853214,-0.06914275935026919,0.1442161091693033,-0.0096052986570742,0.0,0.0,-0.6,0.0,0.0035619735717773438,0.005128383636474609,0.010143518447875977,0
0.582465648651123,-0.13337096571922302,-0.10227488726377487,-0.3175879716873169,0.020649462995420906,-0.5395778420838268,-0.0717698000550745,0.14897199325918487,-0.014467257683234137,0.0,0.0,-0.6,0.0,0.0013072490692138672,0.002346038818359375,0.00642848014831543,0
0.5924267768859863,-0.13161017000675201,-0.10153627395629883,-0.32589149475097656,0.028671104617886047,-0.5383119246353436,-0.07544584100348842,0.14813592678322152,-0.020878744609970315,0.0,0.0,-0.6,0.0,0.0025484561920166016,0.00463104248046875,0.008163690567016602,0
0.6035373210906982,-0.13161017000675201,-0.10153627395629883,-0.32589149475097656,0.028671104617886047,-0.5373002333567112,-0.07769984188600013,0.1472770077435113,-0.025366785458685894,0.0,0.0,-0.6,0.0,0.0027506351470947266,0.0039463043212890625,0.008802175521850586,0
0.6194958686828613,-0.12952770292758942,-0.10080564022064209,-0.3343980014324188,0.03730757461381032,-0.5360983024390912,-0.07767475618226394,0.16257687392942946,-0.03174709030125538,0.0,0.0,-0.6,0.0,0.0011377334594726562,0.002129077911376953,0.005835771560668945,0
0.6281211376190186,-0.12857086956501007,-0.10051221400499344,-0.3382282257080078,0.04047074314983155,-0.5350572523479169,-0.077883574162481,0.17355434527570474,-0.037399491892062396,0.0,0.0,-0.6,0.0,0.0018351078033447266,0.0028228759765625,0.007212162017822266,0
0.639193058013916,-0.12857086956501007,-0.10051221400499344,-0.3382282257080078,0.04047074314983155,-0.5342253732648522,-0.07788013218875897,0.18083898504728788,-0.04135617300562827,0.0,0.0,-0.6,0.0,0.0012552738189697266,0.003495931625366211,0.008720874786376953,0
0.6518895626068115,-0.12656697630882263,-0.0999063104391098,-0.3460085988044739,0.046724939135462155,-0.5332086588319352,-0.07201192586684736,0.18588243545200375,-0.04647117327974186,0.0,0.0,-0.6,0.0,0.0022072792053222656,0.0035872459411621094,0.009406805038452148,0
0.6655097007751465,-0.12482047826051712,-0.09937483817338943,-0.35283514857292175,0.05337160323471056,-0.532207140811077,-0.06219174314255565,0.19196705132113953,-0.05254417250884022,0.0,0.0,-0.6,0.0,0.0022318363189697266,0.0033016204833984375,0.008194446563720703,0
0.6759424209594727,-0.12482047826051712,-0.09937483817338943,-0.35283514857292175,0.05337160323471056,-0.531408981111534,-0.05535745332634909,0.1960072180769854,-0.05679527196920036,0.0,0.0,-0.6,0.0,0.0019605159759521484,0.003818511962890625,0.008138656616210938,0
0.6882073879241943,-0.1219559833407402,-0.09859848022460938,-0.3635104298591614,0.06304236433298993,-0.5305998604833055,-0.0447586494076663,0.20024949056358465,-0.06339757700331633,0.0,0.0,-0.6,0.0,0.002357006072998047,0.004346370697021484,0.008667707443237305,0
0.6981260776519775,-0.1219559833407402,-0.09859848022460938,-0.3635104298591614,0.06304236433298993,-0.5299562266969553,-0.03741215546638542,0.2030925502982173,-0.06801919052719205,0.0,0.0,-0.6,0.0,0.002452850341796875,0.004897594451904297,0.009339332580566406,0
0.7131097316741943,-0.11972839385271072,-0.09801214933395386,-0.3712936341762543,0.06916566501542719,-0.5291716961061402,-0.027251694400985647,0.20595538772093397,-0.07355055774981889,0.0,0.0,-0.6,0.0,0.0015141963958740234,0.003498077392578125,0.008479833602905273,0
0.724839448928833,-0.11972839385271072,-0.09801214933395386,-0.3712936341762543,0.06916566501542719,-0.5285485274602997,-0.020184085871137278,0.20787313621730866,-0.0774225148056579,0.0,0.0,-0.6,0.0,0.002395153045654297,0.00421452522277832,0.008126258850097656,0
0.7361547946929932,-0.11660030484199524,-0.09728970378637314,-0.38200199604034424,0.07892302822303995,-0.5279889317805716,-0.018128582648143637,0.20245241713098747,-0.08379189594761624,0.0,0.0,-0.6,0.0,0.0014345645904541016,0.003091096878051758,0.0072710514068603516,0
0.7462863922119141,-0.11660030484199524,-0.09728970378637314,-0.38200199604034424,0.07892302822303995,-0.5275383281710743,-0.01660723008697293,0.19873559768780946,-0.08825046274697462,0.0,0.0,-0.6,0.0,0.002198934555053711,0.003579378128051758,0.007784366607666016,0
0.757209062576294,-0.11390228569507599,-0.09663551300764084,-0.3906477689743042,0.08684945104976508,-0.5269859776254325,-0.014747688175633078,0.19683416101040854,-0.09434386806654861,0.0,0.0,-0.6,0.0,0.0025954246520996094,0.00400090217590332,0.008076190948486328,0
0.7668819427490234,-0.11390228569507599,-0.09663551300764084,-0.3906477689743042,0.08684945104976508,-0.5265434774647649,-0.01338015505446865,0.19552657071338594,-0.09860925179024906,0.0,0.0,-0.6,0.0,0.0019865036010742188,0.0039060115814208984,0.008243083953857422,0
0.7786054611206055,-0.11270565539598465,-0.09639417380094528,-0.3944370746612549,0.08987962999288523,-0.5260674719459316,-0.0077708307162470255,0.19548548846312724,-0.10273133750050933,0.0,0.0,-0.6,0.0,0.002100229263305664,0.0044918060302734375,0.007889032363891602,0
0.7930562496185303,-0.11025986820459366,-0.09593682736158371,-0.40198373794555664,0.0957891058858476,-0.5256851227062821,0.003734392142978685,0.19136667550641234,-0.10783285095754427,0.0,0.0,-0.6,0.0,0.002927541732788086,0.004683971405029297,0.008659124374389648,0
0.8030948638916016,-0.11025986820459366,-0.09593682736158371,-0.40198373794555664,0.0957891058858476,-0.5253794903872928,0.011658398843601266,0.18859176646291412,-0.11140391037747027,0.0,0.0,-0.6,0.0,0.0015726089477539062,0.0025784969329833984,0.005465507507324219,0
0.8160769939422607,-0.10816869884729385,-0.09559696167707443,-0.4084301292896271,0.10194187687329383,-0.5250819921613253,0.019428508308444975,0.18253046364748785,-0.11621094109171791,0.0,0.0,-0.6,0.0,0.0021462440490722656,0.003955841064453125,0.00813913345336914,0
0.8259053230285645,-0.10816869884729385,-0.09559696167707443,-0.4084301292896271,0.10194187687329383,-0.5248425356734066,0.024798896140341396,0.17842220906762477,-0.11957586259168435,0.0,0.0,-0.6,0.0,0.002262115478515625,0.0033066272735595703,0.007937192916870117,0
0.8424735069274902,-0.10458502918481827,-0.09492769837379456,-0.41907480359077454,0.11119403288738126,-0.5246932667106616,0.029461727788494475,0.16620974954196613,-0.12540086614694118,0.0,0.0,-0.6,0.0,0.0012805461883544922,0.0033707618713378906,0.007770538330078125,0
0.8525457382202148,-0.10458502918481827,-0.09492769837379456,-0.41907480359077454,0.11119403288738126,-0.5245655054521668,0.03270806921680188,0.1579000842874618,-0.12947836863562273,0.0,0.0,-0.6,0.0,0.002680540084838867,0.004616975784301758,0.00807332992553711,0
0.8639492988586426,-0.10093201696872711,-0.09427933394908905,-0.4293875992298126,0.12057009012716595,-0.524452670592742,0.03502713778490856,0.14982495355912906,-0.13584864184261677,0.0,0.0,-0.6,0.0,0.001093149185180664,0.002065420150756836,0.004850149154663086,0
0.8738720417022705,-0.10093201696872711,-0.09427933394908905,-0.4293875992298126,0.12057009012716595,-0.5243573082081341,0.036657686570404295,0.1443310910969609,-0.14030783308751452,0.0,0.0,-0.6,0.0,0.0026056766510009766,0.004701375961303711,0.009701013565063477,0
0.8858511447906494,-0.10093201696872711,-0.09427933394908905,-0.4293875992298126,0.12057009012716595,-0.5242781466761052,0.03780131631072575,0.1405911995657206,-0.14342926695894426,0.0,0.0,-0.6,0.0,0.0020470619201660156,0.004080772399902344,0.00901484489440918,0
0.8965206146240234,-0.09728523343801498,-0.09380710124969482,-0.4393559694290161,0.12955523492457016,-0.5241213542616688,0.04709603279042068,0.1350543373600882,-0.14898369996796923,0.0,0.0,-0.6,0.0,0.0022864341735839844,0.004902839660644531,0.00935053825378418,0
0.9090707302093506,-0.09728523343801498,-0.09380710124969482,-0.4393559694290161,0.12955523492457016,-0.5239971560335245,0.05348775110488334,0.13131980324942216,-0.15287180307428838,0.0,0.0,-0.6,0.0,0.0023233890533447266,0.004179477691650391,0.00960397720336914,0
0.9244639873504639,-0.09483633190393448,-0.09355488419532776,-0.44580790400505066,0.13522759507855867,-0.5240161031158518,0.05791181789518304,0.12087120169577847,-0.1577206103064565,0.0,0.0,-0.6,0.0,0.0012083053588867188,0.002237558364868164,0.00624537467956543,0
0.9353864192962646,-0.09360292553901672,-0.0934230163693428,-0.4489717185497284,0.13818261248560582,-0.5239650915655985,0.062304831414041244,0.10851721740711136,-0.16222290689661722,0.0,0.0,-0.6,0.0,0.002655029296875,0.003744363784790039,0.008352518081665039,0
0.9477589130401611,-0.09360292553901672,-0.0934230163693428,-0.4489717185497284,0.13818261248560582,-0.523918057311893,0.06534234026741133,0.10010309354274131,-0.1653745145097311,0.0,0.0,-0.6,0.0,0.0015442371368408203,0.0032193660736083984,0.008271217346191406,0
0.958322286605835,-0.09000255167484283,-0.0931151732802391,-0.458243191242218,0.14641658930392193,-0.523980916357634,0.06891430968011887,0.08642134970740702,-0.17066838114577718,0.0,0.0,-0.6,0.0,0.0025932788848876953,0.003662586212158203,0.009483575820922852,0
0.9716663360595703,-0.09000255167484283,-0.0931151732802391,-0.458243191242218,0.14641658930392193,-0.5240240315595616,0.07137589526484665,0.07709025705386643,-0.17437408779101105,0.0,0.0,-0.6,0.0,0.0024449825286865234,0.004698038101196289,0.008812189102172852,0
0.9839208126068115,-0.08649696409702301,-0.09281997382640839,-0.4671855866909027,0.15390853483451425,-0.5240582120868622,0.0696257684264364,0.06628532719818535,-0.17977756201664516,0.0,0.0,-0.6,0.0,0.002606630325317383,0.004609823226928711,0.00990152359008789,0
0.9960589408874512,-0.08649696409702301,-0.09281997382640839,-0.4671855866909027,0.15390853483451425,-0.5240770148946067,0.06845065612498778,0.05890451937766705,-0.18355999397459066,0.0,0.0,-0.6,0.0,0.001461029052734375,0.0038335323333740234,0.007315874099731445,0
1.0078248977661133,-0.0853927955031395,-0.0927564725279808,-0.47007355093955994,0.15639560859665338,-0.5240400057137116,0.06876343582154731,0.0515812079955751,-0.18714034900595491,0.0,0.0,-0.6,0.0,0.0031311511993408203,0.00488591194152832,0.009918451309204102,0
1.0224182605743408,-0.08325280249118805,-0.09264283627271652,-0.4757031798362732,0.16103707043924137,-0.5240799293561579,0.06774286056712042,0.03839050399829481,-0.19138714571887971,0.0,0.0,-0.6,0.0,0.0012929439544677734,0.0023505687713623047,0.007227420806884766,0
1.0344958305358887,-0.08325280249118805,-0.09264283627271652,-0.4757031798362732,0.16103707043924137,-0.5241038591441628,0.06706268730551088,0.029383486262213116,-0.19435990341792833,0.0,0.0,-0.6,0.0,0.002336740493774414,0.00406646728515625,0.009477615356445312,0
1.046661138534546,-0.0801105871796608,-0.09260664135217667,-0.48389187455177307,0.16797611824583308,-0.5241889571500635,0.06091466294602236,0.01413699824529536,-0.19904297673473256,0.0,0.0,-0.6,0.0,0.0019266605377197266,0.0036644935607910156,0.006971120834350586,0
1.057222843170166,-0.0801105871796608,-0.09260664135217667,-0.48389187455177307,0.16797611824583308,-0.5242435056099495,0.0567260346833234,0.0037104108207225723,-0.2023211280564969,0.0,0.0,-0.6,0.0,0.002371549606323242,0.0041234493255615234,0.007933616638183594,0
1.0696451663970947,-0.07782989740371704,-0.09262605011463165,-0.4898432791233063,0.1728996928508833,-0.5242006457436945,0.04963491304054413,-0.0017170039919641557,-0.20646217445862491,0.0,0.0,-0.6,0.0,0.0015590190887451172,0.003868579864501953,0.00834965705871582,0
1.0812809467315674,-0.07782989740371704,-0.09262605011463165,-0.4898432791233063,0.1728996928508833,-0.5241575467269876,0.04481512745721766,-0.005433861634954157,-0.20936090694011578,0.0,0.0,-0.6,0.0,0.0021255016326904297,0.0036771297454833984,0.008199214935302734,0
1.0935485363006592,-0.07565414905548096,-0.0927213728427887,-0.4956039786338806,0.17804653662004324,-0.5242270951906935,0.043329360986403484,-0.014427549372970213,-0.21332008609059327,0.0,0.0,-0.6,0.0,0.0020818710327148438,0.0038766860961914062,0.008241653442382812,0
1.1027169227600098,-0.07565414905548096,-0.0927213728427887,-0.4956039786338806,0.17804653662004324,-0.5242800223509765,0.04231431851249559,-0.020570348173088778,-0.21609151149592873,0.0,0.0,-0.6,0.0,0.002217531204223633,0.004393100738525391,0.008548498153686523,0
1.1180176734924316,-0.07381027936935425,-0.09286640584468842,-0.5005629658699036,0.18182413983305964,-0.5243707578859603,0.04000215223976832,-0.02624946147123949,-0.21944811048454413,0.0,0.0,-0.6,0.0,0.002270221710205078,0.0040280818939208984,0.009148836135864258,0
1.129213809967041,-0.07381027936935425,-0.09286640584468842,-0.5005629658699036,0.18182413983305964,-0.524441165192234,0.03840719959792434,-0.03012968684539087,-0.2217977297765759,0.0,0.0,-0.6,0.0,0.002211332321166992,0.004082202911376953,0.00869131088256836,0
1.1398441791534424,-0.07141466438770294,-0.09319860488176346,-0.5070981979370117,0.18720049297712224,-0.5245239458483553,0.03342506612820312,-0.037093756596058666,-0.2254585957100203,0.0,0.0,-0.6,0.0,0.0023565292358398438,0.004091024398803711,0.0077402591705322266,0
1.1524975299835205,-0.07057412713766098,-0.09330812096595764,-0.5094116926193237,0.18887727166950005,-0.5246627994457405,0.026998062011192203,-0.040418089132352876,-0.22864999387307355,0.0,0.0,-0.6,0.0,0.002239704132080078,0.0038497447967529297,0.008222103118896484,0
1.164508581161499,-0.07057412713766098,-0.09330812096595764,-0.5094116926193237,0.18887727166950005,-0.5247679924347224,0.02257200873548856,-0.042695248721804524,-0.23088397258721177,0.0,0.0,-0.6,0.0,0.0022919178009033203,0.004783153533935547,0.00947260856628418,0
1.1762933731079102,-0.06841743737459183,-0.09368030726909637,-0.515474796295166,0.194129219751971,-0.524861598080253,0.024430395097306025,-0.043265645144881064,-0.2344172382180338,0.0,0.0,-0.6,0.0,0.001173257827758789,0.0029456615447998047,0.006376743316650391,0
1.186654806137085,-0.06841743737459183,-0.09368030726909637,-0.515474796295166,0.194129219751971,-0.5249383137270257,0.025675424735325428,-0.04364681234260961,-0.23689052415961032,0.0,0.0,-0.6,0.0,0.0012187957763671875,0.002415180206298828,0.006634950637817383,0
1.1983120441436768,-0.06768809258937836,-0.09382300823926926,-0.5176138877868652,0.19565537702917482,-0.525038515549636,0.023069649038088523,-0.04593383985468502,-0.23919413329766548,0.0,0.0,-0.6,0.0,0.0024144649505615234,0.004679203033447266,0.008875608444213867,0
1.210301399230957,-0.06768809258937836,-0.09382300823926926,-0.5176138877868652,0.19565537702917482,-0.5251168101573245,0.02126329445767445,-0.047494359685159464,-0.2408066596943048,0.0,0.0,-0.6,0.0,0.001855611801147461,0.0037789344787597656,0.008801460266113281,0
1.2244603633880615,-0.06518364697694778,-0.09428317844867706,-0.5253450870513916,0.2017170760976424,-0.5252428590264065,0.01986619600608879,-0.04953910486215217,-0.24420856532262583,0.0,0.0,-0.6,0.0,0.001477956771850586,0.0037195682525634766,0.007165670394897461,0
1.2340948581695557,-0.06518364697694778,-0.09428317844867706,-0.5253450870513916,0.2017170760976424,-0.525343108285604,0.018879479461200097,-0.050930011270611066,-0.2465898992624516,0.0,0.0,-0.6,0.0,0.0023632049560546875,0.00487065315246582,0.009057044982910156,0
1.2468023300170898,-0.06518364697694778,-0.09428317844867706,-0.5253450870513916,0.2017170760976424,-0.5254229283205892,0.018178619426641448,-0.05187453256521679,-0.24825683302033033,0.0,0.0,-0.6,0.0,0.0022509098052978516,0.0033457279205322266,0.007593393325805664,0
1.2561540603637695,-0.06343719363212585,-0.09463060647249222,-0.5312166810035706,0.20604761574413577,-0.525566289205546,0.01775562740842536,-0.055494033437188776,-0.25104763901827937,0.0,0.0,-0.6,0.0,0.0022497177124023438,0.004429817199707031,0.008838653564453125,0
1.2693235874176025,-0.06343719363212585,-0.09463060647249222,-0.5312166810035706,0.20604761574413577,-0.5256819408569551,0.01743128756788212,-0.05795626517720254,-0.2530012032168445,0.0,0.0,-0.6,0.0,0.0018589496612548828,0.003855466842651367,0.00857853889465332,0
1.280979871749878,-0.061926525086164474,-0.094962477684021,-0.536760687828064,0.21011336853026927,-0.5258819310221934,0.013134543965005303,-0.06690678940870137,-0.25589335545067937,0.0,0.0,-0.6,0.0,0.001901388168334961,0.0030684471130371094,0.006391763687133789,0
1.291703224182129,-0.061926525086164474,-0.094962477684021,-0.536760687828064,0.21011336853026927,-0.5260412304576625,0.010154481246129258,-0.07300888491924104,-0.25791786201435263,0.0,0.0,-0.6,0.0,0.0027709007263183594,0.004744768142700195,0.009331226348876953,0
1.3030030727386475,-0.061926525086164474,-0.094962477684021,-0.536760687828064,0.21011336853026927,-0.5261689452202327,0.008079858521803016,-0.07716339585476813,-0.2593350166088964,0.0,0.0,-0.6,0.0,0.002676248550415039,0.004407167434692383,0.009479045867919922,0
1.3161325454711914,-0.060631487518548965,-0.09531107544898987,-0.5420256853103638,0.21370784503356877,-0.5263182404600694,0.005768065348772437,-0.07484007997314704,-0.2616749535138134,0.0,0.0,-0.6,0.0,0.0026433467864990234,0.004656791687011719,0.007996320724487305,0
1.328935146331787,-0.060631487518548965,-0.09531107544898987,-0.5420256853103638,0.21370784503356877,-0.5264340906406763,0.0041401945945779145,-0.07323764459252706,-0.26331290934725604,0.0,0.0,-0.6,0.0,0.0012001991271972656,0.003217935562133789,0.008646726608276367,0
1.3413805961608887,-0.05994242802262306,-0.09549691528081894,-0.5453630089759827,0.2158336746804138,-0.526495349974334,0.001249022325050208,-0.07521253886103976,-0.26525666454823243,0.0,0.0,-0.6,0.0,0.0011601448059082031,0.0022284984588623047,0.004885435104370117,0
1.3522162437438965,-0.059617213904857635,-0.09559411555528641,-0.5470016598701477,0.21690688031414027,-0.5265842046642213,-0.001464831967333147,-0.07839288866879136,-0.2670197453015635,0.0,0.0,-0.6,0.0,0.0026412010192871094,0.004673957824707031,0.009497642517089844,0
1.3638412952423096,-0.059617213904857635,-0.09559411555528641,-0.5470016598701477,0.21690688031414027,-0.5266549866875126,-0.0033402920181553357,-0.08055533637479581,-0.26825390182889586,0.0,0.0,-0.6,0.0,0.0021331310272216797,0.004287242889404297,0.009250879287719727,0
1.375096082687378,-0.05875849723815918,-0.09580878913402557,-0.5517297983169556,0.2199437979879796,-0.5268364473283554,-0.006245647476590128,-0.08457483280938491,-0.2702566555257174,0.0,0.0,-0.6,0.0,0.0019233226776123047,0.003961801528930664,0.007436275482177734,0
1.3856761455535889,-0.05875849723815918,-0.09580878913402557,-0.5517297983169556,0.2199437979879796,-0.5269820819980304,-0.008276993254450426,-0.08729603241915405,-0.27165858311349317,0.0,0.0,-0.6,0.0,0.002854585647583008,0.00471949577331543,0.010102033615112305,0
1.3988885879516602,-0.058254629373550415,-0.09592068195343018,-0.5547094941139221,0.22167782759075208,-0.5271322029360068,-0.010287452573635772,-0.08440707641738229,-0.2732901935259756,0.0,0.0,-0.6,0.0,0.0012810230255126953,0.0023221969604492188,0.0060198307037353516,0
1.4081315994262695,-0.058254629373550415,-0.09592068195343018,-0.5547094941139221,0.22167782759075208,-0.5272481869404736,-0.011708743787171579,-0.08240880621953829,-0.2744323208147138,0.0,0.0,-0.6,0.0,0.0029420852661132812,0.005391836166381836,0.010269880294799805,0
1.4232392311096191,-0.057817891240119934,-0.09600520133972168,-0.5575695633888245,0.22331612118209457,-0.5273991396262487,-0.01451999715258924,-0.07634111763756596,-0.27584617001360334,0.0,0.0,-0.6,0.0,0.002771139144897461,0.005069255828857422,0.008875846862792969,0
1.435546875,-0.057817891240119934,-0.09600520133972168,-0.5575695633888245,0.22331612118209457,-0.5275122133559639,-0.016492826715743467,-0.07217042454876893,-0.27683586445280683,0.0,0.0,-0.6,0.0,0.002719879150390625,0.004738807678222656,0.00816035270690918,0
1.4465734958648682,-0.057258572429418564,-0.09612474590539932,-0.5616191625595093,0.22546727282134862,-0.5277096685231689,-0.01974815533022521,-0.06932478776838118,-0.278335332424969,0.0,0.0,-0.6,0.0,0.0017938613891601562,0.003834962844848633,0.0072062015533447266,0
1.4585416316986084,-0.057258572429418564,-0.09612474590539932,-0.5616191625595093,0.22546727282134862,-0.5278627415133641,-0.022030518128617137,-0.0673443029941769,-0.27938496000548296,0.0,0.0,-0.6,0.0,0.0021924972534179688,0.004105567932128906,0.008813619613647461,0
1.4688842296600342,-0.056871265172958374,-0.09611870348453522,-0.5644919276237488,0.22699393063072143,-0.5281024873596286,-0.0233121328310081,-0.063172944594352,-0.28069219599035733,0.0,0.0,-0.6,0.0,0.002668142318725586,0.004805088043212891,0.007867574691772461,0
1.4804966449737549,-0.056871265172958374,-0.09611870348453522,-0.5644919276237488,0.22699393063072143,-0.5282895961371078,-0.02425584271895828,-0.06027327255944155,-0.28160726117976975,0.0,0.0,-0.6,0.0,0.0023980140686035156,0.004930734634399414,0.008283853530883789,0
1.493112325668335,-0.05648660287261009,-0.09601826220750809,-0.5677319765090942,0.22858090992799074,-0.528482763656445,-0.024245632623769275,-0.04946003373575208,-0.2828429240488341,0.0,0.0,-0.6,0.0,0.002302408218383789,0.004967451095581055,0.009516239166259766,0
1.5051448345184326,-0.05648660287261009,-0.09601826220750809,-0.5677319765090942,0.22858090992799074,-0.5286262270642256,-0.024302026893616865,-0.04202515030281889,-0.2837078880571795,0.0,0.0,-0.6,0.0,0.0025641918182373047,0.004590511322021484,0.00818324089050293,0
1.5191600322723389,-0.05628291144967079,-0.09589055925607681,-0.5699810981750488,0.22946457124338213,-0.5288007676638126,-0.025890318760635536,-0.03341983318515062,-0.284644735856293,0.0,0.0,-0.6,0.0,0.002170085906982422,0.003283977508544922,0.008914470672607422,0
1.5311503410339355,-0.05628291144967079,-0.09589055925607681,-0.5699810981750488,0.22946457124338213,-0.5289316953260389,-0.02702938103079257,-0.02750194119832565,-0.28530052931567274,0.0,0.0,-0.6,0.0,0.0026302337646484375,0.0048046112060546875,0.00947260856628418,0
1.5448813438415527,-0.05600954219698906,-0.09563281387090683,-0.5728857517242432,0.23051996667274569,-0.5291828322528469,-0.02799500351352843,-0.019139062654342225,-0.2861553580232497,0.0,0.0,-0.6,0.0,0.0023300647735595703,0.0039293766021728516,0.008571147918701172,0
1.556739330291748,-0.05600954219698906,-0.09563281387090683,-0.5728857517242432,0.23051996667274569,-0.529375972331505,-0.028725033199036538,-0.013367859814304935,-0.2867537381185538,0.0,0.0,-0.6,0.0,0.0017673969268798828,0.002836465835571289,0.007687807083129883,0
1.5686492919921875,-0.055809054523706436,-0.09535148739814758,-0.5748328566551208,0.23118016777625053,-0.5295840415023475,-0.026867113643182557,-0.004787794456452478,-0.28742017959908095,0.0,0.0,-0.6,0.0,0.0019440650939941406,0.0037696361541748047,0.007863759994506836,0
1.5794124603271484,-0.05562029778957367,-0.09507696330547333,-0.576453447341919,0.23187987727074616,-0.5298901090094275,-0.030748105166312132,-0.0003102809751040717,-0.2881490796958857,0.0,0.0,-0.6,0.0,0.0010936260223388672,0.0020599365234375,0.0049555301666259766,0
1.590075969696045,-0.05562029778957367,-0.09507696330547333,-0.576453447341919,0.23187987727074616,-0.5301292317880676,-0.033479387183363046,0.002815870056341282,-0.2886593097636493,0.0,0.0,-0.6,0.0,0.0027985572814941406,0.004786252975463867,0.009554862976074219,0
1.6016530990600586,-0.05562029778957367,-0.09507696330547333,-0.576453447341919,0.23187987727074616,-0.5303167718876949,-0.035404981079981114,0.005002219815967185,-0.28901647081108894,0.0,0.0,-0.6,0.0,0.0016679763793945312,0.004044294357299805,0.009147167205810547,0
1.616830587387085,-0.055413294583559036,-0.09464792907238007,-0.5787644982337952,0.23258833457141334,-0.5305378205279867,-0.033662642090172015,0.011431079135612393,-0.2895321550320417,0.0,0.0,-0.6,0.0,0.0013172626495361328,0.0031042098999023438,0.00739288330078125,0
1.6280412673950195,-0.05534207448363304,-0.09445986151695251,-0.5795465707778931,0.23272850123564504,-0.5307886233309393,-0.03305321349870824,0.014661125883314306,-0.28994569648579566,0.0,0.0,-0.6,0.0,0.0018992424011230469,0.004012107849121094,0.008058309555053711,0
1.6402783393859863,-0.05522486940026283,-0.09407179802656174,-0.5810086131095886,0.23306216879221006,-0.5311137417283641,-0.03410413636956549,0.01632224297542368,-0.2903603008371353,0.0,0.0,-0.6,0.0,0.0026636123657226562,0.004895448684692383,0.008684396743774414,0
1.653109073638916,-0.05522486940026283,-0.09407179802656174,-0.5810086131095886,0.23306216879221006,-0.5313719776780607,-0.03489661907546013,0.017529311415245774,-0.2906505238830732,0.0,0.0,-0.6,0.0,0.0026178359985351562,0.004654645919799805,0.008658170700073242,0
1.6643660068511963,-0.055130090564489365,-0.0934840738773346,-0.5828558206558228,0.23356353497028987,-0.5316368283262164,-0.03434593463089833,0.02344969642995489,-0.291041692332015,0.0,0.0,-0.6,0.0,0.001135110855102539,0.002101898193359375,0.004888772964477539,0
1.6744282245635986,-0.055130090564489365,-0.0934840738773346,-0.5828558206558228,0.23356353497028987,-0.5318447578553198,-0.03402964072145435,0.027555839609471916,-0.2913155102462689,0.0,0.0,-0.6,0.0,0.002168416976928711,0.003902435302734375,0.009241819381713867,0
1.68516206741333,-0.055130090564489365,-0.0934840738773346,-0.5828558206558228,0.23356353497028987,-0.5320085865168102,-0.03386008556030505,0.03040662209177417,-0.2915071827862467,0.0,0.0,-0.6,0.0,0.001268148422241211,0.002302408218383789,0.005249738693237305,0
1.6958019733428955,-0.055051933974027634,-0.09290993958711624,-0.584250807762146,0.2337221855082726,-0.5321159463150256,-0.032935797026523286,0.0347597727160688,-0.29170084751597475,0.0,0.0,-0.6,0.0,0.0019283294677734375,0.004000186920166016,0.00959014892578125,0
1.7071027755737305,-0.055051933974027634,-0.09290993958711624,-0.584250807762146,0.2337221855082726,-0.5321997934566505,-0.0323287472289084,0.03775610838883504,-0.2918364128267825,0.0,0.0,-0.6,0.0,0.002672910690307617,0.0041866302490234375,0.009142160415649414,0
1.7217259407043457,-0.054974719882011414,-0.09206310659646988,-0.5859590768814087,0.2339229998238781,-0.5323873241341498,-0.034807190397681514,0.033999514557425614,-0.2920066139127019,0.0,0.0,-0.6,0.0,0.0021390914916992188,0.004021406173706055,0.00919032096862793,0
1.7346935272216797,-0.054974719882011414,-0.09206310659646988,-0.5859590768814087,0.2339229998238781,-0.5325373881580323,-0.03653944743962413,0.031467258046088645,-0.29212575467284546,0.0,0.0,-0.6,0.0,0.0023300647735595703,0.004784345626831055,0.009016990661621094,0
1.7468781471252441,-0.05483095347881317,-0.09115835279226303,-0.5875769853591919,0.23388166428309737,-0.5326438843132005,-0.036878186269338045,0.033086646649866686,-0.2921936523771523,0.0,0.0,-0.6,0.0,0.0011799335479736328,0.0022308826446533203,0.004938602447509766,0
1.7569499015808105,-0.05483095347881317,-0.09115835279226303,-0.5875769853591919,0.23388166428309737,-0.5327280618424056,-0.037131306678389035,0.03421316673239049,-0.29224118077016803,0.0,0.0,-0.6,0.0,0.0025262832641601562,0.0047037601470947266,0.009118080139160156,0
1.7680041790008545,-0.05483095347881317,-0.09115835279226303,-0.5875769853591919,0.23388166428309737,-0.5327946964663633,-0.03732126266666205,0.03499844696894094,-0.2922744506452791,0.0,0.0,-0.6,0.0,0.0022361278533935547,0.003754854202270508,0.008584737777709961,0
1.7789101600646973,-0.0546475388109684,-0.0901729017496109,-0.5891271233558655,0.23354004934774694,-0.532873546390187,-0.03719786810617955,0.0378292831554495,-0.29216963395709916,0.0,0.0,-0.6,0.0,0.0012257099151611328,0.003484010696411133,0.006658792495727539,0
1.7892706394195557,-0.0546475388109684,-0.0901729017496109,-0.5891271233558655,0.23354004934774694,-0.5329353600141589,-0.03712885060508596,0.039777331816302254,-0.2920962622753746,0.0,0.0,-0.6,0.0,0.002707958221435547,0.004865407943725586,0.008626461029052734,0
1.80147385597229,-0.0546475388109684,-0.0901729017496109,-0.5891271233558655,0.23354004934774694,-0.5329839882175564,-0.037093660132581315,0.04111886064423917,-0.2920449020981681,0.0,0.0,-0.6,0.0,0.003038644790649414,0.004227399826049805,0.008609533309936523,0
1.8142321109771729,-0.05438150092959404,-0.08911285549402237,-0.5905978679656982,0.2332756287282375,-0.5330649918499398,-0.03373652627918668,0.03723452316887426,-0.29190979224180685,0.0,0.0,-0.6,0.0,0.0021376609802246094,0.003212451934814453,0.008567094802856445,0
1.8264219760894775,-0.05438150092959404,-0.08911285549402237,-0.5905978679656982,0.2332756287282375,-0.5331318587658725,-0.03145640159743443,0.034592943262571695,-0.29181521534235394,0.0,0.0,-0.6,0.0,0.0018315315246582031,0.0037546157836914062,0.00905752182006836,0
1.8381056785583496,-0.05405788496136665,-0.08794818073511124,-0.5920190215110779,0.23280830924631768,-0.5332145759564303,-0.029319919156945776,0.03743937041307157,-0.2915737667070171,0.0,0.0,-0.6,0.0,0.0010325908660888672,0.0020711421966552734,0.006487369537353516,0
1.848578929901123,-0.05405788496136665,-0.08794818073511124,-0.5920190215110779,0.23280830924631768,-0.5332800919544355,-0.027873835258670297,0.03939801174569092,-0.2914047526622836,0.0,0.0,-0.6,0.0,0.002101421356201172,0.0043811798095703125,0.008381366729736328,0
1.8594574928283691,-0.05405788496136665,-0.08794818073511124,-0.5920190215110779,0.23280830924631768,-0.5333321351571957,-0.026896913979069948,0.04074692542353326,-0.2912864428309678,0.0,0.0,-0.6,0.0,0.002126455307006836,0.0039000511169433594,0.007811784744262695,0
1.8704633712768555,-0.05370034649968147,-0.08671001344919205,-0.593309223651886,0.23199377467364315,-0.5334072195452125,-0.023023681701617928,0.045304136790259214,-0.29089817548429403,0.0,0.0,-0.6,0.0,0.0017948150634765625,0.003292560577392578,0.007069587707519531,0
1.8819315433502197,-0.05370034649968147,-0.08671001344919205,-0.593309223651886,0.23199377467364315,-0.5334665786362134,-0.02038887350986471,0.04842885215413655,-0.2906263883416223,0.0,0.0,-0.6,0.0,0.0018270015716552734,0.0031058788299560547,0.007384777069091797,0
1.8937008380889893,-0.0534399189054966,-0.08588182926177979,-0.5941134095191956,0.23150019606069894,-0.5336130144424786,-0.02005487362675869,0.04639888217980948,-0.29025104536189805,0.0,0.0,-0.6,0.0,0.002110004425048828,0.003126859664916992,0.007172107696533203,0
1.9027483463287354,-0.0534399189054966,-0.08588182926177979,-0.5941134095191956,0.23150019606069894,-0.533730552842579,-0.019849986532032644,0.04503339131013149,-0.289988305276091,0.0,0.0,-0.6,0.0,0.0027544498443603516,0.003957033157348633,0.008848428726196289,0
1.916623830795288,-0.05319209396839142,-0.08492904901504517,-0.5949373245239258,0.23055993584963136,-0.5337479301880754,-0.01968705691896279,0.04515160618988962,-0.289451789636876,0.0,0.0,-0.6,0.0,0.0014083385467529297,0.0035033226013183594,0.007784605026245117,0
1.9284939765930176,-0.05307042971253395,-0.08450303971767426,-0.5953007936477661,0.23013069709717035,-0.5337798024143474,-0.019666133764950865,0.04424483824485345,-0.28891526415724517,0.0,0.0,-0.6,0.0,0.0012011528015136719,0.0021698474884033203,0.005880594253540039,0
1.9406683444976807,-0.0529434010386467,-0.08406572788953781,-0.5956564545631409,0.22974484828739547,-0.5338453569136391,-0.0180755466990256,0.04648426650978929,-0.28839500301784543,0.0,0.0,-0.6,0.0,0.0024251937866210938,0.004338979721069336,0.008829832077026367,0
1.95123291015625,-0.0529434010386467,-0.08406572788953781,-0.5956564545631409,0.22974484828739547,-0.5338973949708851,-0.016997346000710747,0.048024114792554105,-0.2880308202202705,0.0,0.0,-0.6,0.0,0.0011315345764160156,0.0020787715911865234,0.004782676696777344,0
1.9614777565002441,-0.05270344763994217,-0.08307249844074249,-0.5964455008506775,0.22880509671129906,-0.5338966974391328,-0.013526339193879506,0.04586633423255036,-0.2874234854209271,0.0,0.0,-0.6,0.0,0.0019268989562988281,0.0035696029663085938,0.008400917053222656,0
1.9724605083465576,-0.05270344763994217,-0.08307249844074249,-0.5964455008506775,0.22880509671129906,-0.5338975768122195,-0.011155512141029758,0.0443902288733612,-0.28699835106138655,0.0,0.0,-0.6,0.0,0.00225830078125,0.004669904708862305,0.008570671081542969,0
1.9858882427215576,-0.0524408183991909,-0.08178704977035522,-0.5974474549293518,0.22734714868410436,-0.5338450717560824,-0.007703163114436293,0.04240713824779789,-0.28615402649951055,0.0,0.0,-0.6,0.0,0.0014700889587402344,0.0024771690368652344,0.00719451904296875,0
1.9947853088378906,-0.0524408183991909,-0.08178704977035522,-0.5974474549293518,0.22734714868410436,-0.5338046593013152,-0.0053384199847405,0.04104225647091391,-0.2855629993061971,0.0,0.0,-0.6,0.0,0.002337217330932617,0.004744291305541992,0.009348630905151367,0
2.008680820465088,-0.052247464656829834,-0.08093205094337463,-0.5981227159500122,0.22635000668727176,-0.5337280639256453,-0.0036474303251824132,0.04198778592271971,-0.28477535202205473,0.0,0.0,-0.6,0.0,0.0023996829986572266,0.004621744155883789,0.007986068725585938,0
2.0225586891174316,-0.052247464656829834,-0.08093205094337463,-0.5981227159500122,0.22635000668727176,-0.5336672264695744,-0.0024810010358217094,0.04262141779083039,-0.28422399892316574,0.0,0.0,-0.6,0.0,0.0018358230590820312,0.003692626953125,0.008725404739379883,0
2.0327045917510986,-0.05202082172036171,-0.07968805730342865,-0.5990432500839233,0.22489638674457904,-0.5337348096416763,0.002700899470285333,0.03907426149449634,-0.2832929442754341,0.0,0.0,-0.6,0.0,0.0029914379119873047,0.004628419876098633,0.008987665176391602,0
2.046701192855835,-0.05202082172036171,-0.07968805730342865,-0.5990432500839233,0.22489638674457904,-0.5337909983196686,0.006230885811706343,0.036655729355788536,-0.28264120602202164,0.0,0.0,-0.6,0.0,0.0014576911926269531,0.0036504268646240234,0.008719205856323242,0
2.0597944259643555,-0.05189577862620354,-0.07840265333652496,-0.5998432636260986,0.2232723787992678,-0.533881397092491,0.006822877089435737,0.02790379364061822,-0.2815759862651564,0.0,0.0,-0.6,0.0,0.002002716064453125,0.004362821578979492,0.009900808334350586,0
2.073153495788574,-0.05189577862620354,-0.07840265333652496,-0.5998432636260986,0.2232723787992678,-0.5339551045626239,0.0072096664508601305,0.021934332845624283,-0.2808303324353356,0.0,0.0,-0.6,0.0,0.0021593570709228516,0.003079652786254883,0.0071926116943359375,0
2.08294415473938,-0.051834817975759506,-0.07744687795639038,-0.6003293395042419,0.22200785149485913,-0.5341413028750214,0.0076529535607688,0.013738225226763403,-0.2798341770153081,0.0,0.0,-0.6,0.0,0.002073526382446289,0.004359006881713867,0.008786201477050781,0
2.09517240524292,-0.051834817975759506,-0.07744687795639038,-0.6003293395042419,0.22200785149485913,-0.5342922390048505,0.007925792255164783,0.008162066738574017,-0.2791368682212885,0.0,0.0,-0.6,0.0,0.0022592544555664062,0.00391077995300293,0.009037971496582031,0
2.1062848567962646,-0.05174022167921066,-0.0760982409119606,-0.6009589433670044,0.22024796972703417,-0.5343952753070729,0.01012802570249268,0.005699246463511529,-0.2779887964025409,0.0,0.0,-0.6,0.0,0.0012023448944091797,0.0025229454040527344,0.006299495697021484,0
2.1192314624786377,-0.05174022167921066,-0.0760982409119606,-0.6009589433670044,0.22024796972703417,-0.5344793337024983,0.011617209093926576,0.004028866345987979,-0.27718514612941725,0.0,0.0,-0.6,0.0,0.002819538116455078,0.004272937774658203,0.01008152961730957,0
2.1332509517669678,-0.05171241611242294,-0.07526221126317978,-0.601342499256134,0.21887594490670942,-0.5345545533384687,0.012001647150831768,0.0008481472930923469,-0.2761080816306092,0.0,0.0,-0.6,0.0,0.0011601448059082031,0.0021088123321533203,0.0063686370849609375,0
2.1435558795928955,-0.05169937014579773,-0.07484598457813263,-0.6015027165412903,0.21813084481551262,-0.5346607099285392,0.012638004353856447,-0.0013848924725562445,-0.2750747239472447,0.0,0.0,-0.6,0.0,0.0014426708221435547,0.003670215606689453,0.00899052619934082,0
2.154942274093628,-0.05169937014579773,-0.07484598457813263,-0.6015027165412903,0.21813084481551262,-0.5347466524228016,0.013056216574598285,-0.0028966152960211906,-0.2743513735688892,0.0,0.0,-0.6,0.0,0.0023348331451416016,0.004092693328857422,0.009089469909667969,0
2.167330265045166,-0.051631759852170944,-0.07371148467063904,-0.6019783020019531,0.2160003436181787,-0.5348408773159794,0.013892791624751709,-0.011303428882003043,-0.27304609035504074,0.0,0.0,-0.6,0.0,0.0010728836059570312,0.0023229122161865234,0.006043195724487305,0
2.176941394805908,-0.051631759852170944,-0.07371148467063904,-0.6019783020019531,0.2160003436181787,-0.5349195281356245,0.014445190707530878,-0.017036773262070877,-0.27213239210534645,0.0,0.0,-0.6,0.0,0.002291440963745117,0.0044176578521728516,0.008405685424804688,0
2.1909170150756836,-0.05159350857138634,-0.07302770018577576,-0.602273166179657,0.2146078064333067,-0.5350155175384014,0.014652579081818488,-0.020541170869823436,-0.2709706018862337,0.0,0.0,-0.6,0.0,0.001455545425415039,0.0036830902099609375,0.007651090621948242,0
2.199603796005249,-0.05159350857138634,-0.07302770018577576,-0.602273166179657,0.2146078064333067,-0.535094045059414,0.014778771795610763,-0.022921611357747024,-0.2701573487328544,0.0,0.0,-0.6,0.0,0.0023145675659179688,0.00438380241394043,0.008939504623413086,0
2.214003801345825,-0.051559869199991226,-0.07238388806581497,-0.6025175452232361,0.21311538171282957,-0.5351328238287191,0.018106103294992085,-0.019995828564670765,-0.2690284122553259,0.0,0.0,-0.6,0.0,0.0022690296173095703,0.004323244094848633,0.009225606918334961,0
2.2262985706329346,-0.051559869199991226,-0.07238388806581497,-0.6025175452232361,0.21311538171282957,-0.5351634032435227,0.020375320072549146,-0.017992888764472185,-0.26823815672104,0.0,0.0,-0.6,0.0,0.0017905235290527344,0.003524303436279297,0.008059024810791016,0
2.238156318664551,-0.05158183351159096,-0.07171773165464401,-0.602763831615448,0.21144284551198766,-0.5351202693150997,0.022531581195055442,-0.01816569088167515,-0.26705777677172454,0.0,0.0,-0.6,0.0,0.002385854721069336,0.004037380218505859,0.008190155029296875,0
2.252619743347168,-0.051611293107271194,-0.07100518047809601,-0.6030212640762329,0.2099646325736431,-0.535129085081629,0.02327949091183915,-0.022281508721425477,-0.2656771809553439,0.0,0.0,-0.6,0.0,0.0012319087982177734,0.0021948814392089844,0.006150245666503906,0
2.2599616050720215,-0.051611293107271194,-0.07100518047809601,-0.6030212640762329,0.2099646325736431,-0.5351386302177005,0.023786213192908974,-0.025094252555359145,-0.26471076388384446,0.0,0.0,-0.6,0.0,0.0024259090423583984,0.00420689582824707,0.008331298828125,0
2.274632692337036,-0.05164945870637894,-0.07027821242809296,-0.6032981276512146,0.208419102982075,-0.5351347242407402,0.02097686109643299,-0.02707960250023035,-0.2634546983369705,0.0,0.0,-0.6,0.0,0.0023794174194335938,0.004353523254394531,0.009423017501831055,0
2.28521466255188,-0.05164945870637894,-0.07027821242809296,-0.6032981276512146,0.208419102982075,-0.5351311590995463,0.01905612450564577,-0.028434796804595947,-0.2625754524541705,0.0,0.0,-0.6,0.0,0.001081705093383789,0.002023458480834961,0.0048444271087646484,0
2.295699119567871,-0.051714565604925156,-0.06955157220363617,-0.6035740375518799,0.20672154829301032,-0.5350833980270199,0.015268104298811222,-0.02776975549480425,-0.26132339732781684,0.0,0.0,-0.6,0.0,0.0024983882904052734,0.0044519901275634766,0.010054826736450195,0
2.30770206451416,-0.051714565604925156,-0.06955157220363617,-0.6035740375518799,0.20672154829301032,-0.5350426508785422,0.012687222890571219,-0.027320677564908313,-0.2604469587393394,0.0,0.0,-0.6,0.0,0.002056598663330078,0.003949403762817383,0.008910894393920898,0
2.319573163986206,-0.051857877522706985,-0.06845729798078537,-0.6040028929710388,0.20426049131219096,-0.5349851848562802,0.01616901279751526,-0.024990518562983198,-0.2589105553596107,0.0,0.0,-0.6,0.0,0.0022635459899902344,0.004858493804931641,0.008833169937133789,0
2.3305039405822754,-0.051857877522706985,-0.06845729798078537,-0.6040028929710388,0.20426049131219096,-0.5349393222058121,0.018558165520646264,-0.023413125446658634,-0.25783507299380015,0.0,0.0,-0.6,0.0,0.002638101577758789,0.004914760589599609,0.009247779846191406,0
2.3437376022338867,-0.05201895907521248,-0.06763840466737747,-0.6043028235435486,0.20226670111161876,-0.5349483508355227,0.016198540751699624,-0.023121316819757334,-0.2563345640124978,0.0,0.0,-0.6,0.0,0.002271413803100586,0.003333568572998047,0.0076406002044677734,0
2.352823257446289,-0.05201895907521248,-0.06763840466737747,-0.6043028235435486,0.20226670111161876,-0.5349539969245757,0.014583986749971769,-0.022918110605389275,-0.25528420772560656,0.0,0.0,-0.6,0.0,0.0023522377014160156,0.004971027374267578,0.00892329216003418,0
2.367140531539917,-0.052183765918016434,-0.06687323749065399,-0.6045945882797241,0.2007772616657752,-0.5348978772303027,0.012357132916520767,-0.020777317656827908,-0.2539904185325916,0.0,0.0,-0.6,0.0,0.0025534629821777344,0.0044901371002197266,0.008640050888061523,0
2.3795087337493896,-0.052183765918016434,-0.06687323749065399,-0.6045945882797241,0.2007772616657752,-0.5348503906227712,0.01084558275745498,-0.019322897981183626,-0.2530847660974807,0.0,0.0,-0.6,0.0,0.002009153366088867,0.003335714340209961,0.008467912673950195,0
2.389265537261963,-0.052409105002880096,-0.06576044112443924,-0.6050907969474792,0.19820375186863148,-0.5347398337291364,0.007011285138410172,-0.018412970888762162,-0.2514857432189749,0.0,0.0,-0.6,0.0,0.0026137828826904297,0.005110979080200195,0.00818777084350586,0
2.4018375873565674,-0.052409105002880096,-0.06576044112443924,-0.6050907969474792,0.19820375186863148,-0.5346488456026471,0.004410017208003226,-0.01780803028305675,-0.25036642720402036,0.0,0.0,-0.6,0.0,0.0019338130950927734,0.004317522048950195,0.009285926818847656,0
2.416354179382324,-0.05256335064768791,-0.06507077813148499,-0.6054804921150208,0.19667189199190444,-0.5346074731608995,0.0037917530468633085,-0.019618671557974286,-0.24900845853977976,0.0,0.0,-0.6,0.0,0.0018496513366699219,0.003856658935546875,0.008024215698242188,0
2.4288034439086914,-0.05271061509847641,-0.0644206702709198,-0.6058440804481506,0.1949132142638953,-0.5345414512150584,0.0037418007084114727,-0.018325224678799202,-0.2473983763268082,0.0,0.0,-0.6,0.0,0.002197742462158203,0.004153013229370117,0.008525371551513672,0
2.440783739089966,-0.05271061509847641,-0.0644206702709198,-0.6058440804481506,0.1949132142638953,-0.5344878098181116,0.0037181167007958177,-0.01745496953422733,-0.2462713187777276,0.0,0.0,-0.6,0.0,0.0024552345275878906,0.004566669464111328,0.00983572006225586,0
2.4541680812835693,-0.05300692096352577,-0.06340857595205307,-0.6063794493675232,0.19239894616309078,-0.5344776234439792,0.00014882767060241065,-0.01762874194234626,-0.24453952795557007,0.0,0.0,-0.6,0.0,0.0017604827880859375,0.004069805145263672,0.008701562881469727,0
2.4643030166625977,-0.05300692096352577,-0.06340857595205307,-0.6063794493675232,0.19239894616309078,-0.534467828399033,-0.002289310394507166,-0.01774564718876544,-0.2433272743800593,0.0,0.0,-0.6,0.0,0.0026040077209472656,0.004602670669555664,0.008507251739501953,0
2.476553440093994,-0.053216032683849335,-0.06274144351482391,-0.6067711114883423,0.19086287921771058,-0.5344244824378585,-0.0008914887408004071,-0.017089331372121108,-0.2419026717726844,0.0,0.0,-0.6,0.0,0.002118349075317383,0.004301548004150391,0.009407758712768555,0
2.488649845123291,-0.053216032683849335,-0.06274144351482391,-0.6067711114883423,0.19086287921771058,-0.534389952431414,6.984854632537921e-05,-0.016651898209520996,-0.24090544994752155,0.0,0.0,-0.6,0.0,0.0024747848510742188,0.00499415397644043,0.009699821472167969,0
2.5006420612335205,-0.0535840280354023,-0.061718352138996124,-0.6073005795478821,0.18837264028801032,-0.5343234809466143,-0.004939110193543663,-0.018490103485777735,-0.23927355507127057,0.0,0.0,-0.6,0.0,0.0012006759643554688,0.0034248828887939453,0.006579399108886719,0
2.5126278400421143,-0.0535840280354023,-0.061718352138996124,-0.6073005795478821,0.18837264028801032,-0.5342690907175507,-0.008352426099162804,-0.0197548231856367,-0.2381312286578944,0.0,0.0,-0.6,0.0,0.0029702186584472656,0.0051708221435546875,0.010438203811645508,0
2.526620388031006,-0.053867075592279434,-0.06103662773966789,-0.6076765656471252,0.1867658944269658,-0.5342594529982075,-0.012402718874000684,-0.017313127029029544,-0.23672907047063968,0.0,0.0,-0.6,0.0,0.0024178028106689453,0.0047109127044677734,0.009224414825439453,0
2.5399882793426514,-0.05414717271924019,-0.06034475564956665,-0.6079987287521362,0.18503519403859964,-0.5342559288814629,-0.013501336227653553,-0.014563054391098191,-0.23509854709392425,0.0,0.0,-0.6,0.0,0.002576589584350586,0.005058765411376953,0.00913858413696289,0
2.5529611110687256,-0.05414717271924019,-0.06034475564956665,-0.6079987287521362,0.18503519403859964,-0.5342506771829464,-0.014250256675310517,-0.012683317867363323,-0.23395718073022298,0.0,0.0,-0.6,0.0,0.0026416778564453125,0.004902362823486328,0.010199308395385742,0
2.567352294921875,-0.054632291197776794,-0.05932816118001938,-0.6084674000740051,0.18234691142936899,-0.534226975467044,-0.01601995472377737,-0.013976575908533627,-0.23215011829717128,0.0,0.0,-0.6,0.0,0.0020232200622558594,0.0030417442321777344,0.008069753646850586,0
2.5797982215881348,-0.054632291197776794,-0.05932816118001938,-0.6084674000740051,0.18234691142936899,-0.5342082480195238,-0.01722736869211041,-0.014863636892506948,-0.23088517459403451,0.0,0.0,-0.6,0.0,0.0019295215606689453,0.0029289722442626953,0.0074422359466552734,0
2.5886802673339844,-0.055092085152864456,-0.05871591344475746,-0.6087519526481628,0.18063689018443832,-0.5341615546932996,-0.018051280853446382,-0.017002804200625707,-0.22935845603499005,0.0,0.0,-0.6,0.0,0.002199411392211914,0.0037965774536132812,0.008004188537597656,0
2.602393388748169,-0.055092085152864456,-0.05871591344475746,-0.6087519526481628,0.18063689018443832,-0.5341254260952361,-0.01860952723372527,-0.018474158496916315,-0.22828975304365848,0.0,0.0,-0.6,0.0,0.0015871524810791016,0.002988576889038086,0.008944988250732422,0
2.615964651107788,-0.05551374703645706,-0.05816331505775452,-0.6090540885925293,0.1788018881769826,-0.5341532655011769,-0.015095263554907555,-0.020400362925439317,-0.22685353519693086,0.0,0.0,-0.6,0.0,0.0011649131774902344,0.0024514198303222656,0.006852865219116211,0
2.6269772052764893,-0.05551374703645706,-0.05816331505775452,-0.6090540885925293,0.1788018881769826,-0.5341778333903852,-0.01269975593567498,-0.021714874888649368,-0.22584818270422108,0.0,0.0,-0.6,0.0,0.0022954940795898438,0.004549980163574219,0.009067058563232422,0
