time,x,y,z,yaw,throttle,roll_rate,pitch_rate,yaw_rate,x_ref,y_ref,z_ref,yaw_ref,pred_time,nr_time,ctrl_callback_time,metadata
3.5762786865234375e-06,-0.0662762001156807,-0.1094411239027977,-0.23993037641048431,-0.051083501658336215,-0.4962532494905406,0.046819904113792644,-0.051316294672449865,0.019156313121873547,0.0,0.0,-0.6,0.0,0.0035965442657470703,0.004664421081542969,0.007077932357788086,Hardware
0.014219999313354492,-0.0662762001156807,-0.1094411239027977,-0.23993037641048431,-0.051083501658336215,-0.5046386269187128,0.07732725500681337,-0.08874963371869245,0.03256573230719741,0.0,0.0,-0.6,0.0,0.001550912857055664,0.004067897796630859,0.006227016448974609,Nonlinear
0.02229475975036621,-0.0662762001156807,-0.1094411239027977,-0.23993037641048431,-0.051083501658336215,-0.5113556494317675,0.09635299788377431,-0.11511950942140438,0.041952325736908956,0.0,0.0,-0.6,0.0,0.0009906291961669922,0.0018086433410644531,0.004259586334228516,1x Speed
0.03083205223083496,-0.06629085540771484,-0.10940638929605484,-0.23990969359874725,-0.05108694880350427,-0.5167547179529486,0.10741855228252868,-0.1329538956222263,0.0485242338171552,0.0,0.0,-0.6,0.0,0.0019905567169189453,0.003051280975341797,0.006333827972412109,0OrderHold
0.04042530059814453,-0.06630713492631912,-0.10936767607927322,-0.239888533949852,-0.051094623041640475,-0.5210845971078638,0.11326826449655494,-0.14528672363780135,0.053127447312627196,0.0,0.0,-0.6,0.0,0.0019042491912841797,0.002908468246459961,0.006056070327758789,QuatYawError
0.05093216896057129,-0.06631875783205032,-0.10934776067733765,-0.23987771570682526,-0.05105946765646811,-0.5245911699964265,0.11601741727011111,-0.15297359926136134,0.05633651349001137,0.0,0.0,-0.6,0.0,0.0015859603881835938,0.0029289722442626953,0.006075382232666016,NoPyJoules
0.06017184257507324,-0.06631875783205032,-0.10934776067733765,-0.23987771570682526,-0.05105946765646811,-0.527403868471791,0.11679843334225105,-0.15778453405224951,0.05858285981418126,0.0,0.0,-0.6,0.0,0.0018243789672851562,0.0029518604278564453,0.005930185317993164,0
0.07025337219238281,-0.06632491201162338,-0.10931563377380371,-0.2398918718099594,-0.05122159083448286,-0.5296168563959477,0.11704757041058504,-0.16099339994620318,0.06021609843285774,0.0,0.0,-0.6,0.0,0.0016679763793945312,0.003033161163330078,0.0061893463134765625,0
0.08071184158325195,-0.06633090227842331,-0.1093047633767128,-0.23990096151828766,-0.05120309586078438,-0.531353594287662,0.11617036921488089,-0.16270174372333093,0.06135242985079441,0.0,0.0,-0.6,0.0,0.001573801040649414,0.002636432647705078,0.006230592727661133,0
0.09034132957458496,-0.06634049862623215,-0.10929064452648163,-0.23993468284606934,-0.0512207817890293,-0.5327135621583864,0.11538422126928603,-0.16390754897142812,0.062154494066441274,0.0,0.0,-0.6,0.0,0.0018434524536132812,0.003058910369873047,0.0057795047760009766,0
0.10031580924987793,-0.0663493201136589,-0.10929803550243378,-0.23996560275554657,-0.050924179108867935,-0.5338197604920993,0.11412767478085015,-0.1640079290046311,0.06260471301233392,0.0,0.0,-0.6,0.0,0.0011835098266601562,0.0020072460174560547,0.004440784454345703,0
0.11246490478515625,-0.06635362654924393,-0.1093139797449112,-0.2400098592042923,-0.0505058955610543,-0.5346685343925207,0.11489244044045169,-0.1634074864860731,0.06276300994402909,0.0,0.0,-0.6,0.0,0.0012645721435546875,0.002649545669555664,0.005927085876464844,0
0.12055802345275879,-0.06635362654924393,-0.1093139797449112,-0.2400098592042923,-0.0505058955610543,-0.5353467893992153,0.11515836574557486,-0.1628564811685947,0.06287381779621572,0.0,0.0,-0.6,0.0,0.002493143081665039,0.003640413284301758,0.007022380828857422,0
0.13092613220214844,-0.06631268560886383,-0.10935628414154053,-0.24012495577335358,-0.049998048979708935,-0.5358100377016921,0.11383152824447952,-0.16014815997324902,0.06276094082474187,0.0,0.0,-0.6,0.0,0.0021500587463378906,0.0032835006713867188,0.0067386627197265625,0
0.1417701244354248,-0.06627785414457321,-0.1093813106417656,-0.24019452929496765,-0.050015719990810156,-0.5362397084636563,0.11038941430279815,-0.15841065005638813,0.06268855357387319,0.0,0.0,-0.6,0.0,0.0016176700592041016,0.00279998779296875,0.006211042404174805,0
0.15130829811096191,-0.06623079627752304,-0.1094195768237114,-0.24027885496616364,-0.05000689638014258,-0.5365208530691453,0.10814249950155165,-0.15671596373957244,0.06263457364426471,0.0,0.0,-0.6,0.0,0.002319812774658203,0.00807809829711914,0.011001110076904297,0
0.16420936584472656,-0.06623079627752304,-0.1094195768237114,-0.24027885496616364,-0.05000689638014258,-0.5367405209881881,0.1065213680488795,-0.15550967350900022,0.06259678769353863,0.0,0.0,-0.6,0.0,0.001974821090698242,0.004447460174560547,0.010470151901245117,0
0.18662738800048828,-0.06596647948026657,-0.10942830890417099,-0.24066999554634094,-0.04915605623689082,-0.5368181998008564,0.10717660032006916,-0.15146592655159669,0.06225127247431114,0.0,0.0,-0.6,0.0,0.0047588348388671875,0.007483959197998047,0.017177343368530273,0
0.20667147636413574,-0.06596647948026657,-0.10942830890417099,-0.24066999554634094,-0.04915605623689082,-0.5368763875184644,0.10759883735542784,-0.14868741052096052,0.0620094118208521,0.0,0.0,-0.6,0.0,0.003929853439331055,0.007560253143310547,0.013433456420898438,0
0.22850871086120605,-0.065284863114357,-0.10935616493225098,-0.24184931814670563,-0.04508100412544203,-0.5364020166025733,0.1000871656175258,-0.13247242151583552,0.060311964821637455,0.0,0.0,-0.6,0.0,0.0036895275115966797,0.006995677947998047,0.015391826629638672,0
0.24992132186889648,-0.065284863114357,-0.10935616493225098,-0.24184931814670563,-0.04508100412544203,-0.5359895108341521,0.0950715041579733,-0.12150450633841861,0.05912375192218817,0.0,0.0,-0.6,0.0,0.0031108856201171875,0.00607752799987793,0.014389753341674805,0
0.27082133293151855,-0.06445170193910599,-0.10914655029773712,-0.24427686631679535,-0.03916573415007913,-0.5352023102529211,0.08244134105188318,-0.09008739822246911,0.0560737766518118,0.0,0.0,-0.6,0.0,0.0027692317962646484,0.005911350250244141,0.014709949493408203,0
0.29140758514404297,-0.06393278390169144,-0.10907550156116486,-0.2470986396074295,-0.03364867525270988,-0.5340620956616247,0.06621284453281301,-0.0574456559570984,0.05186989687603502,0.0,0.0,-0.6,0.0,0.0036449432373046875,0.007608890533447266,0.014972209930419922,0
0.31009602546691895,-0.06393278390169144,-0.10907550156116486,-0.2470986396074295,-0.03364867525270988,-0.5330770134871097,0.0554147353511983,-0.03553555027576198,0.04892718103299111,0.0,0.0,-0.6,0.0,0.0037581920623779297,0.007173299789428711,0.01484060287475586,0
0.33382081985473633,-0.06313154846429825,-0.10880094766616821,-0.2522437572479248,-0.025243533236832913,-0.5315670140282623,0.03274196788403404,-0.011532203115801502,0.04371535168691133,0.0,0.0,-0.6,0.0,0.0036809444427490234,0.00732874870300293,0.015227556228637695,0
0.35273313522338867,-0.06313154846429825,-0.10880094766616821,-0.2522437572479248,-0.025243533236832913,-0.5302965441486217,0.017735025886427988,0.004355956904506932,0.04006707114465076,0.0,0.0,-0.6,0.0,0.0045812129974365234,0.0073490142822265625,0.015893936157226562,0
0.3731367588043213,-0.06219249963760376,-0.10852697491645813,-0.2592937648296356,-0.015411833849443972,-0.5284058671274082,-0.0026437398662693054,0.025997928981494323,0.03382638749480326,0.0,0.0,-0.6,0.0,0.004586696624755859,0.007883787155151367,0.015506505966186523,0
0.3920552730560303,-0.06219249963760376,-0.10852697491645813,-0.2592937648296356,-0.015411833849443972,-0.5268450260250528,-0.015958752602970937,0.04017149691294286,0.029457908939906248,0.0,0.0,-0.6,0.0,0.00412297248840332,0.007464170455932617,0.0159149169921875,0
0.41400647163391113,-0.06090981513261795,-0.1082329973578453,-0.2679502069950104,-0.004451328893432545,-0.5247760793467994,-0.031388601399713854,0.0683722646296266,0.022289784592975637,0.0,0.0,-0.6,0.0,0.002956867218017578,0.006543874740600586,0.014598369598388672,0
0.43261241912841797,-0.06090981513261795,-0.1082329973578453,-0.2679502069950104,-0.004451328893432545,-0.5230798193968667,-0.041391559128784595,0.08698167746070734,0.017272097550116463,0.0,0.0,-0.6,0.0,0.0037271976470947266,0.007228851318359375,0.015441417694091797,0
0.4545605182647705,-0.05939074605703354,-0.10765118151903152,-0.2780553102493286,0.007169963737368043,-0.520824165810982,-0.049693521482682225,0.11682242500745896,0.009401731883566135,0.0,0.0,-0.6,0.0,0.0035524368286132812,0.007442474365234375,0.015193462371826172,0
0.4726555347442627,-0.05939074605703354,-0.10765118151903152,-0.2780553102493286,0.007169963737368043,-0.5189942466034898,-0.05485992654091715,0.13664039727067878,0.003892475916980424,0.0,0.0,-0.6,0.0,0.014549970626831055,0.016974210739135742,0.022306203842163086,0
0.5000691413879395,-0.056838762015104294,-0.10660400986671448,-0.292257696390152,0.022632806168861173,-0.5167752244443349,-0.05589310773120881,0.1566783039808246,-0.0057625691714395496,0.0,0.0,-0.6,0.0,0.0034122467041015625,0.007339954376220703,0.016231536865234375,0
0.5210518836975098,-0.056838762015104294,-0.10660400986671448,-0.292257696390152,0.022632806168861173,-0.5149926536896928,-0.05612889415854581,0.1700303112525978,-0.012521100733329727,0.0,0.0,-0.6,0.0,0.004343271255493164,0.007739543914794922,0.016484737396240234,0
0.5450851917266846,-0.05489296093583107,-0.10585027933120728,-0.3017735183238983,0.03210862434763556,-0.5132227545842194,-0.06388514561650983,0.18400349570074423,-0.020805504643700234,0.0,0.0,-0.6,0.0,0.00415802001953125,0.007719516754150391,0.01588153839111328,0
0.5664606094360352,-0.0526433028280735,-0.10522154718637466,-0.3116743266582489,0.041441628709140116,-0.5112027299860026,-0.06986561109292981,0.19477219305648086,-0.03010446401652454,0.0,0.0,-0.6,0.0,0.0041370391845703125,0.007603645324707031,0.013662099838256836,0
0.5872395038604736,-0.05101132392883301,-0.10479635745286942,-0.31838372349739075,0.04769441104762118,-0.5093071268872871,-0.06870452421333166,0.20039447950477868,-0.038958528954420105,0.0,0.0,-0.6,0.0,0.0038950443267822266,0.0069468021392822266,0.015830039978027344,0
0.606997013092041,-0.04843908175826073,-0.10414502769708633,-0.32867687940597534,0.057181539925317965,-0.5075918712840162,-0.060944318693659426,0.20444421953197767,-0.04871404774008278,0.0,0.0,-0.6,0.0,0.0041925907135009766,0.0066945552825927734,0.013823747634887695,0
0.6269848346710205,-0.04843908175826073,-0.10414502769708633,-0.32867687940597534,0.057181539925317965,-0.5062155650351342,-0.055360906615493956,0.20732825798183285,-0.0555429108900572,0.0,0.0,-0.6,0.0,0.004348039627075195,0.0066335201263427734,0.014289140701293945,0
0.648735761642456,-0.045628659427165985,-0.1034073680639267,-0.3390701413154602,0.06662872646211611,-0.5047103922863936,-0.047612113132690606,0.21411151132959655,-0.06386581004632526,0.0,0.0,-0.6,0.0,0.0033550262451171875,0.0069119930267333984,0.015010833740234375,0
0.6706125736236572,-0.0436982586979866,-0.10294094681739807,-0.3460855484008789,0.0726990988003197,-0.5034118287636723,-0.04071079641023473,0.2128759766410667,-0.07196822908254649,0.0,0.0,-0.6,0.0,0.0029020309448242188,0.0070648193359375,0.016490459442138672,0
0.6922807693481445,-0.04068610072135925,-0.10232008993625641,-0.35644152760505676,0.0816978258185035,-0.5021635816966858,-0.03101613255934594,0.20209049407385135,-0.08101444503972016,0.0,0.0,-0.6,0.0,0.003460407257080078,0.007213115692138672,0.015436649322509766,0
0.7145233154296875,-0.04068610072135925,-0.10232008993625641,-0.35644152760505676,0.0816978258185035,-0.5011450638587256,-0.0241099685802296,0.19504324951965635,-0.08734679620974758,0.0,0.0,-0.6,0.0,0.003355264663696289,0.00700688362121582,0.013378381729125977,0
0.7336421012878418,-0.03639301657676697,-0.10160565376281738,-0.36997485160827637,0.09346928930763165,-0.5003069300300821,-0.02164108715364397,0.18476751093390947,-0.09619374083719168,0.0,0.0,-0.6,0.0,0.003403186798095703,0.007203817367553711,0.013357877731323242,0
0.7533376216888428,-0.03639301657676697,-0.10160565376281738,-0.36997485160827637,0.09346928930763165,-0.4996174513703575,-0.01973808383973305,0.1779829287632101,-0.10238660207640059,0.0,0.0,-0.6,0.0,0.0036323070526123047,0.006582975387573242,0.014957904815673828,0
0.7752673625946045,-0.03195004537701607,-0.10100303590297699,-0.38336366415023804,0.10459430428175855,-0.49887894577219405,-0.01081643209199094,0.1621704964145866,-0.11089348555914612,0.0,0.0,-0.6,0.0,0.006216287612915039,0.008561134338378906,0.01546335220336914,0
0.7919952869415283,-0.03195004537701607,-0.10100303590297699,-0.38336366415023804,0.10459430428175855,-0.4982628841372899,-0.004527774834516928,0.15164935046867312,-0.11684830399707645,0.0,0.0,-0.6,0.0,0.0020127296447753906,0.003528594970703125,0.008965015411376953,0
0.8048577308654785,-0.027430128306150436,-0.10042621940374374,-0.39643871784210205,0.11537511153780931,-0.49752701882275374,0.004450644050812984,0.1353751086567041,-0.1250594796246238,0.0,0.0,-0.6,0.0,0.002112865447998047,0.0043179988861083984,0.008821249008178711,0
0.8171837329864502,-0.027430128306150436,-0.10042621940374374,-0.39643871784210205,0.11537511153780931,-0.4969136366567787,0.010787950214162838,0.12455440275365058,-0.1308073025639094,0.0,0.0,-0.6,0.0,0.0013630390167236328,0.0025784969329833984,0.005650997161865234,0
0.8261897563934326,-0.026332015171647072,-0.10028589516878128,-0.39968666434288025,0.11795712989279486,-0.49651023947105277,0.012586860807132737,0.11450020640572016,-0.13579903550452965,0.0,0.0,-0.6,0.0,0.0026655197143554688,0.004578828811645508,0.00945734977722168,0
0.8391680717468262,-0.024102283641695976,-0.10003377497196198,-0.40598613023757935,0.12304682808373839,-0.4960046989093292,0.013417869010700073,0.10314327098891728,-0.14120188538456724,0.0,0.0,-0.6,0.0,0.0014264583587646484,0.004054546356201172,0.008266687393188477,0
0.8496592044830322,-0.024102283641695976,-0.10003377497196198,-0.40598613023757935,0.12304682808373839,-0.49558322159437096,0.014134968199151922,0.09555237156509515,-0.14498388030059517,0.0,0.0,-0.6,0.0,0.002106189727783203,0.003567218780517578,0.007523298263549805,0
0.8608720302581787,-0.02195402979850769,-0.09982909262180328,-0.4122835695743561,0.12810002592514466,-0.4951683319507142,0.016871976222850988,0.08247353220135588,-0.14952622593234133,0.0,0.0,-0.6,0.0,0.0018010139465332031,0.004090785980224609,0.007714033126831055,0
0.8719894886016846,-0.02195402979850769,-0.09982909262180328,-0.4122835695743561,0.12810002592514466,-0.49481992315717616,0.018865345180146056,0.07368795620701316,-0.152705867874565,0.0,0.0,-0.6,0.0,0.002179861068725586,0.004200458526611328,0.0075054168701171875,0
0.8834853172302246,-0.01983284205198288,-0.09967679530382156,-0.41851910948753357,0.13303706476417426,-0.49466068237422667,0.023739105522335806,0.056662693917543756,-0.15678300679875676,0.0,0.0,-0.6,0.0,0.0027618408203125,0.0043222904205322266,0.009120464324951172,0
0.8950920104980469,-0.01983284205198288,-0.09967679530382156,-0.41851910948753357,0.13303706476417426,-0.4945169273477441,0.027129484065253805,0.04511399912347047,-0.15963700404569223,0.0,0.0,-0.6,0.0,0.0018014907836914062,0.0030646324157714844,0.0067250728607177734,0
0.9046943187713623,-0.017716921865940094,-0.09952601790428162,-0.4246126413345337,0.1377681623081748,-0.4942013526689437,0.03176343667758288,0.035946878578397894,-0.16340896369754634,0.0,0.0,-0.6,0.0,0.0018382072448730469,0.0037860870361328125,0.007512092590332031,0
0.9159045219421387,-0.01670832745730877,-0.09944407641887665,-0.4276207387447357,0.1400749876940676,-0.49404290277626584,0.034791129711581825,0.02743626024903294,-0.1669143949735543,0.0,0.0,-0.6,0.0,0.0015914440155029297,0.002811908721923828,0.006302356719970703,0
0.9254038333892822,-0.014740061946213245,-0.09934327751398087,-0.43350350856781006,0.14468039477275776,-0.4938296896347558,0.035918739156909546,0.01603116147054083,-0.17109522452126796,0.0,0.0,-0.6,0.0,0.001371145248413086,0.0023865699768066406,0.0053670406341552734,0
0.9319465160369873,-0.014740061946213245,-0.09934327751398087,-0.43350350856781006,0.14468039477275776,-0.4936485795928611,0.03676829997745102,0.00832123608786325,-0.1740218052046688,0.0,0.0,-0.6,0.0,0.0011866092681884766,0.002007722854614258,0.0048258304595947266,0
0.9415981769561768,-0.013795241713523865,-0.09932414442300797,-0.4364111125469208,0.14694163178111125,-0.49369790362735055,0.032472098251897445,-0.0005213762293891592,-0.17691837556118198,0.0,0.0,-0.6,0.0,0.0011887550354003906,0.0021080970764160156,0.0055522918701171875,0
0.9515624046325684,-0.01283513754606247,-0.09927079826593399,-0.439222127199173,0.14914547760011432,-0.49355579865208876,0.028855731485457007,-0.007444299453839374,-0.1797724169928674,0.0,0.0,-0.6,0.0,0.002662181854248047,0.005139827728271484,0.010959863662719727,0
0.9643504619598389,-0.01283513754606247,-0.09927079826593399,-0.439222127199173,0.14914547760011432,-0.4934333613664833,0.026437750885475758,-0.012132954507896986,-0.18177024599504804,0.0,0.0,-0.6,0.0,0.002613544464111328,0.0038444995880126953,0.007915019989013672,0
0.9770393371582031,-0.010058518499135971,-0.09912930428981781,-0.4476228654384613,0.155536535650413,-0.4934540364521901,0.02539417382050154,-0.022938699867282992,-0.18556537306543472,0.0,0.0,-0.6,0.0,0.0015687942504882812,0.003475189208984375,0.00811457633972168,0
0.9865753650665283,-0.010058518499135971,-0.09912930428981781,-0.4476228654384613,0.155536535650413,-0.4934628805044705,0.02469434888428431,-0.0303119984847496,-0.18822196201470653,0.0,0.0,-0.6,0.0,0.002213716506958008,0.0033600330352783203,0.008261919021606445,0
0.9980528354644775,-0.008312144316732883,-0.09905850887298584,-0.4530329406261444,0.1595666499786816,-0.4934876048606621,0.027206849214165968,-0.04268215094279279,-0.19159286715229681,0.0,0.0,-0.6,0.0,0.002175569534301758,0.003360748291015625,0.007251262664794922,0
1.0070714950561523,-0.008312144316732883,-0.09905850887298584,-0.4530329406261444,0.1595666499786816,-0.4935028447558262,0.0289322133898802,-0.05111385322652865,-0.193952500748611,0.0,0.0,-0.6,0.0,0.002638578414916992,0.004217386245727539,0.007895469665527344,0
1.0192947387695312,-0.0066645038314163685,-0.09897825866937637,-0.45832204818725586,0.16351770407909655,-0.4933957635916856,0.02892883358281995,-0.05666740762698753,-0.19708588955368578,0.0,0.0,-0.6,0.0,0.0015692710876464844,0.0027265548706054688,0.00600433349609375,0
1.027696132659912,-0.0066645038314163685,-0.09897825866937637,-0.45832204818725586,0.16351770407909655,-0.49330733331289556,0.02896874477463653,-0.060428139622169565,-0.19927926171723906,0.0,0.0,-0.6,0.0,0.001603841781616211,0.0025763511657714844,0.0056858062744140625,0
1.0376214981079102,-0.005132724996656179,-0.09892157465219498,-0.4634723663330078,0.16729861460636974,-0.4933716663153289,0.022168368703618466,-0.065391742058573,-0.20223246367945302,0.0,0.0,-0.6,0.0,0.0024127960205078125,0.0042552947998046875,0.008112668991088867,0
1.047337532043457,-0.005132724996656179,-0.09892157465219498,-0.4634723663330078,0.16729861460636974,-0.49341568014252846,0.01751460911167458,-0.06879967988570718,-0.2042997050530037,0.0,0.0,-0.6,0.0,0.0016486644744873047,0.003991365432739258,0.007239580154418945,0
1.058835744857788,-0.003699911292642355,-0.09892381727695465,-0.46852850914001465,0.17091773547461772,-0.4934300870928787,0.009786481817902374,-0.0729021059791117,-0.20710394434008142,0.0,0.0,-0.6,0.0,0.0023016929626464844,0.0038721561431884766,0.008395671844482422,0
1.0693094730377197,-0.003699911292642355,-0.09892381727695465,-0.46852850914001465,0.17091773547461772,-0.49343388865378235,0.004516366460262514,-0.07571418504534654,-0.20906691184103668,0.0,0.0,-0.6,0.0,0.0015223026275634766,0.002974271774291992,0.007120609283447266,0
1.0805761814117432,-0.002358990255743265,-0.098959781229496,-0.4734589457511902,0.17434316139059944,-0.4932750075353386,0.002892564234721582,-0.07499735639561864,-0.2117255238101978,0.0,0.0,-0.6,0.0,0.0020513534545898438,0.00428462028503418,0.008135795593261719,0
1.0915148258209229,-0.002358990255743265,-0.098959781229496,-0.4734589457511902,0.17434316139059944,-0.4931454042169151,0.0018324901526856406,-0.0744848780613121,-0.2135865521886114,0.0,0.0,-0.6,0.0,0.0016129016876220703,0.0027167797088623047,0.00558018684387207,0
1.1008803844451904,-0.0011224268237128854,-0.09893346577882767,-0.4782106578350067,0.17749339568692782,-0.49318587285434057,-0.0008474159016938279,-0.07631987020679556,-0.2160706099146234,0.0,0.0,-0.6,0.0,0.0019953250885009766,0.003286123275756836,0.006421566009521484,0
1.1122238636016846,-0.0005355124594643712,-0.0989253893494606,-0.4805254340171814,0.17894682186564828,-0.49325198495841116,-0.0007401545500213613,-0.0799365431004291,-0.2183544851398522,0.0,0.0,-0.6,0.0,0.0014684200286865234,0.0023527145385742188,0.005088090896606445,0
1.1204094886779785,1.8608079699333757e-07,-0.098923459649086,-0.4827806055545807,0.18041502208819615,-0.49328544073568215,-0.0009223513179056086,-0.08480066501680993,-0.22050377288096795,0.0,0.0,-0.6,0.0,0.0013718605041503906,0.002359628677368164,0.005246639251708984,0
1.1303884983062744,0.0005438905209302902,-0.09890858083963394,-0.48500967025756836,0.18186003386178903,-0.49346589661230034,-0.004537916136338468,-0.08783331863309275,-0.2225501537148464,0.0,0.0,-0.6,0.0,0.001871347427368164,0.0035257339477539062,0.006357431411743164,0
1.1403906345367432,0.0010749379871413112,-0.09891396760940552,-0.4872658848762512,0.1832997814338096,-0.4934681463990871,-0.007651833481913558,-0.09094060245114417,-0.2245225256380691,0.0,0.0,-0.6,0.0,0.0017948150634765625,0.0031862258911132812,0.006334781646728516,0
1.1504123210906982,0.0015686466358602047,-0.098910391330719,-0.48946613073349,0.1846762084994613,-0.4937624916683171,-0.01301380479461583,-0.09304636077353008,-0.22641934613394446,0.0,0.0,-0.6,0.0,0.0014874935150146484,0.0032329559326171875,0.006285429000854492,0
1.1614351272583008,0.0020512486808001995,-0.09889807552099228,-0.4915336072444916,0.1859718882839412,-0.4940045172366555,-0.015103143213774765,-0.09205816422250257,-0.22823300040023725,0.0,0.0,-0.6,0.0,0.0014274120330810547,0.005322933197021484,0.008677244186401367,0
1.171968698501587,0.0020512486808001995,-0.09889807552099228,-0.4915336072444916,0.1859718882839412,-0.4941983005546603,-0.016603436137900635,-0.09140688370063445,-0.22950255838664277,0.0,0.0,-0.6,0.0,0.0014777183532714844,0.0029439926147460938,0.00624537467956543,0
1.1814348697662354,0.002911681542173028,-0.09889264404773712,-0.4956614375114441,0.18831311159532257,-0.49416895615061074,-0.017402418321875914,-0.08564285754737856,-0.23126920771889412,0.0,0.0,-0.6,0.0,0.0014412403106689453,0.0025501251220703125,0.006074190139770508,0
1.1912908554077148,0.003303076606243849,-0.09886391460895538,-0.4976782500743866,0.18942402574234526,-0.49423272199349166,-0.019131012549105403,-0.07993978962243838,-0.2329224550566037,0.0,0.0,-0.6,0.0,0.001756429672241211,0.0027360916137695312,0.006254911422729492,0
1.2022159099578857,0.003674436593428254,-0.09886003285646439,-0.49967333674430847,0.19049136236999117,-0.4941697905154404,-0.02066670692594759,-0.0771763134349908,-0.23447997942836774,0.0,0.0,-0.6,0.0,0.001203298568725586,0.002118349075317383,0.005177736282348633,0
1.2112207412719727,0.004000642336905003,-0.09884507209062576,-0.5016177296638489,0.19153314783671832,-0.4943054794636711,-0.02397786646995961,-0.07809420947323605,-0.2359609160386253,0.0,0.0,-0.6,0.0,0.0019872188568115234,0.003237009048461914,0.007833242416381836,0
1.226057529449463,0.004000642336905003,-0.09884507209062576,-0.5016177296638489,0.19153314783671832,-0.49441286811851537,-0.026276150848413015,-0.07873265589193734,-0.23699757166580604,0.0,0.0,-0.6,0.0,0.002107858657836914,0.0031337738037109375,0.013141393661499023,0
1.2377967834472656,0.004926843568682671,-0.09875622391700745,-0.5073460936546326,0.19461312268044134,-0.49443664404083076,-0.024607252494159258,-0.07917474564226913,-0.23887822117122787,0.0,0.0,-0.6,0.0,0.0011932849884033203,0.0022776126861572266,0.005402565002441406,0
1.2446784973144531,0.004926843568682671,-0.09875622391700745,-0.5073460936546326,0.19461312268044134,-0.4944569177598469,-0.023474982098356707,-0.07947428694052094,-0.24019467582502368,0.0,0.0,-0.6,0.0,0.0019953250885009766,0.0029799938201904297,0.005924701690673828,0
1.2527015209197998,0.004926843568682671,-0.09875622391700745,-0.5073460936546326,0.19461312268044134,-0.49447404020384356,-0.02270811218279144,-0.07967774331462865,-0.24111619408268117,0.0,0.0,-0.6,0.0,0.0012652873992919922,0.002163410186767578,0.004885196685791016,0
1.2607429027557373,0.005491781048476696,-0.0986141487956047,-0.5110564231872559,0.19656218272686263,-0.4945034481406678,-0.024152668171957308,-0.07563530509739193,-0.24249215438044894,0.0,0.0,-0.6,0.0,0.0016810894012451172,0.002964496612548828,0.006746768951416016,0
1.2716584205627441,0.005705040413886309,-0.09852493554353714,-0.5128567218780518,0.197449327501833,-0.494664648301002,-0.02562920544260819,-0.07079325258463806,-0.24378800587950034,0.0,0.0,-0.6,0.0,0.0014462471008300781,0.0025587081909179688,0.005354642868041992,0
1.281045913696289,0.005902867764234543,-0.09845210611820221,-0.5146515369415283,0.19830528281661325,-0.49461851207993335,-0.02497625987110813,-0.06354850643598678,-0.24501608517187898,0.0,0.0,-0.6,0.0,0.0017044544219970703,0.003177165985107422,0.006508350372314453,0
1.2923097610473633,0.006101686041802168,-0.09837813675403595,-0.5164552330970764,0.1991474686916806,-0.4945249003266594,-0.026749472088942107,-0.05649140263294033,-0.24619156037969434,0.0,0.0,-0.6,0.0,0.001739501953125,0.003756999969482422,0.0071332454681396484,0
1.3024871349334717,0.006101686041802168,-0.09837813675403595,-0.5164552330970764,0.1991474686916806,-0.4944463379905699,-0.027937923716420676,-0.05168177978594796,-0.24701439302516542,0.0,0.0,-0.6,0.0,0.0016331672668457031,0.002724170684814453,0.006367206573486328,0
1.3136754035949707,0.006465462036430836,-0.09817403554916382,-0.5198979377746582,0.20079437311810877,-0.4944935917641623,-0.0325034197593604,-0.04886068118273503,-0.2482079650369054,0.0,0.0,-0.6,0.0,0.0017848014831542969,0.0036101341247558594,0.007477998733520508,0
1.324254035949707,0.006465462036430836,-0.09817403554916382,-0.5198979377746582,0.20079437311810877,-0.4945283769978416,-0.035632036352161875,-0.04694180753336177,-0.24904346544512374,0.0,0.0,-0.6,0.0,0.001566171646118164,0.003114461898803711,0.006551504135131836,0
1.3341124057769775,0.006769127212464809,-0.09796901047229767,-0.5232834815979004,0.20239472782827356,-0.49462280375866274,-0.03285286913576262,-0.04400489461143943,-0.250228448747188,0.0,0.0,-0.6,0.0,0.001177072525024414,0.002891063690185547,0.006615877151489258,0
1.3438174724578857,0.006941572763025761,-0.09784788638353348,-0.5249506235122681,0.20312506721472742,-0.4945657003735805,-0.027760374490234205,-0.03789286209649578,-0.2513318143285533,0.0,0.0,-0.6,0.0,0.0017788410186767578,0.0037689208984375,0.007482767105102539,0
1.3545935153961182,0.007236634846776724,-0.09756592661142349,-0.5282049179077148,0.20444827763320564,-0.49485361141326867,-0.025397889717732238,-0.031263386432170706,-0.25260037414243813,0.0,0.0,-0.6,0.0,0.0024306774139404297,0.004351377487182617,0.008150815963745117,0
1.3657476902008057,0.007236634846776724,-0.09756592661142349,-0.5282049179077148,0.20444827763320564,-0.49508533548303035,-0.023866569497677764,-0.026733420299455295,-0.2534883660121579,0.0,0.0,-0.6,0.0,0.0023698806762695312,0.003920316696166992,0.007853269577026367,0
1.3774614334106445,0.007489216513931751,-0.09728726744651794,-0.531278133392334,0.2057223357053085,-0.4951673246832595,-0.025155975036863485,-0.019039732649464278,-0.2545877320980001,0.0,0.0,-0.6,0.0,0.0019614696502685547,0.0036051273345947266,0.00748753547668457,0
1.3872907161712646,0.007489216513931751,-0.09728726744651794,-0.531278133392334,0.2057223357053085,-0.4952308865122165,-0.026062100716928892,-0.013794224892252642,-0.2553572883581007,0.0,0.0,-0.6,0.0,0.0022306442260742188,0.003798961639404297,0.007529497146606445,0
1.3986878395080566,0.007731985300779343,-0.09697077423334122,-0.5343294739723206,0.20705321711303898,-0.4952868450032937,-0.026193422467098253,-0.004376360067063663,-0.25639505826805903,0.0,0.0,-0.6,0.0,0.0017380714416503906,0.003227710723876953,0.0069425106048583984,0
1.4082167148590088,0.007731985300779343,-0.09697077423334122,-0.5343294739723206,0.20705321711303898,-0.4953298969364075,-0.026303366925544386,0.002044229206690517,-0.2571214972050302,0.0,0.0,-0.6,0.0,0.001895904541015625,0.004187583923339844,0.007709026336669922,0
1.4204142093658447,0.007939749397337437,-0.09662234038114548,-0.5372119545936584,0.20820767731016027,-0.49558053041092864,-0.02414974944601199,0.006175937175242327,-0.25806292703484335,0.0,0.0,-0.6,0.0,0.0015761852264404297,0.003178834915161133,0.007292270660400391,0
1.430103063583374,0.007939749397337437,-0.09662234038114548,-0.5372119545936584,0.20820767731016027,-0.4957833830503737,-0.02274170604167347,0.008998438432163577,-0.2587219279156998,0.0,0.0,-0.6,0.0,0.0018417835235595703,0.0031616687774658203,0.0066568851470947266,0
1.439523458480835,0.008180366829037666,-0.09622014313936234,-0.540023922920227,0.20923780383889898,-0.4958431696757266,-0.016934500913647968,0.013592148596585467,-0.25956952598057614,0.0,0.0,-0.6,0.0,0.0019109249114990234,0.0035676956176757812,0.006886005401611328,0
1.449631929397583,0.008180366829037666,-0.09622014313936234,-0.540023922920227,0.20923780383889898,-0.49589349041670583,-0.012990994860161042,0.01672782292650316,-0.2601628446259898,0.0,0.0,-0.6,0.0,0.0015916824340820312,0.0029637813568115234,0.0073490142822265625,0
1.4602253437042236,0.008411894552409649,-0.09575966000556946,-0.5427010655403137,0.21035818636506629,-0.49609764862303496,-0.012139871736471597,0.02171706955236094,-0.26099831112509186,0.0,0.0,-0.6,0.0,0.0016553401947021484,0.004193544387817383,0.00943613052368164,0
1.4749836921691895,0.008411894552409649,-0.09575966000556946,-0.5427010655403137,0.21035818636506629,-0.4962625799474998,-0.011611812020739402,0.02512323199655676,-0.26158313767446356,0.0,0.0,-0.6,0.0,0.00402522087097168,0.006598234176635742,0.013265848159790039,0
1.4932465553283691,0.008736152201890945,-0.09503252059221268,-0.5465857982635498,0.21181015781322748,-0.4963311489103027,-0.01571341706971861,0.0316794012100357,-0.2625370055520706,0.0,0.0,-0.6,0.0,0.0027213096618652344,0.005628824234008789,0.012413263320922852,0
1.510925054550171,0.008736152201890945,-0.09503252059221268,-0.5465857982635498,0.21181015781322748,-0.4963839655399116,-0.018530265718406314,0.03614727501598334,-0.2632047130664091,0.0,0.0,-0.6,0.0,0.002586841583251953,0.005667448043823242,0.011914491653442383,0
1.5286364555358887,0.009144045412540436,-0.09400340914726257,-0.5513961315155029,0.21353156080368538,-0.49639329651950037,-0.013331839981971138,0.04171978525337861,-0.26431763444786727,0.0,0.0,-0.6,0.0,0.0025217533111572266,0.004809379577636719,0.011512279510498047,0
1.54453444480896,0.009144045412540436,-0.09400340914726257,-0.5513961315155029,0.21353156080368538,-0.4964031574954033,-0.009793194073670965,0.04552205484651366,-0.2650966794148883,0.0,0.0,-0.6,0.0,0.0028977394104003906,0.005434513092041016,0.012426376342773438,0
1.5610454082489014,0.009547439403831959,-0.09315773099660873,-0.5548175573348999,0.21473640960289128,-0.4966352613962569,-0.010017707331936868,0.045663985276352806,-0.26609382919149116,0.0,0.0,-0.6,0.0,0.0036993026733398438,0.0067632198333740234,0.013154983520507812,0
1.579195261001587,0.009547439403831959,-0.09315773099660873,-0.5548175573348999,0.21473640960289128,-0.49682242541695176,-0.010222625562690268,0.04576030794623956,-0.26679183403513707,0.0,0.0,-0.6,0.0,0.002569437026977539,0.00470423698425293,0.011376142501831055,0
1.596074104309082,0.009979591704905033,-0.09225272387266159,-0.5580913424491882,0.21566154386002812,-0.49695012230569735,-0.012138032996675763,0.05217281457514994,-0.26762736277210564,0.0,0.0,-0.6,0.0,0.002772092819213867,0.005197763442993164,0.012125730514526367,0
1.6148197650909424,0.010303040966391563,-0.09159602224826813,-0.5602719187736511,0.21610630731521766,-0.49694909618315897,-0.01204143884458858,0.053991095167837524,-0.2683790191836798,0.0,0.0,-0.6,0.0,0.003237009048461914,0.005692958831787109,0.012279272079467773,0
1.6316900253295898,0.010303040966391563,-0.09159602224826813,-0.5602719187736511,0.21610630731521766,-0.4969487225925934,-0.011976096542172012,0.055230730680287256,-0.26890517867178193,0.0,0.0,-0.6,0.0,0.002683401107788086,0.005190610885620117,0.011878252029418945,0
1.6470551490783691,0.011009352281689644,-0.0901111289858818,-0.5644609928131104,0.21675087493634526,-0.49718997499416306,-0.01676131702670267,0.049730860410357625,-0.2695152031713762,0.0,0.0,-0.6,0.0,0.0025773048400878906,0.005076408386230469,0.011415719985961914,0
1.6623713970184326,0.011009352281689644,-0.0901111289858818,-0.5644609928131104,0.21675087493634526,-0.4973801333442124,-0.020076393523869498,0.045966626453918705,-0.2699422203210924,0.0,0.0,-0.6,0.0,0.002742290496826172,0.005822658538818359,0.012052774429321289,0
1.6808443069458008,0.011620476841926575,-0.08889872580766678,-0.5674155354499817,0.21688783771618422,-0.49737377544625505,-0.020937630510641014,0.04871631081257578,-0.2702924933683334,0.0,0.0,-0.6,0.0,0.0024755001068115234,0.005616188049316406,0.013130426406860352,0
1.6978161334991455,0.011620476841926575,-0.08889872580766678,-0.5674155354499817,0.21688783771618422,-0.49736897250565926,-0.021523764039658604,0.05059068728753485,-0.2705376845014022,0.0,0.0,-0.6,0.0,0.003298044204711914,0.00613093376159668,0.013306856155395508,0
1.7157964706420898,0.012572994455695152,-0.08721091598272324,-0.5712652802467346,0.2167685905296882,-0.49735231090714405,-0.023165415798774895,0.045601131234309,-0.27066460059961267,0.0,0.0,-0.6,0.0,0.0033614635467529297,0.0059909820556640625,0.012343645095825195,0
1.733464002609253,0.012572994455695152,-0.08721091598272324,-0.5712652802467346,0.2167685905296882,-0.49733634703149066,-0.024281778965262145,0.04220146876394072,-0.27075344186836187,0.0,0.0,-0.6,0.0,0.0028171539306640625,0.005200862884521484,0.011214256286621094,0
1.7478790283203125,0.013389172032475471,-0.08594813197851181,-0.5740944147109985,0.21646892153475503,-0.49731750721038015,-0.021718096949741986,0.04499955931600906,-0.2707032548833865,0.0,0.0,-0.6,0.0,0.0026323795318603516,0.0048427581787109375,0.012167215347290039,0
1.7651867866516113,0.013389172032475471,-0.08594813197851181,-0.5740944147109985,0.21646892153475503,-0.4973038650472248,-0.019966451970215456,0.04690778819385177,-0.2706681239939037,0.0,0.0,-0.6,0.0,0.0035169124603271484,0.0061872005462646484,0.01284646987915039,0
1.7836830615997314,0.014165176078677177,-0.08467904478311539,-0.5766242146492004,0.2160045085156312,-0.49719834702968724,-0.021270965390245002,0.05050705779361654,-0.2704693774890945,0.0,0.0,-0.6,0.0,0.0028405189514160156,0.006035566329956055,0.013067245483398438,0
1.8014731407165527,0.014165176078677177,-0.08467904478311539,-0.5766242146492004,0.2160045085156312,-0.4971137109012739,-0.022139430321971933,0.052966931988728,-0.270330254935728,0.0,0.0,-0.6,0.0,0.004731655120849609,0.0074994564056396484,0.014272212982177734,0
1.8208205699920654,0.015231777913868427,-0.08294195681810379,-0.579810380935669,0.2152900028769804,-0.4972488632279205,-0.019309776546389924,0.05050464671197598,-0.2699649295338776,0.0,0.0,-0.6,0.0,0.0026290416717529297,0.005902290344238281,0.013319730758666992,0
1.839139461517334,0.015231777913868427,-0.08294195681810379,-0.579810380935669,0.2152900028769804,-0.4973578173241293,-0.017404107387103556,0.04881540334727301,-0.2697092017525822,0.0,0.0,-0.6,0.0,0.002319812774658203,0.004309177398681641,0.010452747344970703,0
1.854219675064087,0.016140025109052658,-0.08149855583906174,-0.5821471214294434,0.2146103039654817,-0.4975788964093435,-0.012546680560734564,0.05030007475878198,-0.26927530521385756,0.0,0.0,-0.6,0.0,0.0035588741302490234,0.0065577030181884766,0.013356685638427734,0
1.8718514442443848,0.016140025109052658,-0.08149855583906174,-0.5821471214294434,0.2146103039654817,-0.4977590620248461,-0.009269672672359858,0.05129659829004354,-0.26897157763675206,0.0,0.0,-0.6,0.0,0.0036416053771972656,0.006303548812866211,0.01345205307006836,0
1.8909153938293457,0.017348943278193474,-0.07951068133115768,-0.5850133895874023,0.2137218817598598,-0.4980416365070929,-0.010939774943946077,0.05184588732007668,-0.2684258100056744,0.0,0.0,-0.6,0.0,0.0027234554290771484,0.00560307502746582,0.013169527053833008,0
1.906468152999878,0.017348943278193474,-0.07951068133115768,-0.5850133895874023,0.2137218817598598,-0.4982690688254574,-0.012123334111660578,0.05219804705761296,-0.2680437726639199,0.0,0.0,-0.6,0.0,0.003615856170654297,0.0066072940826416016,0.014273405075073242,0
1.9260423183441162,0.01855197176337242,-0.07748981565237045,-0.5874520540237427,0.21277492274653936,-0.49841726749573234,-0.004125018552768372,0.051902211580120046,-0.2674212368946968,0.0,0.0,-0.6,0.0,0.002729654312133789,0.0059320926666259766,0.013103246688842773,0
1.942185640335083,0.01855197176337242,-0.07748981565237045,-0.5874520540237427,0.21277492274653936,-0.4985384477386935,0.0013079923950246024,0.051684429534425834,-0.26698546185624045,0.0,0.0,-0.6,0.0,0.002533435821533203,0.0040743350982666016,0.012674808502197266,0
1.960611343383789,0.019421791657805443,-0.07591888308525085,-0.5889357328414917,0.2118505752224647,-0.4988545254236071,-0.0003048233854207811,0.047861611641313986,-0.26633378900780225,0.0,0.0,-0.6,0.0,0.0028467178344726562,0.006374359130859375,0.017486095428466797,0
1.9827044010162354,0.019421791657805443,-0.07591888308525085,-0.5889357328414917,0.2118505752224647,-0.49910687815278565,-0.0014559558526815806,0.0452208401732014,-0.26587761801388,0.0,0.0,-0.6,0.0,0.005100250244140625,0.007931709289550781,0.015451192855834961,0
2.0048012733459473,0.02060733735561371,-0.07383130490779877,-0.5907008051872253,0.21057014822281492,-0.49930506238597205,0.001647858232876467,0.04068217044310033,-0.26507813819327236,0.0,0.0,-0.6,0.0,0.004146575927734375,0.00835108757019043,0.0162961483001709,0
2.0262105464935303,0.021424755454063416,-0.07224882394075394,-0.59174644947052,0.2094277659148833,-0.4995444118142206,0.0070574674628885534,0.03509115507362209,-0.26409010895337287,0.0,0.0,-0.6,0.0,0.003679513931274414,0.00776982307434082,0.016695499420166016,0
2.048424482345581,0.021424755454063416,-0.07224882394075394,-0.59174644947052,0.2094277659148833,-0.49973648456967,0.010705999414965648,0.0312461720090747,-0.26339848848544295,0.0,0.0,-0.6,0.0,0.0037801265716552734,0.007627248764038086,0.015692949295043945,0
2.0703821182250977,0.02247713692486286,-0.07014189660549164,-0.592899739742279,0.20752539258885733,-0.49996977365951034,0.006917414969004469,0.023508966390529934,-0.26220096416063277,0.0,0.0,-0.6,0.0,0.0038919448852539062,0.0073740482330322266,0.015424728393554688,0
2.0911741256713867,0.02247713692486286,-0.07014189660549164,-0.592899739742279,0.20752539258885733,-0.5001521407892271,0.004288616208063659,0.018204165507198694,-0.26136269713325366,0.0,0.0,-0.6,0.0,0.003790616989135742,0.007157325744628906,0.015213489532470703,0
2.112229347229004,0.02345234341919422,-0.06799013167619705,-0.5938211679458618,0.2054277202800579,-0.500468595878989,0.004870612825825444,0.007368280542501085,-0.25998928309830066,0.0,0.0,-0.6,0.0,0.004243135452270508,0.00793600082397461,0.014452457427978516,0
2.1329643726348877,0.02345234341919422,-0.06799013167619705,-0.5938211679458618,0.2054277202800579,-0.500718745495325,0.005205914096526893,-6.409718718821972e-05,-0.25902789327384645,0.0,0.0,-0.6,0.0,0.004723310470581055,0.0078046321868896484,0.014516592025756836,0
2.1539506912231445,0.024385469034314156,-0.06583042442798615,-0.5947423577308655,0.2031932919694856,-0.5007961222295635,8.01292471547992e-05,-0.007056260257549847,-0.2575170097802511,0.0,0.0,-0.6,0.0,0.004052877426147461,0.006693124771118164,0.014596223831176758,0
2.1748597621917725,0.02480294182896614,-0.06479935348033905,-0.595217764377594,0.2020203799278883,-0.501078904683559,-0.007702264832306289,-0.011527482647097496,-0.25601954931913534,0.0,0.0,-0.6,0.0,0.003899097442626953,0.006799221038818359,0.014418601989746094,0
2.194389581680298,0.025186141952872276,-0.06374789029359818,-0.5956472158432007,0.20082016334522965,-0.5012139531267518,-0.007944730315131647,-0.018564276333318263,-0.25452124577785734,0.0,0.0,-0.6,0.0,0.0032460689544677734,0.006442546844482422,0.01482248306274414,0
2.21740984916687,0.0255111176520586,-0.06271093338727951,-0.5959580540657043,0.1995690149873037,-0.501216388573588,-0.006804864566874644,-0.025084738879342174,-0.25300325266474055,0.0,0.0,-0.6,0.0,0.0025959014892578125,0.006738901138305664,0.015848398208618164,0
2.2380099296569824,0.026033718138933182,-0.06119433045387268,-0.5965468287467957,0.19787537061823024,-0.5012756537723941,-0.011214940899696064,-0.03249926375156194,-0.25130554084715645,0.0,0.0,-0.6,0.0,0.0021288394927978516,0.005609989166259766,0.013965606689453125,0
2.2569830417633057,0.026033718138933182,-0.06119433045387268,-0.5965468287467957,0.19787537061823024,-0.5013203821397141,-0.014238869410093365,-0.037554730278209894,-0.250117142574847,0.0,0.0,-0.6,0.0,0.003408670425415039,0.007020473480224609,0.015496253967285156,0
2.2780399322509766,0.0265980064868927,-0.05928029119968414,-0.5972381234169006,0.19570734592408862,-0.5013966614130111,-0.01328547029763555,-0.035732489951895666,-0.24847225452395058,0.0,0.0,-0.6,0.0,0.002208709716796875,0.006478309631347656,0.014703035354614258,0
2.298933982849121,0.0265980064868927,-0.05928029119968414,-0.5972381234169006,0.19570734592408862,-0.5014583135963174,-0.012644316378537884,-0.034495456861606495,-0.24732083288829979,0.0,0.0,-0.6,0.0,0.0033164024353027344,0.007038593292236328,0.014996528625488281,0
2.319399356842041,0.0270747821778059,-0.05734992399811745,-0.5977568030357361,0.19340423845167898,-0.5015290099791686,-0.012047252914399561,-0.03503982071900149,-0.24565117244119114,0.0,0.0,-0.6,0.0,0.004101276397705078,0.00717616081237793,0.014919757843017578,0
2.339787006378174,0.0270747821778059,-0.05734992399811745,-0.5977568030357361,0.19340423845167898,-0.5015861543281924,-0.011650429229707864,-0.03541469540835069,-0.2444824101282146,0.0,0.0,-0.6,0.0,0.0034151077270507812,0.0068509578704833984,0.01370549201965332,0
2.356990098953247,0.02742902562022209,-0.05549461022019386,-0.5982872843742371,0.19112696207033905,-0.5013826483168891,-0.011198566493732163,-0.030102240379562738,-0.242810297866129,0.0,0.0,-0.6,0.0,0.0037622451782226562,0.006933450698852539,0.014110803604125977,0
2.3756704330444336,0.02742902562022209,-0.05549461022019386,-0.5982872843742371,0.19112696207033905,-0.5012181271176275,-0.010859541393265042,-0.026478167233210878,-0.24163981928266862,0.0,0.0,-0.6,0.0,0.0033550262451171875,0.006338596343994141,0.014705657958984375,0
2.3942408561706543,0.027602460235357285,-0.0536956787109375,-0.5987415909767151,0.188773008438076,-0.5012100688898795,-0.00930778362878989,-0.026760246089525142,-0.23993775166214823,0.0,0.0,-0.6,0.0,0.003895282745361328,0.00747990608215332,0.015946149826049805,0
2.417755126953125,0.027602460235357285,-0.0536956787109375,-0.5987415909767151,0.188773008438076,-0.5012040369580701,-0.008249215779678578,-0.02695432219182659,-0.23874630432778346,0.0,0.0,-0.6,0.0,0.0030956268310546875,0.00632476806640625,0.014728069305419922,0
2.4374051094055176,0.02769344113767147,-0.0519636794924736,-0.5991294384002686,0.1863115139881139,-0.5014643643071246,-0.009342489179789481,-0.02303871924082681,-0.2369892307749929,0.0,0.0,-0.6,0.0,0.0022039413452148438,0.005284786224365234,0.01349782943725586,0
2.4570486545562744,0.02769344113767147,-0.0519636794924736,-0.5991294384002686,0.1863115139881139,-0.5016730858651899,-0.010119580497484224,-0.02036750934847223,-0.23575927928803897,0.0,0.0,-0.6,0.0,0.003247976303100586,0.007348060607910156,0.015527963638305664,0
2.4791324138641357,0.027614520862698555,-0.050321198999881744,-0.5993857979774475,0.1835294388095667,-0.5016859395879797,-0.013335319042850588,-0.015310327576996761,-0.2338550350552167,0.0,0.0,-0.6,0.0,0.002834320068359375,0.006680488586425781,0.013966560363769531,0
2.4984028339385986,0.027614520862698555,-0.050321198999881744,-0.5993857979774475,0.1835294388095667,-0.5016945085339022,-0.015524110477853806,-0.011860165847847019,-0.23252206409224052,0.0,0.0,-0.6,0.0,0.0020761489868164062,0.005802154541015625,0.014513492584228516,0
2.5208535194396973,0.02737756259739399,-0.04886043071746826,-0.5994763374328613,0.18070894162040754,-0.5016994656669228,-0.014205571541069871,-0.015561064129731461,-0.2305312979722232,0.0,0.0,-0.6,0.0,0.011200189590454102,0.014578819274902344,0.02189493179321289,0
2.547320604324341,0.02737756259739399,-0.04886043071746826,-0.5994763374328613,0.18070894162040754,-0.501703822326865,-0.013311756983234472,-0.018085794166380304,-0.22913776168821046,0.0,0.0,-0.6,0.0,0.0035338401794433594,0.006955623626708984,0.015413761138916016,0
2.5696499347686768,0.02704475075006485,-0.04704928398132324,-0.5992524027824402,0.17694252742741512,-0.5018841685261028,-0.015592296101548015,-0.011717349786567407,-0.2267498809670304,0.0,0.0,-0.6,0.0,0.004170656204223633,0.007900476455688477,0.014843463897705078,0
2.58900785446167,0.02704475075006485,-0.04704928398132324,-0.5992524027824402,0.17694252742741512,-0.5020278370758621,-0.017164668284222702,-0.0073733899429118,-0.2250783644622036,0.0,0.0,-0.6,0.0,0.0036933422088623047,0.008157014846801758,0.015685319900512695,0
2.61102557182312,0.026779459789395332,-0.04562722146511078,-0.5990421772003174,0.1738354666683807,-0.5020763605762417,-0.01743764707873487,-0.013245434742489154,-0.2227431551241876,0.0,0.0,-0.6,0.0,0.003764629364013672,0.007566213607788086,0.01394510269165039,0
2.632810115814209,0.026710720732808113,-0.044855471700429916,-0.5988559722900391,0.17232262811571863,-0.5022087711202909,-0.016234364433987663,-0.012161941590757785,-0.220541194130328,0.0,0.0,-0.6,0.0,0.0030350685119628906,0.006295919418334961,0.01439666748046875,0
2.653109073638916,0.026710720732808113,-0.044855471700429916,-0.5988559722900391,0.17232262811571863,-0.5023156504791245,-0.015430178743193258,-0.011426087050217136,-0.21899982143462562,0.0,0.0,-0.6,0.0,0.002998828887939453,0.005919218063354492,0.014868021011352539,0
2.6741933822631836,0.026551172137260437,-0.04341548681259155,-0.5986547470092773,0.16922680921361874,-0.5022957837381212,-0.018702360588657787,-0.009773016991637393,-0.2167599284593472,0.0,0.0,-0.6,0.0,0.0033457279205322266,0.0055522918701171875,0.013767719268798828,0
2.694415330886841,0.026477769017219543,-0.04263501614332199,-0.5984206795692444,0.16774391984500486,-0.5023469444013822,-0.018728040685553622,-0.009822427986330986,-0.21463591986342198,0.0,0.0,-0.6,0.0,0.0029838085174560547,0.005637645721435547,0.014140129089355469,0
2.716106653213501,0.02642141655087471,-0.04190252348780632,-0.5983244180679321,0.16629176208557317,-0.5025460733038906,-0.018268027576259227,-0.010596494957321987,-0.21260455468648734,0.0,0.0,-0.6,0.0,0.0021979808807373047,0.004391670227050781,0.012047052383422852,0
2.73205828666687,0.026439936831593513,-0.04113706573843956,-0.5982234477996826,0.16487690254092752,-0.5026640612739598,-0.015454077347189333,-0.009518668943875635,-0.2106520267333909,0.0,0.0,-0.6,0.0,0.002522706985473633,0.004785299301147461,0.010141134262084961,0
2.746023654937744,0.026363087818026543,-0.040351103991270065,-0.5980198383331299,0.16349302989160636,-0.5026229608693338,-0.012662952662108456,-0.0028614524561642735,-0.2087663049227279,0.0,0.0,-0.6,0.0,0.002490520477294922,0.004868268966674805,0.010303497314453125,0
2.7600646018981934,0.026363087818026543,-0.040351103991270065,-0.5980198383331299,0.16349302989160636,-0.5025895790230899,-0.010748558378748316,0.001672470331471474,-0.20744629965526323,0.0,0.0,-0.6,0.0,0.002423524856567383,0.00437474250793457,0.00964808464050293,0
2.772693395614624,0.026326794177293777,-0.039270661771297455,-0.5978449583053589,0.16140079068581756,-0.5027145519913774,-0.015392439053968409,0.0033421780196512736,-0.20573770626586754,0.0,0.0,-0.6,0.0,0.002574443817138672,0.004991769790649414,0.010335445404052734,0
2.7861530780792236,0.026326794177293777,-0.039270661771297455,-0.5978449583053589,0.16140079068581756,-0.5028138261659464,-0.018571269874042833,0.004484958161637375,-0.20454169089329005,0.0,0.0,-0.6,0.0,0.0024538040161132812,0.004667520523071289,0.010050535202026367,0
2.800957202911377,0.026250582188367844,-0.038610588759183884,-0.597601592540741,0.1601307211444872,-0.5029522210536935,-0.015830939280463942,0.004420699527712721,-0.20322820405448705,0.0,0.0,-0.6,0.0,0.002526998519897461,0.004806041717529297,0.010116100311279297,0
2.81418514251709,0.026250582188367844,-0.038610588759183884,-0.597601592540741,0.1601307211444872,-0.5030640224773908,-0.013975389035650586,0.004374709422126581,-0.20230876326732455,0.0,0.0,-0.6,0.0,0.002640962600708008,0.005038738250732422,0.010466575622558594,0
2.8293418884277344,0.026239780709147453,-0.037595756351947784,-0.5972999930381775,0.1582873474213751,-0.5032140360452717,-0.010443982412776465,0.005007002552652746,-0.20097388957014417,0.0,0.0,-0.6,0.0,0.002346515655517578,0.004558086395263672,0.009961366653442383,0
2.8421401977539062,0.026239780709147453,-0.037595756351947784,-0.5972999930381775,0.1582873474213751,-0.5033353562273634,-0.008050252440193924,0.005436734314171567,-0.20003947798211752,0.0,0.0,-0.6,0.0,0.002736806869506836,0.005069255828857422,0.010396242141723633,0
2.8561668395996094,0.026141144335269928,-0.03665604069828987,-0.5968066453933716,0.15637062754558645,-0.5033579849552041,-0.010967099409455602,0.0087884478938896,-0.19866661991707854,0.0,0.0,-0.6,0.0,0.0026082992553710938,0.0048940181732177734,0.010450363159179688,0
2.8700478076934814,0.026141144335269928,-0.03665604069828987,-0.5968066453933716,0.15637062754558645,-0.5033753076745296,-0.012955481686060276,0.01107555316711066,-0.19770561927155084,0.0,0.0,-0.6,0.0,0.0021085739135742188,0.00433349609375,0.009151935577392578,0
2.8826355934143066,0.025983348488807678,-0.03582349792122841,-0.5962496399879456,0.15458213483558458,-0.5035624873777518,-0.01187647525271382,0.008780858319255699,-0.19636223405343115,0.0,0.0,-0.6,0.0,0.002635955810546875,0.005019187927246094,0.010338544845581055,0
2.89723801612854,0.025983348488807678,-0.03582349792122841,-0.5962496399879456,0.15458213483558458,-0.5037132348996693,-0.011161604202816214,0.007214869038665593,-0.19542186440074696,0.0,0.0,-0.6,0.0,0.00220489501953125,0.004294157028198242,0.009768009185791016,0
2.9101545810699463,0.025863194838166237,-0.035347189754247665,-0.5958404541015625,0.15318288629560764,-0.5034970846873961,-0.00701982375320472,0.007910501614556961,-0.1942388874413769,0.0,0.0,-0.6,0.0,0.002145528793334961,0.004179716110229492,0.008828401565551758,0
2.922365665435791,0.025863194838166237,-0.035347189754247665,-0.5958404541015625,0.15318288629560764,-0.5033238295649768,-0.004173895890184633,0.008381198775662839,-0.19341080356981752,0.0,0.0,-0.6,0.0,0.0029745101928710938,0.005429744720458984,0.010664939880371094,0
2.937779426574707,0.02563348039984703,-0.03466759994626045,-0.5951880216598511,0.1510979416381702,-0.5034836312797416,-0.002949777482687906,0.008819007397489129,-0.19204929061318743,0.0,0.0,-0.6,0.0,0.002190828323364258,0.0044689178466796875,0.009879112243652344,0
2.950617790222168,0.02563348039984703,-0.03466759994626045,-0.5951880216598511,0.1510979416381702,-0.5036126164928394,-0.0021339408590778388,0.009115281939309657,-0.191096231543546,0.0,0.0,-0.6,0.0,0.0023789405822753906,0.004715442657470703,0.0100860595703125,0
2.964402675628662,0.025423862040042877,-0.03410996496677399,-0.594616711139679,0.14903677268151017,-0.5034807868099692,-0.006423828549040236,0.008631146548057618,-0.18965615183604995,0.0,0.0,-0.6,0.0,0.0024008750915527344,0.0042879581451416016,0.009532690048217773,0
2.9773595333099365,0.025423862040042877,-0.03410996496677399,-0.594616711139679,0.14903677268151017,-0.5033732012268329,-0.009332470732908186,0.008305965214230427,-0.18864809604080227,0.0,0.0,-0.6,0.0,0.002460002899169922,0.0048182010650634766,0.010322332382202148,0
2.9915456771850586,0.025253022089600563,-0.033750955015420914,-0.5941758751869202,0.14758216710218008,-0.5035334989833693,-0.00780733546832583,0.007064159248205377,-0.18739697989188037,0.0,0.0,-0.6,0.0,0.0024383068084716797,0.004828929901123047,0.010669708251953125,0
3.0063869953155518,0.02517678588628769,-0.03339371830224991,-0.5939548015594482,0.14610416613365532,-0.5034851063696502,-0.0028086004650805275,0.003790802508743196,-0.18596694822443843,0.0,0.0,-0.6,0.0,0.002271890640258789,0.004653453826904297,0.010424137115478516,0
3.0201001167297363,0.02517678588628769,-0.03339371830224991,-0.5939548015594482,0.14610416613365532,-0.5034469295490787,0.0006018815197105128,0.0015558484091809945,-0.18496592605722864,0.0,0.0,-0.6,0.0,0.0025849342346191406,0.0048067569732666016,0.010207176208496094,0
3.0340332984924316,0.025081058964133263,-0.03290126845240593,-0.5935114622116089,0.14393919921464607,-0.5034983186294849,-0.000726024694028697,-0.0010383966980923435,-0.18345334794555385,0.0,0.0,-0.6,0.0,0.0029790401458740234,0.005258798599243164,0.01097416877746582,0
3.048969268798828,0.025081058964133263,-0.03290126845240593,-0.5935114622116089,0.14393919921464607,-0.503539114872471,-0.0016401796248043147,-0.0028068213732014243,-0.18239454326738103,0.0,0.0,-0.6,0.0,0.002739429473876953,0.005024909973144531,0.010953664779663086,0
3.0639195442199707,0.025102410465478897,-0.032443687319755554,-0.5933513641357422,0.14182295499798592,-0.5034032015289772,-0.0017080274246216995,-0.0013141647348809318,-0.18085978841141298,0.0,0.0,-0.6,0.0,0.0025806427001953125,0.004900455474853516,0.010760307312011719,0
3.078028440475464,0.025102410465478897,-0.032443687319755554,-0.5933513641357422,0.14182295499798592,-0.5032937290520773,-0.001737477788554978,-0.000296386419553566,-0.1797854600122349,0.0,0.0,-0.6,0.0,0.0024809837341308594,0.004719257354736328,0.010336160659790039,0
3.0922467708587646,0.02511899545788765,-0.03206421807408333,-0.5930982232093811,0.1397294139073993,-0.5031404198563696,0.005402206805535492,-0.0004245684243860062,-0.1782483522238407,0.0,0.0,-0.6,0.0,0.0024797916412353516,0.0046994686126708984,0.010650396347045898,0
3.105835199356079,0.02511899545788765,-0.03206421807408333,-0.5930982232093811,0.1397294139073993,-0.5030183861428077,0.010284757520667666,-0.0005174490311457115,-0.1771723767719643,0.0,0.0,-0.6,0.0,0.0027189254760742188,0.004891157150268555,0.010615110397338867,0
3.1219184398651123,0.025210825726389885,-0.031800899654626846,-0.5930651426315308,0.1385137300058208,-0.5028736249195167,0.017001006288640125,0.00184061088185549,-0.175963312492559,0.0,0.0,-0.6,0.0,0.002556324005126953,0.0047376155853271484,0.010429620742797852,0
3.1351866722106934,0.025210825726389885,-0.031800899654626846,-0.5930651426315308,0.1385137300058208,-0.5027589455083284,0.021598787080765413,0.0034429942573154784,-0.17511696749697495,0.0,0.0,-0.6,0.0,0.0027701854705810547,0.004921674728393555,0.010835647583007812,0
3.149810314178467,0.025315409526228905,-0.03144019842147827,-0.5928979516029358,0.13661317552120444,-0.5026516540857843,0.01644739318160449,0.00626353351023665,-0.17381181806833543,0.0,0.0,-0.6,0.0,0.002472400665283203,0.004797935485839844,0.010449409484863281,0
3.164123058319092,0.025315409526228905,-0.03144019842147827,-0.5928979516029358,0.13661317552120444,-0.5025627924071709,0.01295315229891089,0.008190235059248818,-0.17289821346828738,0.0,0.0,-0.6,0.0,0.0023870468139648438,0.0045909881591796875,0.01057291030883789,0
3.178380250930786,0.025502709671854973,-0.031165193766355515,-0.5927959084510803,0.1348610690829863,-0.502590759503927,0.015831145992811824,0.011714456948617434,-0.17160165033392233,0.0,0.0,-0.6,0.0,0.002499818801879883,0.004952430725097656,0.010207414627075195,0
3.191286325454712,0.025502709671854973,-0.031165193766355515,-0.5927959084510803,0.1348610690829863,-0.5026143165750846,0.017792566457985867,0.014114278979046838,-0.1706940561398664,0.0,0.0,-0.6,0.0,0.0025415420532226562,0.004868268966674805,0.010512590408325195,0
3.206479787826538,0.02565506286919117,-0.03100508265197277,-0.5926689505577087,0.13326652591156796,-0.5024950698334985,0.021779415724829658,0.01580707214020298,-0.1694607865147457,0.0,0.0,-0.6,0.0,0.0024416446685791016,0.004777193069458008,0.010620594024658203,0
3.221027135848999,0.02565506286919117,-0.03100508265197277,-0.5926689505577087,0.13326652591156796,-0.5024006975389584,0.02451586366026226,0.01695919670604937,-0.16859749777716082,0.0,0.0,-0.6,0.0,0.0024852752685546875,0.004774332046508789,0.01051640510559082,0
3.2349557876586914,0.025786802172660828,-0.03100159950554371,-0.5924240946769714,0.1314803039093981,-0.5025531625931073,0.024414893070733638,0.018537969058122553,-0.16732336241003815,0.0,0.0,-0.6,0.0,0.0024139881134033203,0.0046880245208740234,0.010495662689208984,0
3.2492177486419678,0.025786802172660828,-0.03100159950554371,-0.5924240946769714,0.1314803039093981,-0.5026760026761331,0.02432349438006005,0.019612037310431405,-0.1664314676530519,0.0,0.0,-0.6,0.0,0.0023758411407470703,0.00459599494934082,0.010497808456420898,0
3.263444185256958,0.02594918943941593,-0.031144212931394577,-0.5923301577568054,0.1299765661856546,-0.5028540018264372,0.022179918718560617,0.023637406370435023,-0.165243239676758,0.0,0.0,-0.6,0.0,0.002495288848876953,0.0048677921295166016,0.010415077209472656,0
3.277621269226074,0.02594918943941593,-0.031144212931394577,-0.5923301577568054,0.1299765661856546,-0.5029964757733699,0.02069354758746039,0.026381482411049942,-0.16441148009335188,0.0,0.0,-0.6,0.0,0.0021996498107910156,0.004172325134277344,0.009712934494018555,0
3.290640115737915,0.02611497789621353,-0.03130410239100456,-0.5921177864074707,0.12817427417156005,-0.5029030717483232,0.028654754074135813,0.027869192450934267,-0.1631533888796826,0.0,0.0,-0.6,0.0,0.0023920536041259766,0.004763364791870117,0.01058816909790039,0
3.305131435394287,0.02611497789621353,-0.03130410239100456,-0.5921177864074707,0.12817427417156005,-0.5028310916102977,0.034097831279482974,0.02887982023712566,-0.1622727250301137,0.0,0.0,-0.6,0.0,0.0026144981384277344,0.0046536922454833984,0.010587215423583984,0
3.3201472759246826,0.026322683319449425,-0.03142833337187767,-0.5920675992965698,0.12708015629879948,-0.5028979238569466,0.035543522011665524,0.02662254351161225,-0.16124596613313041,0.0,0.0,-0.6,0.0,0.0026121139526367188,0.00485992431640625,0.01060938835144043,0
3.334747791290283,0.026322683319449425,-0.03142833337187767,-0.5920675992965698,0.12708015629879948,-0.5029520916501432,0.0365164071805265,0.025080294099935996,-0.16052723490524182,0.0,0.0,-0.6,0.0,0.002579212188720703,0.005056142807006836,0.011868953704833984,0
3.3501436710357666,0.026603829115629196,-0.03161493316292763,-0.5918318033218384,0.12529201523604508,-0.5028279574523004,0.03298503363922376,0.024538946615454263,-0.15935357014718735,0.0,0.0,-0.6,0.0,0.0025408267974853516,0.004915952682495117,0.010792016983032227,0
3.3646719455718994,0.02679840847849846,-0.03175601735711098,-0.591616690158844,0.12407279732581834,-0.5029241259788754,0.03203816285933325,0.02644338322290403,-0.1580747981002143,0.0,0.0,-0.6,0.0,0.0052013397216796875,0.00754547119140625,0.013581037521362305,0
3.3820159435272217,0.02679840847849846,-0.03175601735711098,-0.591616690158844,0.12407279732581834,-0.5030012894923666,0.031376022611128436,0.02773852215221809,-0.1571796576673328,0.0,0.0,-0.6,0.0,0.0024335384368896484,0.0044269561767578125,0.009815454483032227,0
