time,x,y,z,yaw,throttle,roll_rate,pitch_rate,yaw_rate,x_ref,y_ref,z_ref,yaw_ref,pred_time,nr_time,metadata
2.86102294921875e-06,-0.12835584580898285,-0.09883006662130356,-0.2414146214723587,-0.05142223074178555,-0.5482663106655042,0.04937555732551449,-0.047140060411966875,0.019283336528167022,0.0,0.0,-0.6,0.0,0.007803916931152344,0.011376142501831055,Hardware
0.017700910568237305,-0.12835584580898285,-0.09883006662130356,-0.2414146214723587,-0.05142223074178555,-0.5572014206839736,0.08255062382730989,-0.07895996917459092,0.03278167209789642,0.0,0.0,-0.6,0.0,0.0013794898986816406,0.002730846405029297,Nonlinear
0.025983810424804688,-0.1283378303050995,-0.09881781041622162,-0.24149510264396667,-0.05148280458619337,-0.5642856619904368,0.10407810878294721,-0.09994867427647813,0.042253222188344645,0.0,0.0,-0.6,0.0,0.0018465518951416016,0.0031201839447021484,1x Speed
0.036936283111572266,-0.1283378303050995,-0.09881781041622162,-0.24149510264396667,-0.05148280458619337,-0.5699230555635619,0.11760018224048131,-0.11283857572819057,0.048883307251662886,0.0,0.0,-0.6,0.0,0.001501321792602539,0.0032265186309814453,0OrderHold
0.047084808349609375,-0.12833933532238007,-0.09880378842353821,-0.24154974520206451,-0.0514561455072253,-0.5744217932224122,0.12548788789728588,-0.11984952394652339,0.05351436964137289,0.0,0.0,-0.6,0.0,0.001209259033203125,0.0021898746490478516,QuatYawError
0.057724952697753906,-0.12833383679389954,-0.09879501909017563,-0.24157215654850006,-0.051468598799209314,-0.5780088224616973,0.13007902841021415,-0.1234873535038374,0.0567607832986669,0.0,0.0,-0.6,0.0,0.0021076202392578125,0.0034122467041015625,NoPyJoules
0.06801486015319824,-0.12833383679389954,-0.09879501909017563,-0.24157215654850006,-0.051468598799209314,-0.5808583580618237,0.13238426240043089,-0.12491121093413593,0.05903327285877002,0.0,0.0,-0.6,0.0,0.0012693405151367188,0.0032842159271240234,0
0.08054375648498535,-0.12832902371883392,-0.0987853854894638,-0.24163952469825745,-0.051429221971226236,-0.5831139230795408,0.13323929344680166,-0.12568517274234509,0.06060924924034864,0.0,0.0,-0.6,0.0,0.001230001449584961,0.002265453338623047,0
0.09032368659973145,-0.1283305287361145,-0.09878626465797424,-0.2416772097349167,-0.05149570788664307,-0.5848776581291509,0.13352891449619342,-0.12524484804255187,0.06173736492573505,0.0,0.0,-0.6,0.0,0.002047300338745117,0.0031366348266601562,0
0.10061025619506836,-0.1283305287361145,-0.09878626465797424,-0.2416772097349167,-0.05149570788664307,-0.5862728739803524,0.13329284570953703,-0.12439218051539772,0.06252704590550626,0.0,0.0,-0.6,0.0,0.002132415771484375,0.00356292724609375,0
0.11151742935180664,-0.12832500040531158,-0.09878956526517868,-0.24178868532180786,-0.05156702321516051,-0.5873215436015587,0.13369193841366034,-0.12188849985644402,0.0631065658395395,0.0,0.0,-0.6,0.0,0.002040863037109375,0.0031397342681884766,0
0.12079310417175293,-0.12832500040531158,-0.09878956526517868,-0.24178868532180786,-0.05156702321516051,-0.5881476703512231,0.133708789262135,-0.11984100890852488,0.06351222979336243,0.0,0.0,-0.6,0.0,0.0016415119171142578,0.0035250186920166016,0
0.13149714469909668,-0.1282491832971573,-0.09881674498319626,-0.24190427362918854,-0.051041785455889006,-0.5887929788971901,0.1330770327504285,-0.1168645002226762,0.06359923040131207,0.0,0.0,-0.6,0.0,0.002109050750732422,0.003186941146850586,0
0.1419999599456787,-0.1282491832971573,-0.09881674498319626,-0.24190427362918854,-0.051041785455889006,-0.589297665159248,0.1324807155938062,-0.11461664070317787,0.06366013082687683,0.0,0.0,-0.6,0.0,0.0020933151245117188,0.0031554698944091797,0
0.1521141529083252,-0.12810580432415009,-0.09890767931938171,-0.24203209578990936,-0.05093742810312937,-0.5896841101822453,0.13352868194572542,-0.10972997259092394,0.0636636271174873,0.0,0.0,-0.6,0.0,0.002626657485961914,0.004431247711181641,0
0.16217470169067383,-0.12810580432415009,-0.09890767931938171,-0.24203209578990936,-0.05093742810312937,-0.5899833226872087,0.13415292971950865,-0.10624972747324103,0.06366607452091462,0.0,0.0,-0.6,0.0,0.002276182174682617,0.003604888916015625,0
0.1743149757385254,-0.12788259983062744,-0.09902466833591461,-0.24221336841583252,-0.051491865812592956,-0.590177876405117,0.1341830138858159,-0.10162496614297638,0.0638757018443631,0.0,0.0,-0.6,0.0,0.0019114017486572266,0.003223896026611328,0
0.1847391128540039,-0.12788259983062744,-0.09902466833591461,-0.24221336841583252,-0.051491865812592956,-0.5903244456348409,0.13415308001456777,-0.09838316198991653,0.06402244097077651,0.0,0.0,-0.6,0.0,0.0021677017211914062,0.004096269607543945,0
0.19552016258239746,-0.12749305367469788,-0.09917493164539337,-0.24260422587394714,-0.05064982034372917,-0.590208621651137,0.13617066780282855,-0.08758217997604097,0.06380939130844203,0.0,0.0,-0.6,0.0,0.0019495487213134766,0.00394892692565918,0
0.2066655158996582,-0.12749305367469788,-0.09917493164539337,-0.24260422587394714,-0.05064982034372917,-0.5901023040474976,0.13757481487488635,-0.08018352094107951,0.06366025654480749,0.0,0.0,-0.6,0.0,0.0036356449127197266,0.006415128707885742,0
0.22316598892211914,-0.12706884741783142,-0.09928455948829651,-0.24319812655448914,-0.0493139533406144,-0.5895980302412854,0.1383950728250893,-0.0662638263683764,0.06305491208409414,0.0,0.0,-0.6,0.0,0.0020186901092529297,0.004618644714355469,0
0.23787498474121094,-0.12706884741783142,-0.09928455948829651,-0.24319812655448914,-0.0493139533406144,-0.5891786413931674,0.13906631651029797,-0.05683396540249624,0.06263117096159636,0.0,0.0,-0.6,0.0,0.003001689910888672,0.0053098201751708984,0
0.2541372776031494,-0.1263033002614975,-0.09933154284954071,-0.2445012480020523,-0.04649889617819192,-0.5885380586471165,0.13235162072880105,-0.04228657579425382,0.0612789057399396,0.0,0.0,-0.6,0.0,0.002376556396484375,0.004717111587524414,0
0.26611900329589844,-0.1263033002614975,-0.09933154284954071,-0.2445012480020523,-0.04649889617819192,-0.5879980914107829,0.127880680623004,-0.03247467209655508,0.06033232008477981,0.0,0.0,-0.6,0.0,0.0016911029815673828,0.0031807422637939453,0
0.27788543701171875,-0.12553270161151886,-0.09937530010938644,-0.24653322994709015,-0.04270255455963892,-0.5871091398483654,0.12179437393202608,-0.01794357348854303,0.058246082019210735,0.0,0.0,-0.6,0.0,0.0015666484832763672,0.002950429916381836,0
0.2883639335632324,-0.12553270161151886,-0.09937530010938644,-0.24653322994709015,-0.04270255455963892,-0.5863738354713502,0.11782702027896044,-0.008242612049900629,0.056785715373313575,0.0,0.0,-0.6,0.0,0.003393888473510742,0.0049381256103515625,0
0.30029773712158203,-0.12492253631353378,-0.09940147399902344,-0.24859392642974854,-0.03980015740637126,-0.5852852924794268,0.10945240301929507,0.007283160151982958,0.054675059788707174,0.0,0.0,-0.6,0.0,0.006589174270629883,0.008939504623413086,0
0.3175384998321533,-0.12442945688962936,-0.09945932775735855,-0.25079408288002014,-0.036489837031739254,-0.5840130992794418,0.1029329706111414,0.027338117925579584,0.0519562307389976,0.0,0.0,-0.6,0.0,0.002759695053100586,0.004991769790649414,0
0.33197975158691406,-0.12377022206783295,-0.09945526719093323,-0.25384628772735596,-0.03251269933148302,-0.582447599354163,0.09192764312253901,0.04946671908691472,0.048561623766601954,0.0,0.0,-0.6,0.0,0.002406597137451172,0.004185676574707031,0
0.34460902214050293,-0.12377022206783295,-0.09945526719093323,-0.25384628772735596,-0.03251269933148302,-0.5811590262215655,0.08479833892407392,0.06411475190383822,0.04618539888592575,0.0,0.0,-0.6,0.0,0.0023293495178222656,0.004404544830322266,0
0.35876011848449707,-0.12306320667266846,-0.09948643296957016,-0.25740939378738403,-0.02781470013622578,-0.5796304686968774,0.07313014504585383,0.0820848699789381,0.042760291771236116,0.0,0.0,-0.6,0.0,0.002454996109008789,0.00475001335144043,0
0.3731379508972168,-0.12229006737470627,-0.09955272078514099,-0.2614001929759979,-0.022948007527848507,-0.5779317220175906,0.057101310176891386,0.10260515475578852,0.03853770706280903,0.0,0.0,-0.6,0.0,0.0025310516357421875,0.004677772521972656,0
0.3852396011352539,-0.12229006737470627,-0.09955272078514099,-0.2614001929759979,-0.022948007527848507,-0.5765394286316383,0.046582302391132036,0.11611809560290692,0.03558189776690734,0.0,0.0,-0.6,0.0,0.0021588802337646484,0.004247903823852539,0
0.39794373512268066,-0.12145502865314484,-0.09960660338401794,-0.2657102644443512,-0.017547529061321645,-0.5750118331774217,0.033238464053551166,0.13332628814429281,0.031487651834825964,0.0,0.0,-0.6,0.0,0.0024547576904296875,0.004653215408325195,0
0.40929365158081055,-0.12145502865314484,-0.09960660338401794,-0.2657102644443512,-0.017547529061321645,-0.573770125656872,0.024507521338056674,0.14466365756063088,0.028621679682375417,0.0,0.0,-0.6,0.0,0.002239704132080078,0.004526853561401367,0
0.42217373847961426,-0.12004467844963074,-0.09962581098079681,-0.2726677656173706,-0.009162654589843906,-0.5722689339897048,0.013108117769838092,0.16068268579652467,0.023471171248857173,0.0,0.0,-0.6,0.0,0.0023169517517089844,0.00444340705871582,0
0.43332862854003906,-0.12004467844963074,-0.09962581098079681,-0.2726677656173706,-0.009162654589843906,-0.5710560858459883,0.005696532922289015,0.17122687309026222,0.019865815345390402,0.0,0.0,-0.6,0.0,0.0023801326751708984,0.003863811492919922,0
0.44492340087890625,-0.11897427588701248,-0.09963110834360123,-0.27764323353767395,-0.0035577036116770243,-0.5697777876804638,-0.0016934916314903818,0.18330064662644574,0.015240209596150772,0.0,0.0,-0.6,0.0,0.002171039581298828,0.0038597583770751953,0
0.4561300277709961,-0.11897427588701248,-0.09963110834360123,-0.27764323353767395,-0.0035577036116770243,-0.5687531805805425,-0.006424303388096345,0.19125262896859252,0.012002285571683449,0.0,0.0,-0.6,0.0,0.002180337905883789,0.003725290298461914,0
0.46880102157592773,-0.11780191212892532,-0.09959477186203003,-0.2829211950302124,0.0022640766443295904,-0.5675684641601749,-0.012084014759904095,0.20098375866688964,0.007552571158554443,0.0,0.0,-0.6,0.0,0.0020542144775390625,0.00337982177734375,0
0.48043298721313477,-0.11780191212892532,-0.09959477186203003,-0.2829211950302124,0.0022640766443295904,-0.5666227714197739,-0.01565809093237776,0.2073847185582031,0.004437771069364251,0.0,0.0,-0.6,0.0,0.0018718242645263672,0.0037250518798828125,0
0.49359822273254395,-0.11559540033340454,-0.09944964200258255,-0.29200565814971924,0.012458432099262775,-0.5653160260364186,-0.022498668829869898,0.22116067805187797,-0.0015654722886677686,0.0,0.0,-0.6,0.0,0.0024547576904296875,0.004602670669555664,0
0.5061454772949219,-0.11559540033340454,-0.09944964200258255,-0.29200565814971924,0.012458432099262775,-0.5642737703365095,-0.026873445767123166,0.2303197984273987,-0.005767742639291333,0.0,0.0,-0.6,0.0,0.0023403167724609375,0.0041768550872802734,0
0.5197577476501465,-0.11404556781053543,-0.09935607016086578,-0.2978000342845917,0.017939424262662484,-0.5630904236955732,-0.029530688087679915,0.24156839219022166,-0.010764703946001701,0.0,0.0,-0.6,0.0,0.002106904983520508,0.0035643577575683594,0
0.531796932220459,-0.11404556781053543,-0.09935607016086578,-0.2978000342845917,0.017939424262662484,-0.56215262780845,-0.031075277372740198,0.24907841795014063,-0.014262576860700676,0.0,0.0,-0.6,0.0,0.0020799636840820312,0.0040972232818603516,0
0.5443706512451172,-0.11205123364925385,-0.09927595406770706,-0.3045574426651001,0.025393955555100683,-0.5611330784085106,-0.029367079764626,0.2545671432708228,-0.019506537135654808,0.0,0.0,-0.6,0.0,0.002500295639038086,0.0043642520904541016,0
0.5577211380004883,-0.11205123364925385,-0.09927595406770706,-0.3045574426651001,0.025393955555100683,-0.5603275309211574,-0.02796980611741397,0.2582037538101095,-0.023177309328119837,0.0,0.0,-0.6,0.0,0.002314329147338867,0.00395655632019043,0
0.5710115432739258,-0.10930732637643814,-0.09930162131786346,-0.3130778968334198,0.033935129805691716,-0.5593160059863082,-0.025653573934948763,0.26533774697625595,-0.028949790206817514,0.0,0.0,-0.6,0.0,0.0017809867858886719,0.0035409927368164062,0
0.5815677642822266,-0.10930732637643814,-0.09930162131786346,-0.3130778968334198,0.033935129805691716,-0.5585184873486405,-0.023856796303545615,0.27012389967753225,-0.03299052682190962,0.0,0.0,-0.6,0.0,0.0023415088653564453,0.0038597583770751953,0
0.5943405628204346,-0.10613812506198883,-0.09920123219490051,-0.3226151764392853,0.04204649280295997,-0.5575081444331861,-0.02603854181331377,0.2739625753568219,-0.0388608035764434,0.0,0.0,-0.6,0.0,0.0019159317016601562,0.0034208297729492188,0
0.6042804718017578,-0.10613812506198883,-0.09920123219490051,-0.3226151764392853,0.04204649280295997,-0.5567069965448682,-0.027316017729881893,0.2765160910609955,-0.042969997304618035,0.0,0.0,-0.6,0.0,0.0025539398193359375,0.003980875015258789,0
0.615868091583252,-0.1042274609208107,-0.09913008660078049,-0.3282328248023987,0.04790678734334687,-0.5559090229780633,-0.024308709667764772,0.2780265530149648,-0.048044043366982626,0.0,0.0,-0.6,0.0,0.0018079280853271484,0.0033898353576660156,0
0.6257624626159668,-0.1042274609208107,-0.09913008660078049,-0.3282328248023987,0.04790678734334687,-0.5552776742358676,-0.02209062956703777,0.2790393240295807,-0.05159587561063936,0.0,0.0,-0.6,0.0,0.002442598342895508,0.00484919548034668,0
0.6401774883270264,-0.1009792611002922,-0.09911312907934189,-0.3370751738548279,0.056600693042883364,-0.5546158939757929,-0.01211575279410317,0.2804550034917097,-0.057342372818533036,0.0,0.0,-0.6,0.0,0.0024323463439941406,0.0044515132904052734,0
0.6519675254821777,-0.1009792611002922,-0.09911312907934189,-0.3370751738548279,0.056600693042883364,-0.5540953969903828,-0.005168678407266184,0.28145911081366654,-0.06136492086405036,0.0,0.0,-0.6,0.0,0.002405405044555664,0.004540681838989258,0
0.6665825843811035,-0.09858261048793793,-0.09907929599285126,-0.3434502184391022,0.06194306743332567,-0.5535534366145082,0.0005629734612038273,0.27871237021190304,-0.06618409489233174,0.0,0.0,-0.6,0.0,0.0023040771484375,0.0041446685791015625,0
0.6776716709136963,-0.09858261048793793,-0.09907929599285126,-0.3434502184391022,0.06194306743332567,-0.5531222063692619,0.004602972290940333,0.27686524581402017,-0.0695575167121289,0.0,0.0,-0.6,0.0,0.0015132427215576172,0.0030095577239990234,0
0.6884627342224121,-0.09522002190351486,-0.09902390092611313,-0.35214540362358093,0.07053373168191085,-0.5527068890517312,0.012374836880299616,0.26778087319944516,-0.07514041107922059,0.0,0.0,-0.6,0.0,0.0017268657684326172,0.00370025634765625,0
0.7006223201751709,-0.09522002190351486,-0.09902390092611313,-0.35214540362358093,0.07053373168191085,-0.5523679012624302,0.017796314068460606,0.26162208735175474,-0.07904843713617046,0.0,0.0,-0.6,0.0,0.00182342529296875,0.003638029098510742,0
0.7122406959533691,-0.09240561723709106,-0.0989270880818367,-0.35917818546295166,0.07774375826703946,-0.5519774321932344,0.02446037175783601,0.24826589777597813,-0.08448781534545367,0.0,0.0,-0.6,0.0,0.0021543502807617188,0.003912687301635742,0
0.7245912551879883,-0.09240561723709106,-0.0989270880818367,-0.35917818546295166,0.07774375826703946,-0.5516511542602214,0.029129647841357697,0.2391896830687567,-0.08829538009196017,0.0,0.0,-0.6,0.0,0.0023272037506103516,0.003654003143310547,0
0.7365829944610596,-0.08988797664642334,-0.09892886877059937,-0.3653285503387451,0.08322088407514759,-0.5513116557930839,0.037630874838891076,0.2291234118369457,-0.09301459759255593,0.0,0.0,-0.6,0.0,0.002079010009765625,0.004228830337524414,0
0.748936653137207,-0.08735440671443939,-0.09894680231809616,-0.37142738699913025,0.089568024883455,-0.5510184150177783,0.04892478146168125,0.2114838543595115,-0.09869822764608895,0.0,0.0,-0.6,0.0,0.0018520355224609375,0.0037183761596679688,0
0.7586185932159424,-0.08735440671443939,-0.09894680231809616,-0.37142738699913025,0.089568024883455,-0.5507657797667337,0.05675431866416094,0.19949604291147247,-0.1026767686835608,0.0,0.0,-0.6,0.0,0.001917123794555664,0.0042874813079833984,0
0.772876501083374,-0.08480663597583771,-0.09898039698600769,-0.3774629831314087,0.09543745818202003,-0.5504607222028772,0.06906215861070061,0.1826195805105285,-0.10766278489674508,0.0,0.0,-0.6,0.0,0.002442598342895508,0.0044574737548828125,0
0.7853634357452393,-0.08480663597583771,-0.09898039698600769,-0.3774629831314087,0.09543745818202003,-0.5502042513258076,0.07758583692758698,0.17115303890374406,-0.11115299624598163,0.0,0.0,-0.6,0.0,0.002582073211669922,0.004763603210449219,0
0.7984895706176758,-0.08099062740802765,-0.09903116524219513,-0.3864500820636749,0.10472593110318194,-0.5497873603128897,0.0894029677049668,0.15562333900445255,-0.11707932153588473,0.0,0.0,-0.6,0.0,0.0030994415283203125,0.005316734313964844,0
0.8101840019226074,-0.08099062740802765,-0.09903116524219513,-0.3864500820636749,0.10472593110318194,-0.5494455250549566,0.09762507592343804,0.14511006584379296,-0.12122774923882278,0.0,0.0,-0.6,0.0,0.002615213394165039,0.005024909973144531,0
0.823927640914917,-0.0784919336438179,-0.09914813935756683,-0.3924283981323242,0.11065055761127628,-0.5491511326666406,0.10460545716951847,0.12879150798104833,-0.1263533835713994,0.0,0.0,-0.6,0.0,0.0023794174194335938,0.004119157791137695,0
0.8360748291015625,-0.0784919336438179,-0.09914813935756683,-0.3924283981323242,0.11065055761127628,-0.5489043934833285,0.10949174783396767,0.11769830695277941,-0.1299413276042046,0.0,0.0,-0.6,0.0,0.0021309852600097656,0.0034732818603515625,0
0.8486936092376709,-0.07476850599050522,-0.09935559332370758,-0.40137508511543274,0.12012712341821344,-0.5485717211387942,0.11773560367717435,0.09225927332610488,-0.13600660060476719,0.0,0.0,-0.6,0.0,0.002327442169189453,0.00462031364440918,0
0.86045241355896,-0.07476850599050522,-0.09935559332370758,-0.40137508511543274,0.12012712341821344,-0.5482837631540476,0.12353046016396792,0.07495109981199036,-0.14025229170516282,0.0,0.0,-0.6,0.0,0.002554655075073242,0.004685163497924805,0
0.8741538524627686,-0.0723695456981659,-0.09952771663665771,-0.40722572803497314,0.1254828128200092,-0.5479754038298811,0.12456704848468886,0.05659473491241937,-0.14523265900111243,0.0,0.0,-0.6,0.0,0.0027251243591308594,0.004863739013671875,0
0.8872346878051758,-0.0723695456981659,-0.09952771663665771,-0.40722572803497314,0.1254828128200092,-0.5477141015601247,0.12540185277708157,0.044092387906995316,-0.14871891610827867,0.0,0.0,-0.6,0.0,0.0024840831756591797,0.004864931106567383,0
0.9000608921051025,-0.06893138587474823,-0.09987486898899078,-0.4158548414707184,0.1333284001597766,-0.5473748362035501,0.12261225678574281,0.026914892030458475,-0.1541013913357059,0.0,0.0,-0.6,0.0,0.0019195079803466797,0.003813028335571289,0
0.9117910861968994,-0.06893138587474823,-0.09987486898899078,-0.4158548414707184,0.1333284001597766,-0.5470872904299854,0.12084453592926353,0.015211739951308747,-0.1578691239949066,0.0,0.0,-0.6,0.0,0.0024864673614501953,0.003849029541015625,0
0.9251601696014404,-0.06671346724033356,-0.10017377138137817,-0.42155763506889343,0.1381128223496594,-0.5468297958517796,0.1234254488181015,0.0018213002732415298,-0.16230069517755247,0.0,0.0,-0.6,0.0,0.0016570091247558594,0.003083944320678711,0
0.9360823631286621,-0.06671346724033356,-0.10017377138137817,-0.42155763506889343,0.1381128223496594,-0.5466210355692879,0.12529808916859664,-0.00729625062301931,-0.16540279500540592,0.0,0.0,-0.6,0.0,0.002227783203125,0.0035638809204101562,0
0.9491949081420898,-0.06433966010808945,-0.10055822134017944,-0.42778337001800537,0.14381109583132498,-0.5464694273629515,0.12097435245822889,-0.01658277769761548,-0.1697111174405267,0.0,0.0,-0.6,0.0,0.002408266067504883,0.003982067108154297,0
0.9603238105773926,-0.062356140464544296,-0.10095492750406265,-0.43322381377220154,0.14804002397922,-0.5462548778709136,0.11960944076984581,-0.025858800276042013,-0.17431279120057158,0.0,0.0,-0.6,0.0,0.011175870895385742,0.012685537338256836,0
1.359825849533081,-0.062356140464544296,-0.10095492750406265,-0.43322381377220154,0.14804002397922,-0.5460790978227515,0.11876629011879311,-0.03218182066083253,-0.1775339628326044,0.0,0.0,-0.6,0.0,0.0011796951293945312,0.0020074844360351562,0
1.3711423873901367,-0.05466829240322113,-0.10736380517482758,-0.5270026326179504,0.21628857986128003,-0.5456621899958907,0.02616600675552136,-0.09679393364663477,-0.20538199143077523,0.0,0.0,-0.6,0.0,0.0017576217651367188,0.0027778148651123047,0
1.3798158168792725,-0.05575908347964287,-0.10716597735881805,-0.5304596424102783,0.2187637238022499,-0.544984939087127,-0.039808692110809146,-0.1424136650352012,-0.22580379042736595,0.0,0.0,-0.6,0.0,0.0016617774963378906,0.0026531219482421875,0
1.3906548023223877,-0.056386798620224,-0.10699280351400375,-0.5324367880821228,0.22012983653790022,-0.5443041073102054,-0.08851118816911041,-0.17233776648262522,-0.24061134200085393,0.0,0.0,-0.6,0.0,0.0015206336975097656,0.0025472640991210938,0
1.4002180099487305,-0.056386798620224,-0.10699280351400375,-0.5324367880821228,0.22012983653790022,-0.5437057354949355,-0.12123921815892302,-0.19332521042282258,-0.2509766281023,0.0,0.0,-0.6,0.0,0.0021898746490478516,0.0034804344177246094,0
1.4100370407104492,-0.05778304487466812,-0.10653282701969147,-0.5362973213195801,0.222411020181208,-0.5432222518251909,-0.15196111601895673,-0.2090007069921591,-0.2590877722394423,0.0,0.0,-0.6,0.0,0.0020432472229003906,0.003548145294189453,0
1.4203197956085205,-0.05853580683469772,-0.1062372624874115,-0.5382080078125,0.22358157294178535,-0.5427757380985462,-0.17634239475262317,-0.2218658537546194,-0.2652045304206881,0.0,0.0,-0.6,0.0,0.0020530223846435547,0.003561735153198242,0
1.4298772811889648,-0.05853580683469772,-0.1062372624874115,-0.5382080078125,0.22358157294178535,-0.5424289617983521,-0.19281602236881953,-0.23090906235774428,-0.2694862611476469,0.0,0.0,-0.6,0.0,0.0014276504516601562,0.002454996109008789,0
1.4403979778289795,-0.06014566496014595,-0.10554294288158417,-0.5419407486915588,0.22578820504497113,-0.5422039661552006,-0.21062781148232307,-0.24230507560175618,-0.2733109596952132,0.0,0.0,-0.6,0.0,0.0021545886993408203,0.003359079360961914,0
1.4499876499176025,-0.06100133806467056,-0.10512319952249527,-0.543766438961029,0.22707125050890842,-0.5420085378523283,-0.2271455613196543,-0.2520403881225882,-0.2764693907274867,0.0,0.0,-0.6,0.0,0.0019428730010986328,0.0033349990844726562,0
1.4597268104553223,-0.06100133806467056,-0.10512319952249527,-0.543766438961029,0.22707125050890842,-0.5418728974954666,-0.23836158209833025,-0.25883197362422616,-0.27868029245007914,0.0,0.0,-0.6,0.0,0.0017504692077636719,0.0034341812133789062,0
1.4710617065429688,-0.061886418610811234,-0.10467652231454849,-0.5455803275108337,0.22817298736852923,-0.5418128647075012,-0.2511189640258019,-0.26523769251690904,-0.2806410749782519,0.0,0.0,-0.6,0.0,0.0020837783813476562,0.0034646987915039062,0
1.4801702499389648,-0.06374752521514893,-0.10366621613502502,-0.5491557121276855,0.23018083368527348,-0.5418361170881286,-0.2700418979064017,-0.26871040198920637,-0.28276656511675174,0.0,0.0,-0.6,0.0,0.0020449161529541016,0.0032100677490234375,0
1.4899897575378418,-0.06374752521514893,-0.10366621613502502,-0.5491557121276855,0.23018083368527348,-0.5418680114380869,-0.2829748296198294,-0.27112701687374446,-0.2842544082137023,0.0,0.0,-0.6,0.0,0.002083301544189453,0.0030934810638427734,0
1.500594139099121,-0.06469596177339554,-0.1031373143196106,-0.5509040951728821,0.23079796952930667,-0.5418804474828111,-0.2907856891948865,-0.26928330594776884,-0.285527324323098,0.0,0.0,-0.6,0.0,0.0016238689422607422,0.003403186798095703,0
1.5107195377349854,-0.06592589616775513,-0.1024082750082016,-0.5530681014060974,0.23154454903606886,-0.5418865416190165,-0.29784334202360646,-0.2679034217897955,-0.28669833291469327,0.0,0.0,-0.6,0.0,0.0021660327911376953,0.003534555435180664,0
1.520617961883545,-0.06734378635883331,-0.10147684067487717,-0.5556153655052185,0.23255229442361644,-0.5420087653021,-0.30402310480553085,-0.26268801029306493,-0.28789594344914027,0.0,0.0,-0.6,0.0,0.0022585391998291016,0.0036163330078125,0
1.5307941436767578,-0.06734378635883331,-0.10147684067487717,-0.5556153655052185,0.23255229442361644,-0.542097621816627,-0.30826531338426316,-0.2590587991878005,-0.28873427082326514,0.0,0.0,-0.6,0.0,0.001325845718383789,0.0022323131561279297,0
1.5395116806030273,-0.06878948211669922,-0.10056813806295395,-0.5580595135688782,0.23319242246907426,-0.5422131845669338,-0.3041782901059688,-0.24921479812803538,-0.28956114800218763,0.0,0.0,-0.6,0.0,0.0015637874603271484,0.0025815963745117188,0
1.5509016513824463,-0.07024241983890533,-0.09959757328033447,-0.5604801177978516,0.23375283769255306,-0.5422647480881474,-0.3026257978964334,-0.23412002612585422,-0.290350117736238,0.0,0.0,-0.6,0.0,0.0019965171813964844,0.003203153610229492,0
1.5595190525054932,-0.07024241983890533,-0.09959757328033447,-0.5604801177978516,0.23375283769255306,-0.5422620199752739,-0.3015784405005761,-0.2237253779328426,-0.29090239655007344,0.0,0.0,-0.6,0.0,0.0017056465148925781,0.0033614635467529297,0
1.5705251693725586,-0.07142692059278488,-0.0987454354763031,-0.562435507774353,0.2341917791076732,-0.542387362500012,-0.2947379968920904,-0.21426020171376342,-0.2914535947504283,0.0,0.0,-0.6,0.0,0.002131223678588867,0.003444671630859375,0
1.5807116031646729,-0.073355533182621,-0.09739896655082703,-0.5654451251029968,0.23463634830359728,-0.5425942675930104,-0.2867118545717633,-0.19610634896267704,-0.29200614693915594,0.0,0.0,-0.6,0.0,0.002225637435913086,0.0035195350646972656,0
1.5900146961212158,-0.073355533182621,-0.09739896655082703,-0.5654451251029968,0.23463634830359728,-0.5426984800438389,-0.2812276875896139,-0.18350921126855077,-0.2923929334712577,0.0,0.0,-0.6,0.0,0.0022735595703125,0.0034139156341552734,0
1.6003661155700684,-0.0743248388171196,-0.09669484198093414,-0.5668966770172119,0.23475976383742692,-0.5428034183161304,-0.2767619425251924,-0.1698536509874284,-0.2927099648689152,0.0,0.0,-0.6,0.0,0.002260446548461914,0.0036907196044921875,0
1.610034704208374,-0.07628558576107025,-0.09524010866880417,-0.5697491765022278,0.23476757637684229,-0.5429532021245264,-0.2661467868555604,-0.14894894104922293,-0.2929348165495563,0.0,0.0,-0.6,0.0,0.0016241073608398438,0.0034325122833251953,0
1.619879961013794,-0.07628558576107025,-0.09524010866880417,-0.5697491765022278,0.23476757637684229,-0.5430020120811377,-0.2588778485312261,-0.13449342998569708,-0.2930922127260051,0.0,0.0,-0.6,0.0,0.0016121864318847656,0.0034856796264648438,0
1.6301496028900146,-0.07826166599988937,-0.09360013902187347,-0.572532057762146,0.23487362767485162,-0.5431146415007871,-0.24525640384991063,-0.11869756966026931,-0.2932421592862728,0.0,0.0,-0.6,0.0,0.0015730857849121094,0.0025930404663085938,0
1.640510082244873,-0.07927350699901581,-0.09275122731924057,-0.5738947987556458,0.234918610809969,-0.5432113340664305,-0.23222090417470848,-0.10496354504370849,-0.2933639905541292,0.0,0.0,-0.6,0.0,0.0023260116577148438,0.003620147705078125,0
1.6497719287872314,-0.07927350699901581,-0.09275122731924057,-0.5738947987556458,0.234918610809969,-0.5432375207608557,-0.2232954496474503,-0.09546073830994607,-0.29344927244162994,0.0,0.0,-0.6,0.0,0.0017583370208740234,0.0033626556396484375,0
1.6600940227508545,-0.08057636022567749,-0.09164611250162125,-0.5755693316459656,0.23481354878876176,-0.5433255444378242,-0.21566678496145825,-0.08035619398829796,-0.2934695715049266,0.0,0.0,-0.6,0.0,0.0016970634460449219,0.0032482147216796875,0
1.6707475185394287,-0.08158642798662186,-0.09075399488210678,-0.5768890380859375,0.23488658681047944,-0.5433312893364904,-0.20628875205011285,-0.0657321646201845,-0.29351117010737837,0.0,0.0,-0.6,0.0,0.0020689964294433594,0.003203868865966797,0
1.6806883811950684,-0.08257581293582916,-0.08982378244400024,-0.5781981348991394,0.23486659005309815,-0.5433113196846516,-0.19443905904981879,-0.05273965276143559,-0.2935327903450766,0.0,0.0,-0.6,0.0,0.0019216537475585938,0.003183126449584961,0
1.6901493072509766,-0.08384618908166885,-0.08861417323350906,-0.5797796249389648,0.2347639340969056,-0.543360208148568,-0.18176682168386785,-0.04295696286789584,-0.29350942852789325,0.0,0.0,-0.6,0.0,0.002348661422729492,0.003272533416748047,0
1.7007031440734863,-0.08481485396623611,-0.08766194432973862,-0.5810399055480957,0.23471481310918704,-0.5434122297153764,-0.16943906025349106,-0.030910238557824918,-0.2934746548854704,0.0,0.0,-0.6,0.0,0.0018944740295410156,0.0032150745391845703,0
1.7105910778045654,-0.08577533811330795,-0.08668161928653717,-0.5822730660438538,0.23461713112945726,-0.5434895114524391,-0.15839652175743518,-0.017049389248643416,-0.2934136825933758,0.0,0.0,-0.6,0.0,0.0015494823455810547,0.0026111602783203125,0
1.719909429550171,-0.08673141151666641,-0.08567102998495102,-0.5834916830062866,0.23451541114826455,-0.543541051607413,-0.14885690756831804,-0.00469061297240783,-0.29333285699596234,0.0,0.0,-0.6,0.0,0.002084493637084961,0.003389120101928711,0
1.7309026718139648,-0.08741118013858795,-0.08489124476909637,-0.584405243396759,0.2343454890492079,-0.5436038676548823,-0.14170982925806716,0.002940592934098489,-0.29321255829062676,0.0,0.0,-0.6,0.0,0.002199411392211914,0.0033316612243652344,0
1.7399823665618896,-0.08832543343305588,-0.08386722207069397,-0.5855692028999329,0.23420973255143684,-0.5437057419385721,-0.13442402582750992,0.010868585636846506,-0.29307744051022766,0.0,0.0,-0.6,0.0,0.0014791488647460938,0.0032968521118164062,0
1.7506294250488281,-0.08922447264194489,-0.08282947540283203,-0.5867115259170532,0.23410743201130363,-0.5437899429506259,-0.12387771460014453,0.020560316603656505,-0.2929444953613984,0.0,0.0,-0.6,0.0,0.002302885055541992,0.0033578872680664062,0
1.7605948448181152,-0.090670645236969,-0.08101896196603775,-0.5886595845222473,0.23379553556266747,-0.5439024107389689,-0.11024927784510839,0.031139769413898684,-0.2927344725889823,0.0,0.0,-0.6,0.0,0.001451253890991211,0.002434253692626953,0
1.7706127166748047,-0.090670645236969,-0.08101896196603775,-0.5886595845222473,0.23379553556266747,-0.5439598675187334,-0.10090381138400611,0.038461830532876815,-0.29258745664829006,0.0,0.0,-0.6,0.0,0.002207040786743164,0.0032629966735839844,0
1.7803030014038086,-0.09146863967180252,-0.07994510978460312,-0.5897217988967896,0.23362998465102236,-0.5440019656899648,-0.09162047904098161,0.04491926795070475,-0.2924224638979366,0.0,0.0,-0.6,0.0,0.0013818740844726562,0.0023567676544189453,0
1.789804220199585,-0.09223569184541702,-0.07885196059942245,-0.5907586812973022,0.23343830886846081,-0.5441042446785838,-0.08265940322103156,0.04883852480076425,-0.2922350905542286,0.0,0.0,-0.6,0.0,0.002348184585571289,0.003440380096435547,0
1.8004071712493896,-0.09297771751880646,-0.07774405181407928,-0.5917403697967529,0.23333439099961384,-0.5442780826348371,-0.07543901651080348,0.05256112777493113,-0.29206496001281534,0.0,0.0,-0.6,0.0,0.0013246536254882812,0.002335786819458008,0
1.8110315799713135,-0.09424859285354614,-0.0758231058716774,-0.5934330821037292,0.23304225501483442,-0.5445052182788277,-0.0645946872734749,0.05716721488529031,-0.2918363176395339,0.0,0.0,-0.6,0.0,0.0020914077758789062,0.003148317337036133,0
1.8198680877685547,-0.09424859285354614,-0.0758231058716774,-0.5934330821037292,0.23304225501483442,-0.5446706234522857,-0.05714103837737154,0.06043871784604437,-0.29167626797823676,0.0,0.0,-0.6,0.0,0.0017161369323730469,0.003371000289916992,0
1.83109712600708,-0.09554073214530945,-0.07363443821668625,-0.5952515006065369,0.23270629028906867,-0.5448310118053455,-0.04684830453324931,0.06687991810956839,-0.29143824644316674,0.0,0.0,-0.6,0.0,0.002068758010864258,0.0032367706298828125,0
1.8406956195831299,-0.09601222723722458,-0.0728469043970108,-0.5959473848342896,0.2324870275135163,-0.5449490056494274,-0.03895425688773785,0.06963692059852886,-0.2911894078277856,0.0,0.0,-0.6,0.0,0.0014979839324951172,0.002459287643432617,0
1.8498518466949463,-0.09658242762088776,-0.07176461070775986,-0.596806526184082,0.2322579085731956,-0.5451301788941919,-0.03423051110541555,0.07217252256289144,-0.2909293011943949,0.0,0.0,-0.6,0.0,0.002378225326538086,0.003480672836303711,0
1.860044002532959,-0.0971113070845604,-0.07068779319524765,-0.5976374745368958,0.23191115509528903,-0.5453200143997151,-0.03036612531979151,0.07625108929442978,-0.29061719399681013,0.0,0.0,-0.6,0.0,0.0022225379943847656,0.0032906532287597656,0
1.870617389678955,-0.09760401397943497,-0.06962308287620544,-0.598430871963501,0.23166328881396023,-0.5455001479252414,-0.025176680623065894,0.08257911889761109,-0.2903057691030025,0.0,0.0,-0.6,0.0,0.002429962158203125,0.0034770965576171875,0
1.8811078071594238,-0.09806191921234131,-0.06854335218667984,-0.5992017388343811,0.23130919628029523,-0.5456635094239158,-0.018266580226031563,0.09039160448005153,-0.2899549869772128,0.0,0.0,-0.6,0.0,0.002279520034790039,0.003279447555541992,0
1.8906958103179932,-0.09847583621740341,-0.0674964189529419,-0.59995037317276,0.2310132055662574,-0.5457678775618634,-0.01003192760821773,0.0969677121732769,-0.2895984429713958,0.0,0.0,-0.6,0.0,0.0015811920166015625,0.0032896995544433594,0
1.9014256000518799,-0.09886327385902405,-0.06645699590444565,-0.6006869077682495,0.23071264490221383,-0.5458387065229526,-0.0023772952172331514,0.10028827436093636,-0.2892361519183076,0.0,0.0,-0.6,0.0,0.0012977123260498047,0.002545595169067383,0
1.9105918407440186,-0.09921309351921082,-0.06542263925075531,-0.6014053225517273,0.2304031515962074,-0.5459618687200275,0.003908852641532857,0.10125415205373785,-0.28886648819139343,0.0,0.0,-0.6,0.0,0.0024323463439941406,0.0036509037017822266,0
1.9212005138397217,-0.09951171278953552,-0.06439895182847977,-0.6020869016647339,0.2299310804267122,-0.5461219951005033,0.009176472848190237,0.10249123040995278,-0.2884306968939929,0.0,0.0,-0.6,0.0,0.0022025108337402344,0.003651142120361328,0
1.930734634399414,-0.09975767880678177,-0.0633818730711937,-0.6027621030807495,0.2295107401029573,-0.5462865061597784,0.013841980836233614,0.10418505102505225,-0.28796801536440453,0.0,0.0,-0.6,0.0,0.0022296905517578125,0.0033843517303466797,0
1.9405837059020996,-0.09997040778398514,-0.06237412244081497,-0.6034144163131714,0.22912563908678998,-0.5464943697027493,0.016763984291682778,0.107101130598856,-0.28749972541262986,0.0,0.0,-0.6,0.0,0.0013892650604248047,0.0025014877319335938,0
1.9503295421600342,-0.10014797002077103,-0.06136969476938248,-0.604030191898346,0.22869379724499206,-0.5466886194497805,0.020168460241498952,0.11151306946297655,-0.2870099817557134,0.0,0.0,-0.6,0.0,0.0015070438385009766,0.003123044967651367,0
1.9597806930541992,-0.10029672086238861,-0.06039636582136154,-0.6046152114868164,0.22828450536710468,-0.5468493021861499,0.02444546544237835,0.1147815172297719,-0.2865136767416641,0.0,0.0,-0.6,0.0,0.0015788078308105469,0.0033063888549804688,0
1.9707815647125244,-0.10042396187782288,-0.05943290516734123,-0.6051813960075378,0.22769276542259137,-0.5469184936500454,0.029694767371122588,0.11678824341746671,-0.28594436075264507,0.0,0.0,-0.6,0.0,0.002167224884033203,0.0033104419708251953,0
1.9804987907409668,-0.10051627457141876,-0.0584818571805954,-0.6057313084602356,0.22714895577284042,-0.5470129137239785,0.035311052047509506,0.11776088925278796,-0.2853419109416673,0.0,0.0,-0.6,0.0,0.002166271209716797,0.0034203529357910156,0
1.9902691841125488,-0.10058371722698212,-0.05752052739262581,-0.6062602400779724,0.2266670528305591,-0.5471057913443687,0.04209846226198084,0.1188322224222286,-0.28473948247061903,0.0,0.0,-0.6,0.0,0.0023107528686523438,0.0036149024963378906,0
2.0006234645843506,-0.10061079263687134,-0.056569721549749374,-0.6067762970924377,0.22613690558894647,-0.5472645839631926,0.04514118254275864,0.11904318044133866,-0.2841189773252889,0.0,0.0,-0.6,0.0,0.0022237300872802734,0.003434419631958008,0
2.0102391242980957,-0.10061241686344147,-0.0556405670940876,-0.6072831153869629,0.2255663588069816,-0.5473972115861423,0.04647701215961045,0.1190942100629193,-0.28347066868032095,0.0,0.0,-0.6,0.0,0.002155303955078125,0.0033109188079833984,0
2.0201663970947266,-0.10058202594518661,-0.05472228676080704,-0.6077883839607239,0.22507863730971261,-0.5475405903310061,0.04452188121865379,0.11880293913163639,-0.2828339570673675,0.0,0.0,-0.6,0.0,0.0020329952239990234,0.003794431686401367,0
2.0300979614257812,-0.10051397979259491,-0.053820766508579254,-0.6082777976989746,0.22451744873811388,-0.5476226372190371,0.0425462560549022,0.11842372326410716,-0.2821778132239597,0.0,0.0,-0.6,0.0,0.001348733901977539,0.003206014633178711,0
2.0401344299316406,-0.10041119158267975,-0.052933868020772934,-0.6087680459022522,0.22383497765798027,-0.5476906875621429,0.04147411178517749,0.11813610073151273,-0.2814625858785151,0.0,0.0,-0.6,0.0,0.0013005733489990234,0.002408266067504883,0
2.0497887134552,-0.10023272037506104,-0.051862046122550964,-0.6092972159385681,0.2230616134238576,-0.5477224349225664,0.042013707352202063,0.11458413206559574,-0.28067191514891887,0.0,0.0,-0.6,0.0,0.0050506591796875,0.006332874298095703,0
2.061708927154541,-0.10023272037506104,-0.051862046122550964,-0.6092972159385681,0.2230616134238576,-0.5477484333802844,0.04238265718514003,0.11216141189612971,-0.2801184456381903,0.0,0.0,-0.6,0.0,0.001954793930053711,0.0032701492309570312,0
2.0718531608581543,-0.09993197023868561,-0.05020366981625557,-0.610188364982605,0.22198136993367112,-0.5478743398319174,0.041029510277341974,0.11179042807007285,-0.2793259256718607,0.0,0.0,-0.6,0.0,0.0015459060668945312,0.0025415420532226562,0
2.0803937911987305,-0.09993197023868561,-0.05020366981625557,-0.610188364982605,0.22198136993367112,-0.5479746370488044,0.04010887747190935,0.11156669015168112,-0.2787711616954297,0.0,0.0,-0.6,0.0,0.002948284149169922,0.004260063171386719,0
2.0903985500335693,-0.09969828277826309,-0.049215879291296005,-0.6106626987457275,0.2211313682340775,-0.5480299456174885,0.038377197209146605,0.1088743370346444,-0.2780640762745806,0.0,0.0,-0.6,0.0,0.0015368461608886719,0.0033724308013916016,0
2.1017303466796875,-0.09949502348899841,-0.048408400267362595,-0.6110734939575195,0.22066014825156824,-0.548055854224582,0.037866872407112714,0.10804938822861887,-0.27739240898654516,0.0,0.0,-0.6,0.0,0.015431404113769531,0.016651630401611328,0
2.1251795291900635,-0.09949502348899841,-0.048408400267362595,-0.6110734939575195,0.22066014825156824,-0.5480766228003742,0.03751811730788959,0.10749068572872804,-0.27692224188492015,0.0,0.0,-0.6,0.0,0.0021164417266845703,0.003201007843017578,0
2.135237693786621,-0.09854930639266968,-0.04562412202358246,-0.6124659776687622,0.21875523037477773,-0.5482538716368072,0.034476357257795846,0.10214098369236913,-0.2758787807099868,0.0,0.0,-0.6,0.0,0.001682281494140625,0.0026717185974121094,0
2.142815113067627,-0.09854930639266968,-0.04562412202358246,-0.6124659776687622,0.21875523037477773,-0.5483947167624165,0.03239169666303983,0.0985136194271912,-0.2751483578875331,0.0,0.0,-0.6,0.0,0.0015287399291992188,0.0025184154510498047,0
2.151418447494507,-0.09792014211416245,-0.04424040764570236,-0.6130034923553467,0.21793764554151085,-0.5486528355936435,0.027074637868345734,0.09452037107107214,-0.2743304675993292,0.0,0.0,-0.6,0.0,0.0021543502807617188,0.003451108932495117,0
2.1598737239837646,-0.09792014211416245,-0.04424040764570236,-0.6130034923553467,0.21793764554151085,-0.5488577182862525,0.023432629232102323,0.09183535225375669,-0.27375794439758966,0.0,0.0,-0.6,0.0,0.002072572708129883,0.003132343292236328,0
2.17093825340271,-0.09734004735946655,-0.043048638850450516,-0.6133942604064941,0.21705777824530945,-0.5490562894966656,0.02306682175594304,0.08926459099409557,-0.27302722792030454,0.0,0.0,-0.6,0.0,0.0015492439270019531,0.0033538341522216797,0
2.181044578552246,-0.09694579243659973,-0.042426466941833496,-0.6135615110397339,0.2165374889424198,-0.5492309617280727,0.02193258764392899,0.08707753201169381,-0.2723206178976115,0.0,0.0,-0.6,0.0,0.0012476444244384766,0.002209901809692383,0
2.1902120113372803,-0.09651671350002289,-0.04185749217867851,-0.6137351393699646,0.2161529595752951,-0.5493858497647263,0.019558751264636035,0.08542835624174447,-0.27168179236906437,0.0,0.0,-0.6,0.0,0.0014660358428955078,0.00244903564453125,0
2.199582815170288,-0.09611424058675766,-0.04127585142850876,-0.6138468980789185,0.21572850749734965,-0.5495446341255041,0.016381369335190334,0.0833719705522749,-0.2710754449698602,0.0,0.0,-0.6,0.0,0.002104520797729492,0.003152132034301758,0
2.209803342819214,-0.0956907868385315,-0.040720999240875244,-0.6139308214187622,0.21523142328008404,-0.5497066681953234,0.011585586108575786,0.07996215128112469,-0.2704645952089343,0.0,0.0,-0.6,0.0,0.0013151168823242188,0.0022706985473632812,0
2.2198286056518555,-0.0956907868385315,-0.040720999240875244,-0.6139308214187622,0.21523142328008404,-0.5498351913311234,0.008299665193103607,0.07765429113150002,-0.2700370003762859,0.0,0.0,-0.6,0.0,0.0014812946319580078,0.0024137496948242188,0
2.229796886444092,-0.0948009341955185,-0.039655182510614395,-0.61405348777771,0.21423708509886918,-0.5500683253594245,0.0066903009615941235,0.07373756329248908,-0.2693648071754768,0.0,0.0,-0.6,0.0,0.0017151832580566406,0.003451108932495117,0
2.2401585578918457,-0.09433960914611816,-0.03913690522313118,-0.6140627264976501,0.213774484660167,-0.550298247041765,0.007957225623526255,0.07111548469841346,-0.268720796770397,0.0,0.0,-0.6,0.0,0.0015838146209716797,0.003298521041870117,0
2.2496302127838135,-0.09433960914611816,-0.03913690522313118,-0.6140627264976501,0.213774484660167,-0.5504814258254318,0.00882056603684365,0.06935266419048075,-0.268269989486841,0.0,0.0,-0.6,0.0,0.0012507438659667969,0.002229928970336914,0
2.259984016418457,-0.09337213635444641,-0.03814460337162018,-0.6140353679656982,0.21295140949986777,-0.5506802221268334,0.010908127548374572,0.06721382283295127,-0.26764577120323974,0.0,0.0,-0.6,0.0,0.0015664100646972656,0.003225088119506836,0
2.2701914310455322,-0.09288854897022247,-0.037662822753190994,-0.61398845911026,0.212452271234824,-0.5508314352231247,0.01059842347036417,0.06502561595273092,-0.2670216415553274,0.0,0.0,-0.6,0.0,0.001800537109375,0.0027599334716796875,0
2.280625581741333,-0.09238488972187042,-0.03718502074480057,-0.6139273643493652,0.21198758181894453,-0.5510243957296821,0.008174770984526982,0.06294420321961862,-0.266410492270834,0.0,0.0,-0.6,0.0,0.0021517276763916016,0.003238201141357422,0
2.2895565032958984,-0.09238488972187042,-0.03718502074480057,-0.6139273643493652,0.21198758181894453,-0.5511777776588049,0.006509695108880272,0.06154522224385085,-0.26598268777168843,0.0,0.0,-0.6,0.0,0.0017006397247314453,0.002731800079345703,0
2.3002498149871826,-0.091389499604702,-0.036291904747486115,-0.6137593388557434,0.2106627889057533,-0.5513204033397288,0.0050844092301238685,0.06062373724437277,-0.2651864272798402,0.0,0.0,-0.6,0.0,0.0013489723205566406,0.003123044967651367,0
2.3101632595062256,-0.091389499604702,-0.036291904747486115,-0.6137593388557434,0.2106627889057533,-0.5514338114783599,0.004104970998326856,0.06001142363621565,-0.2646290449355462,0.0,0.0,-0.6,0.0,0.0015091896057128906,0.00324249267578125,0
2.320230484008789,-0.0903509333729744,-0.035447169095277786,-0.613548219203949,0.20956130969746986,-0.5515683490182617,0.00789242662667107,0.058086523315221524,-0.26382582259143433,0.0,0.0,-0.6,0.0,0.0023736953735351562,0.003432035446166992,0
2.3305740356445312,-0.08982890844345093,-0.03505030274391174,-0.6134197115898132,0.20904588364662918,-0.5517133554525783,0.011308038963305764,0.053694627223161144,-0.2630702821814907,0.0,0.0,-0.6,0.0,0.0017018318176269531,0.003338336944580078,0
2.340207576751709,-0.08931350708007812,-0.034654419869184494,-0.6132755875587463,0.2085574313749968,-0.5518409758084054,0.013193452498906452,0.04966297645149953,-0.262358234292668,0.0,0.0,-0.6,0.0,0.0016219615936279297,0.0032913684844970703,0
2.35024356842041,-0.08878078311681747,-0.03426594287157059,-0.6131280064582825,0.20800278193851576,-0.5519648702400661,0.014401530845339825,0.048046143794755754,-0.26165180723181175,0.0,0.0,-0.6,0.0,0.001483917236328125,0.00244903564453125,0
2.359985828399658,-0.08824162930250168,-0.03388817980885506,-0.6129727363586426,0.20737494546479102,-0.5520213022842467,0.015234291214150493,0.04900604950217959,-0.2609218696115757,0.0,0.0,-0.6,0.0,0.0018033981323242188,0.0034122467041015625,0
2.371259927749634,-0.087551549077034,-0.03350996598601341,-0.612773060798645,0.20655592984935833,-0.5520526698587046,0.018180372368933738,0.047141244118975474,-0.26010378242160187,0.0,0.0,-0.6,0.0,0.00125885009765625,0.003109455108642578,0
2.379828691482544,-0.087551549077034,-0.03350996598601341,-0.612773060798645,0.20655592984935833,-0.5520782236504032,0.020194438729837207,0.045866749370471666,-0.25953112138863127,0.0,0.0,-0.6,0.0,0.0015518665313720703,0.00251007080078125,0
2.390406608581543,-0.0865514799952507,-0.03279074281454086,-0.6124217510223389,0.20545868033761192,-0.5521870720253749,0.020871722471023643,0.04164061901708573,-0.2587187900986584,0.0,0.0,-0.6,0.0,0.0023860931396484375,0.003469705581665039,0
2.400690793991089,-0.0865514799952507,-0.03279074281454086,-0.6124217510223389,0.20545868033761192,-0.5522741694395453,0.02132762720633045,0.0387586980437975,-0.2581501581956659,0.0,0.0,-0.6,0.0,0.002179384231567383,0.0032701492309570312,0
2.4124808311462402,-0.0865514799952507,-0.03279074281454086,-0.6124217510223389,0.20545868033761192,-0.5523439503065405,0.021634106785773027,0.03679540475581508,-0.2577521158635655,0.0,0.0,-0.6,0.0,0.0024080276489257812,0.006221294403076172,0
2.4323954582214355,-0.08488023281097412,-0.031694602221250534,-0.6117898225784302,0.20341410030405216,-0.5524121781343886,0.018187944350913962,0.03377498400925414,-0.25670676871850195,0.0,0.0,-0.6,0.0,0.004300594329833984,0.007804393768310547,0
2.453395366668701,-0.08488023281097412,-0.031694602221250534,-0.6117898225784302,0.20341410030405216,-0.5524657381163663,0.015822709077014892,0.03171670380057702,-0.25597502571697167,0.0,0.0,-0.6,0.0,0.0034389495849609375,0.006893634796142578,0
2.4743854999542236,-0.08310132473707199,-0.03043859824538231,-0.6110658049583435,0.20119072507880764,-0.5525774367586663,0.013338765237101724,0.02524206333943487,-0.254629039906453,0.0,0.0,-0.6,0.0,0.0040018558502197266,0.007114887237548828,0
2.495687961578369,-0.08182574063539505,-0.02965726889669895,-0.6104385256767273,0.19946601167273414,-0.552750499256666,0.007983944892333634,0.017325394177075355,-0.25304008231179403,0.0,0.0,-0.6,0.0,0.003756999969482422,0.007128715515136719,0
2.515408515930176,-0.08182574063539505,-0.02965726889669895,-0.6104385256767273,0.19946601167273414,-0.5528869201529384,0.004295952745869764,0.011926271739763903,-0.25192781199553227,0.0,0.0,-0.6,0.0,0.004432201385498047,0.007673501968383789,0
2.537034511566162,-0.08003046363592148,-0.028694164007902145,-0.6094138026237488,0.1971360914625002,-0.5530209476613733,0.0007420131975719867,0.00660301018250821,-0.2502755026953118,0.0,0.0,-0.6,0.0,0.003548860549926758,0.007077217102050781,0
2.5572025775909424,-0.07914598286151886,-0.02822764590382576,-0.6087667346000671,0.19579127683855826,-0.5531851477171327,-0.003760542125210623,0.0012372745352282185,-0.24861458070117926,0.0,0.0,-0.6,0.0,0.0039520263671875,0.0069959163665771484,0
2.579587459564209,-0.07828646898269653,-0.027799399569630623,-0.6081091165542603,0.194488130317547,-0.5533496254934048,-0.00989573503512198,-0.006852807723901992,-0.24696325535990724,0.0,0.0,-0.6,0.0,0.006834983825683594,0.01064610481262207,0
2.6019363403320312,-0.07828646898269653,-0.027799399569630623,-0.6081091165542603,0.194488130317547,-0.553480055395799,-0.014118098896407923,-0.012371223388263408,-0.24580732762101634,0.0,0.0,-0.6,0.0,0.004385709762573242,0.008390426635742188,0
2.624457359313965,-0.07635357975959778,-0.026691149920225143,-0.606299877166748,0.19122561501387073,-0.553701648898415,-0.01818255370417426,-0.018262951625255708,-0.243774734964915,0.0,0.0,-0.6,0.0,0.0021195411682128906,0.005844593048095703,0
2.642951250076294,-0.07635357975959778,-0.026691149920225143,-0.606299877166748,0.19122561501387073,-0.5538785267147134,-0.02099236118615864,-0.022271552006339703,-0.24235192010564344,0.0,0.0,-0.6,0.0,0.003908872604370117,0.007627964019775391,0
2.662090301513672,-0.0749698057770729,-0.0257557425647974,-0.6046837568283081,0.18870504033578375,-0.5541054782173903,-0.02606772545335403,-0.028097019412238286,-0.24041073419987125,0.0,0.0,-0.6,0.0,0.0037899017333984375,0.007180690765380859,0
2.6834065914154053,-0.0749698057770729,-0.0257557425647974,-0.6046837568283081,0.18870504033578375,-0.5542868869860645,-0.02957149791562027,-0.03205523793911179,-0.23905190406583013,0.0,0.0,-0.6,0.0,0.002518177032470703,0.005212068557739258,0
2.7019968032836914,-0.07400932163000107,-0.025083115324378014,-0.6033307313919067,0.18681519404089247,-0.5545456391626015,-0.03627349473324963,-0.03474217890054672,-0.23739203061141742,0.0,0.0,-0.6,0.0,0.0033974647521972656,0.006306171417236328,0
2.7227272987365723,-0.07338891178369522,-0.024668823927640915,-0.6022369861602783,0.18552930502469103,-0.5548049026558064,-0.04083465303815568,-0.036929395648779305,-0.23574791081225296,0.0,0.0,-0.6,0.0,0.002432584762573242,0.0045125484466552734,0
2.73964524269104,-0.07338891178369522,-0.024668823927640915,-0.6022369861602783,0.18552930502469103,-0.5550114724800972,-0.04398230361937097,-0.03838832081373588,-0.23459702695283738,0.0,0.0,-0.6,0.0,0.002237558364868164,0.005915164947509766,0
2.758432149887085,-0.07228212803602219,-0.024116704240441322,-0.6000301837921143,0.18290215913772898,-0.5552264980505358,-0.04818745053732926,-0.041800005244190336,-0.2328062285436363,0.0,0.0,-0.6,0.0,0.003222942352294922,0.006468296051025391,0
2.7749621868133545,-0.07228212803602219,-0.024116704240441322,-0.6000301837921143,0.18290215913772898,-0.5553990764642899,-0.051087588849891306,-0.044100527357545466,-0.23155266965719504,0.0,0.0,-0.6,0.0,0.007160186767578125,0.010318279266357422,0
2.795872926712036,-0.0716385617852211,-0.023320339620113373,-0.5981568098068237,0.18087715518052958,-0.5556066765162389,-0.05562579958364047,-0.04457522136674887,-0.22991580195273673,0.0,0.0,-0.6,0.0,0.006499767303466797,0.010184526443481445,0
2.8179783821105957,-0.0716385617852211,-0.023320339620113373,-0.5981568098068237,0.18087715518052958,-0.555771827570309,-0.058748596487557224,-0.04486034567888016,-0.22876999455961544,0.0,0.0,-0.6,0.0,0.0042607784271240234,0.0075473785400390625,0
2.838921308517456,-0.07127015292644501,-0.02158978581428528,-0.5959181189537048,0.17841251736812838,-0.5559134699572105,-0.06366857223019164,-0.04280320767738936,-0.22704369020478066,0.0,0.0,-0.6,0.0,0.004694700241088867,0.007767677307128906,0
2.8590784072875977,-0.07127015292644501,-0.02158978581428528,-0.5959181189537048,0.17841251736812838,-0.5560244297278814,-0.06704423116273599,-0.04136128362144981,-0.22583527715639581,0.0,0.0,-0.6,0.0,0.001960277557373047,0.003746509552001953,0
2.8771350383758545,-0.07119180262088776,-0.020779673010110855,-0.5947726368904114,0.1770845932680535,-0.5560720953489128,-0.07041446178924542,-0.038403165523841896,-0.22449141648499849,0.0,0.0,-0.6,0.0,0.0036766529083251953,0.007077455520629883,0
2.897395133972168,-0.07119180262088776,-0.020779673010110855,-0.5947726368904114,0.1770845932680535,-0.5561078210829936,-0.07272255898428076,-0.036364628081296854,-0.22355071401501994,0.0,0.0,-0.6,0.0,0.0048406124114990234,0.008392572402954102,0
2.920217275619507,-0.07095734030008316,-0.01999673619866371,-0.592323362827301,0.1747924261956822,-0.5562767983778137,-0.06945307043314998,-0.0330558696020832,-0.2220326596338963,0.0,0.0,-0.6,0.0,0.004260540008544922,0.007173776626586914,0
2.9385018348693848,-0.07095734030008316,-0.01999673619866371,-0.592323362827301,0.1747924261956822,-0.5564072341960372,-0.06721595317258491,-0.03075512520378838,-0.2209700215671093,0.0,0.0,-0.6,0.0,0.002996683120727539,0.006086587905883789,0
2.959205389022827,-0.07104691118001938,-0.01941443234682083,-0.5901580452919006,0.17263465853625287,-0.5565677703795496,-0.05892184967043562,-0.030552783695411617,-0.21941701204807287,0.0,0.0,-0.6,0.0,0.0036728382110595703,0.006978511810302734,0
2.9786148071289062,-0.07104691118001938,-0.01941443234682083,-0.5901580452919006,0.17263465853625287,-0.5566922082709079,-0.05324422965222672,-0.03038531477376977,-0.21832990538474692,0.0,0.0,-0.6,0.0,0.0033757686614990234,0.0053768157958984375,0
2.9993934631347656,-0.07128555327653885,-0.019012315198779106,-0.5884547233581543,0.17108361974406855,-0.5568623264914428,-0.04719715517354738,-0.024854667336065756,-0.2169872911733499,0.0,0.0,-0.6,0.0,0.0036764144897460938,0.006604433059692383,0
3.018177032470703,-0.07128555327653885,-0.019012315198779106,-0.5884547233581543,0.17108361974406855,-0.556990808355842,-0.04305413387129023,-0.021030875957316383,-0.21604746122537158,0.0,0.0,-0.6,0.0,0.004351615905761719,0.007946968078613281,0
3.0403411388397217,-0.07164261490106583,-0.01817246712744236,-0.5856975317001343,0.16847712561968725,-0.5572158905931626,-0.03632058594958584,-0.019274335061797924,-0.21441214496514446,0.0,0.0,-0.6,0.0,0.002777576446533203,0.004701852798461914,0
3.057584524154663,-0.07164261490106583,-0.01817246712744236,-0.5856975317001343,0.16847712561968725,-0.5573913661069844,-0.03170675468730309,-0.01802687167039121,-0.21326742358298498,0.0,0.0,-0.6,0.0,0.00461268424987793,0.008202314376831055,0
3.0804779529571533,-0.0718410536646843,-0.0177468229085207,-0.5839864015579224,0.16726917181000342,-0.5575250240210541,-0.02234709234572748,-0.013687934085154688,-0.212013135936842,0.0,0.0,-0.6,0.0,0.00419306755065918,0.007652759552001953,0
3.1001474857330322,-0.0718410536646843,-0.0177468229085207,-0.5839864015579224,0.16726917181000342,-0.5576254042590937,-0.015935464248666008,-0.010691677793158175,-0.21113513458454156,0.0,0.0,-0.6,0.0,0.0033080577850341797,0.007245063781738281,0
3.1226515769958496,-0.07192516326904297,-0.01722363568842411,-0.5813065767288208,0.16491620247504687,-0.5578442076146429,-0.00969622191336146,-0.005118422295644574,-0.20963817013732314,0.0,0.0,-0.6,0.0,0.001931905746459961,0.0043239593505859375,0
3.1380252838134766,-0.07192516326904297,-0.01722363568842411,-0.5813065767288208,0.16491620247504687,-0.5580125319261956,-0.005421386233456747,-0.00125292386395879,-0.20859029502426982,0.0,0.0,-0.6,0.0,0.0027616024017333984,0.006922245025634766,0
3.157409429550171,-0.07199595868587494,-0.01694646291434765,-0.5790374279022217,0.16293133421149245,-0.558175963933128,-0.0007548139798107811,0.006048993593045556,-0.2071124568463,0.0,0.0,-0.6,0.0,0.0036666393280029297,0.007386684417724609,0
3.178256034851074,-0.07199595868587494,-0.01694646291434765,-0.5790374279022217,0.16293133421149245,-0.5582993753768224,0.002443375215018735,0.011088576852618826,-0.2060779701217207,0.0,0.0,-0.6,0.0,0.004128456115722656,0.006417512893676758,0
3.199819564819336,-0.0719904825091362,-0.016795797273516655,-0.5773804187774658,0.1616976508044966,-0.5585025926678727,0.005188746977392685,0.017810627901028848,-0.20489119813689188,0.0,0.0,-0.6,0.0,0.0045015811920166016,0.008081912994384766,0
3.219388246536255,-0.07196997106075287,-0.01669226586818695,-0.5757063627243042,0.1603900517525916,-0.5586547948583784,0.009592462767631024,0.02760944848520892,-0.2035701081030475,0.0,0.0,-0.6,0.0,0.003372669219970703,0.0066645145416259766,0
3.239319324493408,-0.07196997106075287,-0.01669226586818695,-0.5757063627243042,0.1603900517525916,-0.5587678993958097,0.01260981518136346,0.03435881170199912,-0.20264534507935603,0.0,0.0,-0.6,0.0,0.0023403167724609375,0.004428386688232422,0
3.257368564605713,-0.07196195423603058,-0.01663348451256752,-0.5739771723747253,0.15897313965587323,-0.5589529778201904,0.014322675433984133,0.04180719766004086,-0.20146666892650283,0.0,0.0,-0.6,0.0,0.00430607795715332,0.00746607780456543,0
3.277235746383667,-0.07196195423603058,-0.01663348451256752,-0.5739771723747253,0.15897313965587323,-0.5590951808667924,0.015490837956675187,0.046952934048367805,-0.20064159561950526,0.0,0.0,-0.6,0.0,0.003792285919189453,0.007533550262451172,0
3.295997142791748,-0.07184974104166031,-0.01668509654700756,-0.5714144110679626,0.15706690342892932,-0.5592727751792124,0.012281151729771322,0.054393082855688564,-0.19934920571950346,0.0,0.0,-0.6,0.0,0.0042705535888671875,0.007599830627441406,0
3.317643165588379,-0.07184974104166031,-0.01668509654700756,-0.5714144110679626,0.15706690342892932,-0.5594083036166216,0.010075782086339902,0.059534932359952046,-0.1984445327895018,0.0,0.0,-0.6,0.0,0.0039217472076416016,0.007124662399291992,0
3.338531732559204,-0.07161478698253632,-0.01681394688785076,-0.569186806678772,0.1555088753966347,-0.5596199406841899,0.011111932749892224,0.06478803896960987,-0.19722700122639047,0.0,0.0,-0.6,0.0,0.004225492477416992,0.007687807083129883,0
3.357732057571411,-0.0714842677116394,-0.016993746161460876,-0.5675793290138245,0.15437325030898918,-0.559740130491062,0.011748845903197741,0.06573102679177789,-0.19594886972434555,0.0,0.0,-0.6,0.0,0.0038938522338867188,0.007850885391235352,0
3.378504753112793,-0.0714842677116394,-0.016993746161460876,-0.5675793290138245,0.15437325030898918,-0.559835329172769,0.012177081528063368,0.06640093769936234,-0.19505417767291372,0.0,0.0,-0.6,0.0,0.003766298294067383,0.007342100143432617,0
3.3974506855010986,-0.07128655165433884,-0.017320018261671066,-0.5655269026756287,0.15302841255187158,-0.5599225060421098,0.009567504533047892,0.06675646444090748,-0.19392357907799257,0.0,0.0,-0.6,0.0,0.002458333969116211,0.004916191101074219,0
3.4112548828125,-0.07128655165433884,-0.017320018261671066,-0.5655269026756287,0.15302841255187158,-0.5599908103052594,0.007773082377318833,0.06701842433023403,-0.19313216006154743,0.0,0.0,-0.6,0.0,0.0026073455810546875,0.004901409149169922,0
3.4258062839508057,-0.07104860991239548,-0.017649857327342033,-0.5640188455581665,0.15192446333322876,-0.5601057418413221,0.008432415844271905,0.0693732023589921,-0.19216418579304495,0.0,0.0,-0.6,0.0,0.002534151077270508,0.004826068878173828,0
3.4404029846191406,-0.07104860991239548,-0.017649857327342033,-0.5640188455581665,0.15192446333322876,-0.5601963244761452,0.008877381588603336,0.07100698578435116,-0.19148660380509291,0.0,0.0,-0.6,0.0,0.0024900436401367188,0.005057811737060547,0
3.4549760818481445,-0.07072919607162476,-0.018033944070339203,-0.562458336353302,0.15071209849829137,-0.5602377697391039,0.010601515666545956,0.0686258350296652,-0.19055765960042523,0.0,0.0,-0.6,0.0,0.0024673938751220703,0.004848003387451172,0
3.4693033695220947,-0.07072919607162476,-0.018033944070339203,-0.562458336353302,0.15071209849829137,-0.5602715763600689,0.011778481312575315,0.0670002356177806,-0.18990739865715758,0.0,0.0,-0.6,0.0,0.0026106834411621094,0.005009651184082031,0
3.4845850467681885,-0.07036551088094711,-0.018393853679299355,-0.5609293580055237,0.14962138856311255,-0.5602626329135953,0.010813408937136698,0.0670947794247434,-0.18904319977117837,0.0,0.0,-0.6,0.0,0.0025682449340820312,0.004904508590698242,0
3.4989523887634277,-0.07036551088094711,-0.018393853679299355,-0.5609293580055237,0.14962138856311255,-0.5602552367443957,0.010152969248219035,0.06715857799563846,-0.18843826055099266,0.0,0.0,-0.6,0.0,0.0023903846740722656,0.004541158676147461,0
3.5126895904541016,-0.07008419930934906,-0.018663272261619568,-0.5599353909492493,0.14862401330267422,-0.560240258536753,0.011948294856156673,0.06516394447602976,-0.18764078737419848,0.0,0.0,-0.6,0.0,0.0025305747985839844,0.004857540130615234,0
3.5272603034973145,-0.06977299600839615,-0.01896403543651104,-0.5589485168457031,0.14769603500757678,-0.5603033319176159,0.01376895071964018,0.06258959752953634,-0.18673456428978114,0.0,0.0,-0.6,0.0,0.0021753311157226562,0.0043849945068359375,0
3.5417051315307617,-0.06962900608778,-0.019133517518639565,-0.5584626793861389,0.1472664531462144,-0.560345400317763,0.014847583760045012,0.05940307956670398,-0.185939114932678,0.0,0.0,-0.6,0.0,0.0024132728576660156,0.0044214725494384766,0
