time,x,y,z,yaw,throttle,roll_rate,pitch_rate,yaw_rate,x_ref,y_ref,z_ref,yaw_ref,pred_time,nr_time,ctrl_callback_time,metadata
3.814697265625e-06,-0.1218765452504158,-0.1005815863609314,-0.23896552622318268,-0.05507849878999658,-0.532472252875796,0.06504079767919971,-0.052491892248299823,0.020654437046245984,0.0,0.0,-0.6,0.0,0.0013625621795654297,0.002366781234741211,0.004730939865112305,Hardware
0.011820316314697266,-0.1218765452504158,-0.1005815863609314,-0.23896552622318268,-0.05507849878999658,-0.5413641696142036,0.10960926710425667,-0.08875953282237628,0.035112542978618995,0.0,0.0,-0.6,0.0,0.001705169677734375,0.002880096435546875,0.006471872329711914,Nonlinear
0.022196531295776367,-0.1218917965888977,-0.10057530552148819,-0.23896019160747528,-0.05505412084479398,-0.5484564340663916,0.1391389511099569,-0.1132779482287236,0.04522407540182531,0.0,0.0,-0.6,0.0,0.0009856224060058594,0.0017735958099365234,0.004279136657714844,2x Speed
0.02987360954284668,-0.12190285325050354,-0.10057362169027328,-0.23895388841629028,-0.055109345895524055,-0.5541255246895126,0.15900327348219484,-0.12945654482922425,0.052322857492092145,0.0,0.0,-0.6,0.0,0.0012691020965576172,0.0020449161529541016,0.004305839538574219,0OrderHold
0.041408538818359375,-0.12190218269824982,-0.10058403760194778,-0.23899824917316437,-0.055030865933229894,-0.5585652344872337,0.16988436617851088,-0.13801007332642798,0.05726257496942934,0.0,0.0,-0.6,0.0,0.0020291805267333984,0.0030617713928222656,0.0066378116607666016,QuatYawError
0.050147294998168945,-0.12190570682287216,-0.1005900651216507,-0.2390424609184265,-0.05493224148299694,-0.5621615531600926,0.17791964177949016,-0.141987505936986,0.060683393034726904,0.0,0.0,-0.6,0.0,0.0011496543884277344,0.0019953250885009766,0.0057637691497802734,NoPyJoules
0.06093955039978027,-0.12190040946006775,-0.10060933977365494,-0.23906102776527405,-0.054801067919079266,-0.5650231055321889,0.18125533524440182,-0.14522821303200822,0.06302877559396121,0.0,0.0,-0.6,0.0,0.0020704269409179688,0.003587484359741211,0.0068128108978271484,0
0.0712735652923584,-0.12191006541252136,-0.10064353048801422,-0.2390899807214737,-0.05483668949742026,-0.567269324825666,0.18426979410285382,-0.14479862633892154,0.06468390147731096,0.0,0.0,-0.6,0.0,0.0015435218811035156,0.0028009414672851562,0.006216764450073242,0
0.0810708999633789,-0.12191682308912277,-0.10067518800497055,-0.2391360104084015,-0.05481956236486392,-0.5690025864939141,0.18726030525917248,-0.14259752055872632,0.06583606692094149,0.0,0.0,-0.6,0.0,0.002501249313354492,0.0035772323608398438,0.006673097610473633,0
0.09010648727416992,-0.12191682308912277,-0.10067518800497055,-0.2391360104084015,-0.05481956236486392,-0.5703791630261077,0.18883110418423585,-0.1405586116837595,0.0666425827314822,0.0,0.0,-0.6,0.0,0.0015320777893066406,0.0025408267974853516,0.0058329105377197266,0
0.10076236724853516,-0.12184794247150421,-0.1007658913731575,-0.23925474286079407,-0.0544194735366513,-0.5714647747758773,0.1866645560263153,-0.13930138025074376,0.06705711048828172,0.0,0.0,-0.6,0.0,0.0022466182708740234,0.0033037662506103516,0.006579875946044922,0
0.11125874519348145,-0.12176375836133957,-0.1007814109325409,-0.2393426150083542,-0.05416771702986538,-0.5722013996648704,0.18176545991655943,-0.13683789777314967,0.0672528712279967,0.0,0.0,-0.6,0.0,0.00168609619140625,0.002748250961303711,0.006381988525390625,0
0.12156295776367188,-0.12168285995721817,-0.10080084204673767,-0.23947350680828094,-0.05387234730970769,-0.5727687702710154,0.17833023144462654,-0.13347727973931575,0.06727914010073807,0.0,0.0,-0.6,0.0,0.0013325214385986328,0.0022144317626953125,0.005133867263793945,0
0.12994003295898438,-0.12160422652959824,-0.10081880539655685,-0.23958173394203186,-0.053588976070808376,-0.5732401599334352,0.17429859922638322,-0.12802274606865877,0.06719126409706981,0.0,0.0,-0.6,0.0,0.001027822494506836,0.0018761157989501953,0.004205226898193359,0
0.14034533500671387,-0.12150829285383224,-0.10084397345781326,-0.239734947681427,-0.053334556666335645,-0.5734003456513452,0.17127776030458264,-0.12099346957173952,0.06703434361782476,0.0,0.0,-0.6,0.0,0.0010178089141845703,0.0023195743560791016,0.004624366760253906,0
0.14983081817626953,-0.12136920541524887,-0.10083990544080734,-0.2399848848581314,-0.052972256873360664,-0.5733373605647983,0.16768536521797842,-0.11344272590218993,0.06678863685998762,0.0,0.0,-0.6,0.0,0.0021936893463134766,0.0039632320404052734,0.006428956985473633,0
0.1605381965637207,-0.12120816856622696,-0.10079371929168701,-0.24034345149993896,-0.052385608737942214,-0.5732072764571066,0.1610165622010059,-0.10615966797109963,0.06639664907872006,0.0,0.0,-0.6,0.0,0.0018203258514404297,0.0031554698944091797,0.0066242218017578125,0
0.1704704761505127,-0.12104689329862595,-0.10072898119688034,-0.2407931536436081,-0.05153199137562059,-0.5729437086561212,0.15262065806006606,-0.09859252292839457,0.06580215112096184,0.0,0.0,-0.6,0.0,0.0013041496276855469,0.0031003952026367188,0.006322622299194336,0
0.18088817596435547,-0.1208762526512146,-0.10060633718967438,-0.24138715863227844,-0.05048485956210176,-0.5724417620533071,0.14206127799140478,-0.08973396874024919,0.06499332812045945,0.0,0.0,-0.6,0.0,0.0020439624786376953,0.0031981468200683594,0.006479978561401367,0
0.19074392318725586,-0.12069276720285416,-0.10042528063058853,-0.2421346753835678,-0.049303542960994665,-0.5717484592011619,0.1305487594608839,-0.0803427198135911,0.06398415829469212,0.0,0.0,-0.6,0.0,0.0018985271453857422,0.002905130386352539,0.00632023811340332,0
0.2005469799041748,-0.12049008160829544,-0.10022877901792526,-0.242987722158432,-0.04807121856255196,-0.571040908659371,0.12048437044574405,-0.07073628916869913,0.06281561776724162,0.0,0.0,-0.6,0.0,0.0014345645904541016,0.002291440963745117,0.0057413578033447266,0
0.21097469329833984,-0.12028157711029053,-0.10006298869848251,-0.2439408004283905,-0.04672901847679995,-0.5702428793431079,0.11281558053491622,-0.062254358904246285,0.061494314365869295,0.0,0.0,-0.6,0.0,0.0031931400299072266,0.0046160221099853516,0.007880210876464844,0
0.22064495086669922,-0.12028157711029053,-0.10006298869848251,-0.2439408004283905,-0.04672901847679995,-0.5695861144303773,0.1077593284777051,-0.056663997426988105,0.06056940198490861,0.0,0.0,-0.6,0.0,0.012457847595214844,0.013715982437133789,0.016858339309692383,0
0.23992228507995605,-0.11977505683898926,-0.09971872717142105,-0.2475009560585022,-0.04207915667704351,-0.568264576736648,0.09529838895842953,-0.0532925659767288,0.05817826514332974,0.0,0.0,-0.6,0.0,0.006112575531005859,0.007227420806884766,0.009722709655761719,0
0.25138163566589355,-0.11977505683898926,-0.09971872717142105,-0.2475009560585022,-0.04207915667704351,-0.5671906849260803,0.08713656082889265,-0.051376101848236794,0.056504469354223805,0.0,0.0,-0.6,0.0,0.0018305778503417969,0.002780914306640625,0.006331205368041992,0
0.26059937477111816,-0.11950685828924179,-0.09928559511899948,-0.2504134178161621,-0.0382093556307311,-0.566037748670647,0.06904889866405312,-0.04589445064120312,0.053881636909483444,0.0,0.0,-0.6,0.0,0.0015757083892822266,0.003183603286743164,0.0065975189208984375,0
0.27048277854919434,-0.11927153915166855,-0.09911379963159561,-0.2520400881767273,-0.036181309831035895,-0.5646661591926084,0.057719336017930375,-0.038595368573144814,0.05128513702327496,0.0,0.0,-0.6,0.0,0.0018222332000732422,0.0029413700103759766,0.005897998809814453,0
0.28072547912597656,-0.11900380253791809,-0.09900901466608047,-0.2538388669490814,-0.03411440250523284,-0.5632115818127087,0.04781835232178208,-0.03377823559656474,0.048692496855757376,0.0,0.0,-0.6,0.0,0.002347707748413086,0.003420591354370117,0.006651878356933594,0
0.29102659225463867,-0.11883646249771118,-0.09889908879995346,-0.25580093264579773,-0.03188001843559336,-0.561793735277433,0.03765674136381292,-0.03460701983850775,0.04603975471238033,0.0,0.0,-0.6,0.0,0.0013654232025146484,0.0024161338806152344,0.0056629180908203125,0
0.30004143714904785,-0.11876896023750305,-0.09873448312282562,-0.2577914595603943,-0.029476951255320755,-0.5606892824196642,0.02631044558314357,-0.03583968841844057,0.04328168501940949,0.0,0.0,-0.6,0.0,0.0023529529571533203,0.003660440444946289,0.006688356399536133,0
0.3115105628967285,-0.11867208778858185,-0.09851428866386414,-0.259761244058609,-0.027013250074505415,-0.5597830149407027,0.018012208297252506,-0.03067941948632128,0.040427148291529026,0.0,0.0,-0.6,0.0,0.0014162063598632812,0.002969026565551758,0.0064563751220703125,0
0.32111310958862305,-0.11852756887674332,-0.0983075499534607,-0.26176485419273376,-0.024486971977286064,-0.5588829110114931,0.012518601711303761,-0.023181055865766822,0.03748161829555298,0.0,0.0,-0.6,0.0,0.001344919204711914,0.002895832061767578,0.005929231643676758,0
0.33048129081726074,-0.11835409700870514,-0.09808710962533951,-0.263863205909729,-0.021989355364429936,-0.557889245331636,0.007684083862073924,-0.013257013680220631,0.03448314106855131,0.0,0.0,-0.6,0.0,0.0012211799621582031,0.002062559127807617,0.0049457550048828125,0
0.34002137184143066,-0.11816062033176422,-0.09785126894712448,-0.26609006524086,-0.019394814889746686,-0.5568177235600242,0.003391252423865839,-0.0025125575401210454,0.031411254331642664,0.0,0.0,-0.6,0.0,0.00121307373046875,0.002107858657836914,0.005126237869262695,0
0.35037779808044434,-0.11797583848237991,-0.09764021635055542,-0.2684118449687958,-0.016766912404087835,-0.5557417684079495,0.0032102843789828823,0.006701351223498462,0.02827547018368458,0.0,0.0,-0.6,0.0,0.0019898414611816406,0.0029137134552001953,0.0063800811767578125,0
0.3602442741394043,-0.11785979568958282,-0.09751291573047638,-0.2707175016403198,-0.013957254272303264,-0.5546162753145177,0.005595994841797422,0.012925508405776538,0.02502679948069054,0.0,0.0,-0.6,0.0,0.0016269683837890625,0.0033271312713623047,0.0065844058990478516,0
0.3701474666595459,-0.11779705435037613,-0.0973876491189003,-0.2731773853302002,-0.011162168230754155,-0.5532973179589808,0.004973372752151524,0.017036331741677967,0.021704572723015184,0.0,0.0,-0.6,0.0,0.0021941661834716797,0.0033016204833984375,0.006579399108886719,0
0.3808326721191406,-0.1177477315068245,-0.09717525541782379,-0.2758203148841858,-0.008432092013318597,-0.5519489339459874,0.0007187750761818651,0.023158126664863915,0.018355235411105546,0.0,0.0,-0.6,0.0,0.0018284320831298828,0.0028672218322753906,0.006132364273071289,0
0.39043402671813965,-0.1176067516207695,-0.09692646563053131,-0.2785460352897644,-0.005655936220039255,-0.5507087455791221,-0.0006703427903574409,0.03328895685362777,0.014969640870290521,0.0,0.0,-0.6,0.0,0.0030584335327148438,0.004356861114501953,0.007541656494140625,0
0.40204286575317383,-0.1173698902130127,-0.0967177301645279,-0.2813241183757782,-0.002848895484650367,-0.5495299518323447,0.001402026500756515,0.043630921280648216,0.011547084415946223,0.0,0.0,-0.6,0.0,0.0017857551574707031,0.0028073787689208984,0.006127834320068359,0
0.4118361473083496,-0.11713214218616486,-0.09650352597236633,-0.2841864824295044,-1.0296425588159675e-05,-0.5483969626656062,0.0014112461100183559,0.05000879522928377,0.008086820250756873,0.0,0.0,-0.6,0.0,0.0020689964294433594,0.003139495849609375,0.006417512893676758,0
0.42022275924682617,-0.11713214218616486,-0.09650352597236633,-0.2841864824295044,-1.0296425588159675e-05,-0.5474895005888115,0.0016943266989638544,0.05406333405583463,0.005664635335124378,0.0,0.0,-0.6,0.0,0.00926971435546875,0.010358333587646484,0.01362752914428711,0
0.4371147155761719,-0.11632272601127625,-0.09561838954687119,-0.29314103722572327,0.008799514726196049,-0.5463587751937443,-0.0024074078016407445,0.06245132360830308,0.0006654267122642079,0.0,0.0,-0.6,0.0,0.004167079925537109,0.0051534175872802734,0.007995843887329102,0
0.4471931457519531,-0.11632272601127625,-0.09561838954687119,-0.29314103722572327,0.008799514726196049,-0.5454476499384016,-0.004944589771004024,0.06785162425797713,-0.0028340193237381094,0.0,0.0,-0.6,0.0,0.010540246963500977,0.011795520782470703,0.015546321868896484,0
0.46523189544677734,-0.11542709916830063,-0.09478995203971863,-0.30267128348350525,0.017567703017770248,-0.5442018842009951,-0.010799858463736272,0.07527059866686531,-0.008571702158281003,0.0,0.0,-0.6,0.0,0.003823995590209961,0.005024433135986328,0.00909423828125,0
0.47675657272338867,-0.11542709916830063,-0.09478995203971863,-0.30267128348350525,0.017567703017770248,-0.5431983687770744,-0.014514632181702208,0.07995413376424486,-0.012588080142460885,0.0,0.0,-0.6,0.0,0.0019435882568359375,0.0031824111938476562,0.006509304046630859,0
0.4860262870788574,-0.11487621814012527,-0.09429778903722763,-0.3093428313732147,0.023559890726347198,-0.54196003474072,-0.02263922443312808,0.08662602978532356,-0.01764661512210324,0.0,0.0,-0.6,0.0,0.0014276504516601562,0.0030508041381835938,0.0060689449310302734,0
0.4949798583984375,-0.11487621814012527,-0.09429778903722763,-0.3093428313732147,0.023559890726347198,-0.5409621119190768,-0.02792828220210511,0.09080009497238531,-0.021187589607853535,0.0,0.0,-0.6,0.0,0.0017566680908203125,0.0031833648681640625,0.006768941879272461,0
0.5042285919189453,-0.11417126655578613,-0.09374621510505676,-0.3163001835346222,0.02951555581110025,-0.5396956055668328,-0.031974995531076675,0.10287221422574967,-0.025899646154659443,0.0,0.0,-0.6,0.0,0.0018970966339111328,0.0030210018157958984,0.006197690963745117,0
0.5142867565155029,-0.11417126655578613,-0.09374621510505676,-0.3163001835346222,0.02951555581110025,-0.5386752317658056,-0.03452618661136776,0.11073987043957051,-0.029198085737425196,0.0,0.0,-0.6,0.0,0.0016350746154785156,0.002699136734008789,0.00619959831237793,0
0.5234770774841309,-0.11378995329141617,-0.09345284104347229,-0.3198796808719635,0.03241945655573865,-0.5377090725558518,-0.03563697438960147,0.11899614151966892,-0.03259595622460065,0.0,0.0,-0.6,0.0,0.001535654067993164,0.002710580825805664,0.006357431411743164,0
0.5322988033294678,-0.11342325061559677,-0.09310518950223923,-0.3234894573688507,0.03525809638363343,-0.5367732160247901,-0.035564199431492784,0.12683151412496552,-0.03603895550108104,0.0,0.0,-0.6,0.0,0.001341104507446289,0.002384662628173828,0.0053484439849853516,0
0.540449857711792,-0.11304046213626862,-0.09271859377622604,-0.3271620273590088,0.03802529023512194,-0.5357646742650007,-0.031541740382904526,0.13535111604705047,-0.03948675268892551,0.0,0.0,-0.6,0.0,0.0008802413940429688,0.0017189979553222656,0.0040738582611083984,0
0.5513954162597656,-0.11217381805181503,-0.091945119202137,-0.33476370573043823,0.04370001930273956,-0.5346785898422471,-0.026621915919788033,0.14247080415378402,-0.04402823412077064,0.0,0.0,-0.6,0.0,0.0017614364624023438,0.003084421157836914,0.006960153579711914,0
0.5622217655181885,-0.11170107871294022,-0.09150541573762894,-0.33861348032951355,0.04665157101701395,-0.5337081937894811,-0.025036820443756113,0.1483730540984498,-0.04831410301592283,0.0,0.0,-0.6,0.0,0.0017299652099609375,0.002791881561279297,0.006488800048828125,0
0.5702459812164307,-0.11170107871294022,-0.09150541573762894,-0.33861348032951355,0.04665157101701395,-0.5329326793969721,-0.023782316515330516,0.1521888512494741,-0.05131421124252321,0.0,0.0,-0.6,0.0,0.0019156932830810547,0.003412008285522461,0.0067174434661865234,0
0.5807325839996338,-0.11072824895381927,-0.0907229334115982,-0.346346914768219,0.05232335811794226,-0.5320294435036947,-0.02370188294160757,0.1524325438566663,-0.055541207163994036,0.0,0.0,-0.6,0.0,0.0025246143341064453,0.0035719871520996094,0.006628274917602539,0
0.5915920734405518,-0.1102636307477951,-0.09036244451999664,-0.35022464394569397,0.05530172446731297,-0.5312822493104548,-0.030342084990820202,0.15156426763047243,-0.05961699169003411,0.0,0.0,-0.6,0.0,0.0019488334655761719,0.0030977725982666016,0.006207466125488281,0
0.6003279685974121,-0.1102636307477951,-0.09036244451999664,-0.35022464394569397,0.05530172446731297,-0.5306817416800294,-0.03473333603014913,0.15080843328603838,-0.062470040858265866,0.0,0.0,-0.6,0.0,0.0017766952514648438,0.003174304962158203,0.006277799606323242,0
0.6120893955230713,-0.10916224867105484,-0.08954425901174545,-0.358095645904541,0.061156014993082236,-0.5296424819773767,-0.04016627836033389,0.15559973703993288,-0.06666253422319139,0.0,0.0,-0.6,0.0,0.002034902572631836,0.0030074119567871094,0.006547212600708008,0
0.6199827194213867,-0.10916224867105484,-0.08954425901174545,-0.358095645904541,0.061156014993082236,-0.5288095223607602,-0.04372630379498371,0.15865465300727719,-0.06959727957863943,0.0,0.0,-0.6,0.0,0.0012679100036621094,0.0026350021362304688,0.005909919738769531,0
0.6305418014526367,-0.10791629552841187,-0.08870227634906769,-0.3660973608493805,0.06694339578520533,-0.5280496951507733,-0.0473378542609119,0.15730649953284262,-0.07382186912451004,0.0,0.0,-0.6,0.0,0.0012805461883544922,0.0021300315856933594,0.005463123321533203,0
0.640573263168335,-0.1073286235332489,-0.08822669088840485,-0.37007758021354675,0.06989171186685263,-0.5273701153782062,-0.049377552041958456,0.15634502413580054,-0.07788470033722622,0.0,0.0,-0.6,0.0,0.0010030269622802734,0.0018699169158935547,0.0046520233154296875,0
0.6498315334320068,-0.10669892281293869,-0.08776846528053284,-0.3740712106227875,0.07286222720989462,-0.5266601218691128,-0.04636509757285088,0.15499529043477306,-0.08184262543978205,0.0,0.0,-0.6,0.0,0.002321481704711914,0.003522157669067383,0.006288290023803711,0
0.6609869003295898,-0.10606887191534042,-0.08734418451786041,-0.3781242370605469,0.07578974250964592,-0.5258940741528882,-0.043496657902197776,0.14986767744272259,-0.08571099124896078,0.0,0.0,-0.6,0.0,0.0013580322265625,0.0023627281188964844,0.005511045455932617,0
0.6706385612487793,-0.1054367646574974,-0.08687091618776321,-0.3822445571422577,0.07877551139348186,-0.5251801465100028,-0.047463334112135665,0.14485322992245478,-0.08953851064683106,0.0,0.0,-0.6,0.0,0.0022139549255371094,0.0037925243377685547,0.0069158077239990234,0
0.6810126304626465,-0.10473132878541946,-0.08633773773908615,-0.3863878846168518,0.08169478907100662,-0.5244173206333349,-0.04887251350497593,0.14472978050847152,-0.09331250335440545,0.0,0.0,-0.6,0.0,0.0025377273559570312,0.0035352706909179688,0.006568431854248047,0
0.6901025772094727,-0.10473132878541946,-0.08633773773908615,-0.3863878846168518,0.08169478907100662,-0.5238064738365356,-0.049757400330373375,0.14451910838410048,-0.09595429824970865,0.0,0.0,-0.6,0.0,0.0016741752624511719,0.0027327537536621094,0.006415605545043945,0
0.7056739330291748,-0.10326748341321945,-0.0853475034236908,-0.39465633034706116,0.08721526221782404,-0.5233279301650738,-0.04827004390020197,0.14112481947049021,-0.09987373210648295,0.0,0.0,-0.6,0.0,0.014895200729370117,0.017337560653686523,0.028475046157836914,0
0.7405550479888916,-0.10326748341321945,-0.0853475034236908,-0.39465633034706116,0.08721526221782404,-0.5229442094777422,-0.04720679466895992,0.13874313428254606,-0.10261733580622409,0.0,0.0,-0.6,0.0,0.003272533416748047,0.006432056427001953,0.015415430068969727,0
0.760385274887085,-0.09894117712974548,-0.08215176314115524,-0.41932928562164307,0.1027762338371445,-0.5220023326282883,-0.039488890346712845,0.1342283479841571,-0.1103732227533052,0.0,0.0,-0.6,0.0,0.003993034362792969,0.00811314582824707,0.017096996307373047,0
0.7797379493713379,-0.09894117712974548,-0.08215176314115524,-0.41932928562164307,0.1027762338371445,-0.5212456909546801,-0.034144504552453145,0.13110084514319506,-0.1158023436162374,0.0,0.0,-0.6,0.0,0.004026889801025391,0.008489131927490234,0.01583719253540039,0
0.8053686618804932,-0.09584096819162369,-0.07991788536310196,-0.43575140833854675,0.11267344680861763,-0.5203309443383675,-0.032976171334647066,0.1228600476847457,-0.1233141830846033,0.0,0.0,-0.6,0.0,0.004351615905761719,0.008047819137573242,0.017473459243774414,0
0.8315820693969727,-0.09584096819162369,-0.07991788536310196,-0.43575140833854675,0.11267344680861763,-0.5195945341762027,-0.03208077931944983,0.11719107754900852,-0.1285724707124669,0.0,0.0,-0.6,0.0,0.003691434860229492,0.007634878158569336,0.01741504669189453,0
0.854193925857544,-0.09194133430719376,-0.07710033655166626,-0.4561629891395569,0.12460482636752872,-0.5184720930960921,-0.025826156198297884,0.11289258967187131,-0.13672753938654195,0.0,0.0,-0.6,0.0,0.006123065948486328,0.009820938110351562,0.018541812896728516,0
0.8798537254333496,-0.09194133430719376,-0.07710033655166626,-0.4561629891395569,0.12460482636752872,-0.5175700458308033,-0.02147771130538842,0.10995065763114148,-0.14243608745839692,0.0,0.0,-0.6,0.0,0.0041697025299072266,0.010085821151733398,0.019394397735595703,0
0.9065065383911133,-0.08806286752223969,-0.07432976365089417,-0.4763500392436981,0.13607321754187612,-0.5164865414371898,-0.018133080460017232,0.09170932334966878,-0.1507327177990731,0.0,0.0,-0.6,0.0,0.00545501708984375,0.00892186164855957,0.0165708065032959,0
0.9315052032470703,-0.0858689695596695,-0.07277832180261612,-0.48816224932670593,0.14247438621713093,-0.5155776418723879,-0.012841046513626476,0.07910076246839372,-0.15894079729076707,0.0,0.0,-0.6,0.0,0.004446268081665039,0.00809478759765625,0.018814563751220703,0
0.9544637203216553,-0.0858689695596695,-0.07277832180261612,-0.48816224932670593,0.14247438621713093,-0.514841759463464,-0.009141657019012085,0.0705512356437798,-0.16468645293495532,0.0,0.0,-0.6,0.0,0.003943204879760742,0.008369922637939453,0.014733314514160156,0
0.9748444557189941,-0.08314700424671173,-0.07062923908233643,-0.5038255453109741,0.15033933288601983,-0.5140053501328994,-0.0036595835438307635,0.055507112927949666,-0.1716577668867192,0.0,0.0,-0.6,0.0,0.0034704208374023438,0.007454395294189453,0.012535572052001953,0
0.9943807125091553,-0.08181300014257431,-0.06965275853872299,-0.5114758610725403,0.15414794463142265,-0.5132387947210223,0.0035683164260297317,0.033056458759528895,-0.1779659160574806,0.0,0.0,-0.6,0.0,0.003936290740966797,0.006787776947021484,0.014285802841186523,0
1.017099142074585,-0.08056062459945679,-0.06853051483631134,-0.5190520882606506,0.15779833897924953,-0.5126750212243696,0.001838409202377051,0.01599140086311018,-0.1837505183574492,0.0,0.0,-0.6,0.0,0.004294395446777344,0.007636547088623047,0.016305208206176758,0
1.0421905517578125,-0.07882728427648544,-0.06701817363500595,-0.5300409197807312,0.16318430551871196,-0.5122086154894702,0.0031248789374191486,0.0009013404576276411,-0.18981947741972538,0.0,0.0,-0.6,0.0,0.004925251007080078,0.007463693618774414,0.0168306827545166,0
1.0627453327178955,-0.07882728427648544,-0.06701817363500595,-0.5300409197807312,0.16318430551871196,-0.511831566828839,0.004082621878939771,-0.009381161026983439,-0.1940677487633205,0.0,0.0,-0.6,0.0,0.004690885543823242,0.010317564010620117,0.01627182960510254,0
1.0874691009521484,-0.07623293995857239,-0.06461086869239807,-0.5475497245788574,0.1711748867707632,-0.5114118560038021,-0.0010748242349191547,-0.023984369035050215,-0.20003800667335458,0.0,0.0,-0.6,0.0,0.0054607391357421875,0.009247303009033203,0.018988847732543945,0
1.111973762512207,-0.07623293995857239,-0.06461086869239807,-0.5475497245788574,0.1711748867707632,-0.5110728802744555,-0.004510216707807351,-0.03396326035519587,-0.20421718721038024,0.0,0.0,-0.6,0.0,0.00414276123046875,0.007372856140136719,0.020007848739624023,0
1.1415977478027344,-0.07427030056715012,-0.062422074377536774,-0.5638368725776672,0.17888946852321216,-0.5109551204446934,0.005202864352502783,-0.05635413169158811,-0.2100355817434649,0.0,0.0,-0.6,0.0,0.0042438507080078125,0.007260322570800781,0.015823841094970703,0
1.1601300239562988,-0.07427030056715012,-0.062422074377536774,-0.5638368725776672,0.17888946852321216,-0.5108615894558273,0.011910974093616213,-0.07159605541426943,-0.21410845791662592,0.0,0.0,-0.6,0.0,0.006573915481567383,0.010309934616088867,0.017070770263671875,0
1.1956498622894287,-0.07305483520030975,-0.06068757548928261,-0.5761387348175049,0.18477239607157375,-0.510823593865557,0.005136215068082892,-0.0931251350148542,-0.21916556906847323,0.0,0.0,-0.6,0.0,0.005599021911621094,0.008966684341430664,0.013775110244750977,0
1.2173738479614258,-0.07245040684938431,-0.059238582849502563,-0.5874747633934021,0.18997069828019064,-0.5106541654086049,0.004214623111690402,-0.10746439568558412,-0.22465491020299727,0.0,0.0,-0.6,0.0,0.0018672943115234375,0.004865884780883789,0.011997699737548828,0
1.234656572341919,-0.07245040684938431,-0.059238582849502563,-0.5874747633934021,0.18997069828019064,-0.5105248192987963,0.0036464822052839517,-0.11726461245660588,-0.22849744899716573,0.0,0.0,-0.6,0.0,0.0025718212127685547,0.00490117073059082,0.013164520263671875,0
1.2543632984161377,-0.07200358062982559,-0.05805528908967972,-0.5957330465316772,0.1931751487945687,-0.5106092994260724,0.001166000899504944,-0.12676972909716042,-0.23238889509597538,0.0,0.0,-0.6,0.0,0.0033195018768310547,0.006633281707763672,0.014199495315551758,0
1.2734615802764893,-0.07182130217552185,-0.056963734328746796,-0.603613018989563,0.19635418354121817,-0.5107424986296242,0.006895637958714931,-0.1391778150431002,-0.23630504539513567,0.0,0.0,-0.6,0.0,0.003994941711425781,0.0077326297760009766,0.016342878341674805,0
1.2942500114440918,-0.07182130217552185,-0.056963734328746796,-0.603613018989563,0.19635418354121817,-0.5108607360452997,0.010830371678804674,-0.14761181418615202,-0.23904635060454904,0.0,0.0,-0.6,0.0,0.00342559814453125,0.00704646110534668,0.01585698127746582,0
1.3150544166564941,-0.07174736261367798,-0.05555035546422005,-0.6136103868484497,0.20009420331702235,-0.5111438451835061,0.012156791965656295,-0.14579394698242482,-0.24236777166706439,0.0,0.0,-0.6,0.0,0.0039539337158203125,0.007635354995727539,0.01661992073059082,0
1.3371288776397705,-0.07174736261367798,-0.05555035546422005,-0.6136103868484497,0.20009420331702235,-0.5113693360160123,0.013041570010382447,-0.14447619299807551,-0.24469276641082613,0.0,0.0,-0.6,0.0,0.004439353942871094,0.0071375370025634766,0.016284704208374023,0
1.3579671382904053,-0.07199937105178833,-0.05418338626623154,-0.6227617263793945,0.2032740843446697,-0.511583858335121,0.007820711042593432,-0.13641370245970774,-0.2475127181168266,0.0,0.0,-0.6,0.0,0.003561258316040039,0.006577253341674805,0.014336824417114258,0
1.3784570693969727,-0.07199937105178833,-0.05418338626623154,-0.6227617263793945,0.2032740843446697,-0.5117433268700491,0.004230480468929581,-0.13084885105084487,-0.24948668431102777,0.0,0.0,-0.6,0.0,0.004430532455444336,0.008046150207519531,0.015003204345703125,0
1.3994061946868896,-0.07233039289712906,-0.05283049866557121,-0.6313812136650085,0.20571776987613005,-0.5121924041129269,0.006392337739138181,-0.11665275753804878,-0.25178484272126594,0.0,0.0,-0.6,0.0,0.006650209426879883,0.009829044342041016,0.01842188835144043,0
1.4219276905059814,-0.07268698513507843,-0.05176367983222008,-0.6373693346977234,0.20750006889123793,-0.5126761616674268,0.003015181981211552,-0.1039903799002427,-0.2540619157390981,0.0,0.0,-0.6,0.0,0.0026292800903320312,0.004864692687988281,0.010917425155639648,0
1.4361402988433838,-0.07268698513507843,-0.05176367983222008,-0.6373693346977234,0.20750006889123793,-0.5130445121726354,0.0006590849480690663,-0.09515644157926803,-0.2556558668515813,0.0,0.0,-0.6,0.0,0.002377033233642578,0.0047647953033447266,0.010161876678466797,0
1.450899600982666,-0.07303382456302643,-0.05071394890546799,-0.6431249380111694,0.20886159804473653,-0.5137627367166473,-0.0005917498610482868,-0.08084586727322628,-0.2572822060628815,0.0,0.0,-0.6,0.0,0.0023148059844970703,0.004442930221557617,0.009852409362792969,0
1.4632928371429443,-0.07303382456302643,-0.05071394890546799,-0.6431249380111694,0.20886159804473653,-0.5143176224888695,-0.0015053624090538042,-0.07078280065851032,-0.2584206435107921,0.0,0.0,-0.6,0.0,0.0022056102752685547,0.004038810729980469,0.00896310806274414,0
1.4766786098480225,-0.07327520102262497,-0.05006486549973488,-0.6467494964599609,0.2095769919236799,-0.514632236394216,-0.0024234848210681753,-0.05501513259339412,-0.25948582242893337,0.0,0.0,-0.6,0.0,0.002673625946044922,0.005133152008056641,0.010438680648803711,0
1.4895248413085938,-0.07327520102262497,-0.05006486549973488,-0.6467494964599609,0.2095769919236799,-0.5148625811600647,-0.0030799669659554666,-0.044122735761046486,-0.2602314476716326,0.0,0.0,-0.6,0.0,0.0027437210083007812,0.0052642822265625,0.010781526565551758,0
1.5051369667053223,-0.07359150052070618,-0.048958003520965576,-0.6520971059799194,0.21054358037523016,-0.5151291414244566,-0.008300376248164779,-0.025216574342323946,-0.2611158560108409,0.0,0.0,-0.6,0.0,0.0024390220642089844,0.004691600799560547,0.010111570358276367,0
1.5192863941192627,-0.07359150052070618,-0.048958003520965576,-0.6520971059799194,0.21054358037523016,-0.5153171319431575,-0.011890460765332764,-0.01220202501019366,-0.2617349418482993,0.0,0.0,-0.6,0.0,0.002452850341796875,0.004748821258544922,0.010478496551513672,0
1.534123420715332,-0.07394597679376602,-0.047909121960401535,-0.6570215225219727,0.21110627899254183,-0.5157419400308572,-0.01003058120105092,-0.0006762541308354842,-0.2623793139160031,0.0,0.0,-0.6,0.0,0.002626657485961914,0.0048406124114990234,0.010801553726196289,0
1.5483028888702393,-0.07394597679376602,-0.047909121960401535,-0.6570215225219727,0.21110627899254183,-0.5160700852708617,-0.008783711192827415,0.0073519129359902145,-0.26283037436341117,0.0,0.0,-0.6,0.0,0.002712249755859375,0.004967451095581055,0.009860754013061523,0
1.5626587867736816,-0.07415097206830978,-0.04681092128157616,-0.6617689728736877,0.21163444068528633,-0.5163704720640736,-0.008014138128696006,0.01973564094777946,-0.26334417731136966,0.0,0.0,-0.6,0.0,0.0023119449615478516,0.0042209625244140625,0.009938478469848633,0
1.5749871730804443,-0.07415097206830978,-0.04681092128157616,-0.6617689728736877,0.21163444068528633,-0.5165985976030333,-0.0075060688531386685,0.028303556143649593,-0.26370383937493574,0.0,0.0,-0.6,0.0,0.0026216506958007812,0.0049571990966796875,0.010066509246826172,0
1.5882713794708252,-0.07432871311903,-0.045772649347782135,-0.6661006212234497,0.2118603560761695,-0.5168536976122603,-0.009191489425843542,0.036310597306011445,-0.2640403210910182,0.0,0.0,-0.6,0.0,0.0023009777069091797,0.004688739776611328,0.009406328201293945,0
1.6021225452423096,-0.07432871311903,-0.045772649347782135,-0.6661006212234497,0.2118603560761695,-0.5170510566121932,-0.01035222286878113,0.04186867668194681,-0.26427585829227607,0.0,0.0,-0.6,0.0,0.0027840137481689453,0.005151033401489258,0.010963678359985352,0
1.6172609329223633,-0.07431423664093018,-0.04472839832305908,-0.6701706647872925,0.21184622783746232,-0.517165915781028,-0.010114735424184193,0.06410372831364045,-0.26443543624364146,0.0,0.0,-0.6,0.0,0.002544403076171875,0.004539966583251953,0.008896350860595703,0
1.629687786102295,-0.07431423664093018,-0.04472839832305908,-0.6701706647872925,0.21184622783746232,-0.5172362561986118,-0.009959663271999139,0.07932883451173656,-0.2645471408095973,0.0,0.0,-0.6,0.0,0.0024650096893310547,0.00484013557434082,0.010001659393310547,0
1.6435494422912598,-0.07429186254739761,-0.044030990451574326,-0.672733724117279,0.21174906807177654,-0.5174688579740447,-0.008017030831938401,0.0897327099906607,-0.26458889909363426,0.0,0.0,-0.6,0.0,0.0022764205932617188,0.004458189010620117,0.009794950485229492,0
1.6557552814483643,-0.07429186254739761,-0.044030990451574326,-0.672733724117279,0.21174906807177654,-0.5176491312537902,-0.00669884619916278,0.09690580481005556,-0.26461812989246014,0.0,0.0,-0.6,0.0,0.002511739730834961,0.004708290100097656,0.009721994400024414,0
1.668656349182129,-0.0740307867527008,-0.043012477457523346,-0.6764538288116455,0.21155133384850186,-0.5177472571940497,-0.004942515004665411,0.10392120375439343,-0.26456444111791033,0.0,0.0,-0.6,0.0,0.002206563949584961,0.004175662994384766,0.008755207061767578,0
1.6815145015716553,-0.0740307867527008,-0.043012477457523346,-0.6764538288116455,0.21155133384850186,-0.5178225903581748,-0.0037465235615386132,0.1087383193403399,-0.2645268589757255,0.0,0.0,-0.6,0.0,0.0017132759094238281,0.0030798912048339844,0.008283615112304688,0
1.6937644481658936,-0.07363978773355484,-0.04228964075446129,-0.6788083910942078,0.211309755012777,-0.5179913307954056,0.0005385292107893428,0.11925320158970602,-0.2644099594127993,0.0,0.0,-0.6,0.0,0.0019974708557128906,0.004288196563720703,0.00927877426147461,0
1.7056262493133545,-0.07334501296281815,-0.04158046469092369,-0.6810872554779053,0.21104522667071143,-0.5180915547799263,0.0016532357610152771,0.13397440724393117,-0.2642289315904765,0.0,0.0,-0.6,0.0,0.002467632293701172,0.005225419998168945,0.010152101516723633,0
1.726125955581665,-0.07334501296281815,-0.04158046469092369,-0.6810872554779053,0.21104522667071143,-0.5181659678483196,0.0024118836764923527,0.1440498982073785,-0.2641022121148522,0.0,0.0,-0.6,0.0,0.003945589065551758,0.007735252380371094,0.016245126724243164,0
1.7472360134124756,-0.07242363691329956,-0.04000943526625633,-0.6858104467391968,0.21000203086073937,-0.5182316931761474,-0.0012962822030808505,0.14710094406549568,-0.26362231005317427,0.0,0.0,-0.6,0.0,0.0018732547760009766,0.004529714584350586,0.014414787292480469,0
1.7628586292266846,-0.07242363691329956,-0.04000943526625633,-0.6858104467391968,0.21000203086073937,-0.5182838816089959,-0.003827565875917421,0.14919863326939387,-0.2632863786099996,0.0,0.0,-0.6,0.0,0.0013227462768554688,0.0022215843200683594,0.0043485164642333984,0
1.7698142528533936,-0.07183932512998581,-0.03920803964138031,-0.6881359219551086,0.20938896063718718,-0.5182457911253202,0.0029577034022840653,0.15546470506316337,-0.26282132526594537,0.0,0.0,-0.6,0.0,0.0011692047119140625,0.00202178955078125,0.0040683746337890625,0
1.7798476219177246,-0.07153627276420593,-0.03879193589091301,-0.6893302798271179,0.20909853959321711,-0.5182594443454821,0.006139850966214619,0.15662777146226162,-0.2623868800336186,0.0,0.0,-0.6,0.0,0.0014345645904541016,0.004056692123413086,0.006823539733886719,0
1.7922351360321045,-0.07122451066970825,-0.03831980749964714,-0.6905139088630676,0.20877769176991318,-0.5183025104440787,0.004840308045843034,0.15787709771140584,-0.26196245043725674,0.0,0.0,-0.6,0.0,0.0025925636291503906,0.004988193511962891,0.010494470596313477,0
1.8057641983032227,-0.07122451066970825,-0.03831980749964714,-0.6905139088630676,0.20877769176991318,-0.5183370735822901,0.003952445854330529,0.15873717835294948,-0.2616653497197975,0.0,0.0,-0.6,0.0,0.0024034976959228516,0.004803180694580078,0.010525226593017578,0
1.821608304977417,-0.07014884054660797,-0.03699669614434242,-0.6940637230873108,0.2077329437728096,-0.518272289090648,-0.0006117141990172941,0.15469511842759798,-0.26106559871865415,0.0,0.0,-0.6,0.0,0.002106189727783203,0.003935813903808594,0.009583234786987305,0
1.834104299545288,-0.07014884054660797,-0.03699669614434242,-0.6940637230873108,0.2077329437728096,-0.518218859754738,-0.003724998882375889,0.15193121172488297,-0.2606457730178619,0.0,0.0,-0.6,0.0,0.002397775650024414,0.0047452449798583984,0.010242462158203125,0
1.8490586280822754,-0.06884138286113739,-0.03566093370318413,-0.6975026726722717,0.20645378159981811,-0.5182184635157404,-0.004881618201153024,0.1520017135179691,-0.2598722092124359,0.0,0.0,-0.6,0.0,0.002862215042114258,0.005186319351196289,0.010634183883666992,0
1.8623838424682617,-0.06884138286113739,-0.03566093370318413,-0.6975026726722717,0.20645378159981811,-0.5182181719811693,-0.0056705512611021245,0.1520503008493542,-0.2593307145486375,0.0,0.0,-0.6,0.0,0.0024890899658203125,0.004659414291381836,0.010006904602050781,0
1.8755669593811035,-0.06750805675983429,-0.034250658005476,-0.7008265852928162,0.2051226026779838,-0.5181690946533438,0.005073383803375654,0.14721608261931868,-0.25845247618829104,0.0,0.0,-0.6,0.0,0.00266265869140625,0.005220890045166016,0.010390758514404297,0
1.8894636631011963,-0.06750805675983429,-0.034250658005476,-0.7008265852928162,0.2051226026779838,-0.5181265449030814,0.012401378965930725,0.14391054610186216,-0.25783770933604827,0.0,0.0,-0.6,0.0,0.002672910690307617,0.00492095947265625,0.010268688201904297,0
1.903350830078125,-0.0659666508436203,-0.03282478079199791,-0.7040705680847168,0.20367743383727777,-0.5182060061263932,0.003648822795348618,0.13368960422535808,-0.25686543422422736,0.0,0.0,-0.6,0.0,0.0017232894897460938,0.0032596588134765625,0.008422374725341797,0
1.916151762008667,-0.0659666508436203,-0.03282478079199791,-0.7040705680847168,0.20367743383727777,-0.5182625310295359,-0.0023331129732437443,0.1267268836841167,-0.25618484164593897,0.0,0.0,-0.6,0.0,0.0020661354064941406,0.0034351348876953125,0.008664369583129883,0
1.9269499778747559,-0.06493298709392548,-0.03199387341737747,-0.7061276435852051,0.2027715711806907,-0.5183298907131251,-0.005978695139169335,0.11575966573709627,-0.2553687283449171,0.0,0.0,-0.6,0.0,0.0023224353790283203,0.004443168640136719,0.009136438369750977,0
1.9423904418945312,-0.06493298709392548,-0.03199387341737747,-0.7061276435852051,0.2027715711806907,-0.5183789353967099,-0.008472408298247145,0.10828333730330744,-0.25479744903420154,0.0,0.0,-0.6,0.0,0.002651691436767578,0.004504680633544922,0.012308835983276367,0
1.9557297229766846,-0.06383249908685684,-0.031059272587299347,-0.7081141471862793,0.20181184109061484,-0.5182601737985123,-0.004956375472332029,0.11136259333982491,-0.25403765473291184,0.0,0.0,-0.6,0.0,0.0023775100708007812,0.004853010177612305,0.010059356689453125,0
1.969289779663086,-0.06277085095643997,-0.030196217820048332,-0.7100750803947449,0.20063977677594552,-0.5182115851987433,-0.004531588711522166,0.1027226042342531,-0.2530662746040188,0.0,0.0,-0.6,0.0,0.002453327178955078,0.0047070980072021484,0.008561849594116211,0
1.9818525314331055,-0.06162932515144348,-0.0293095875531435,-0.7119315266609192,0.19956068877369212,-0.5181460850342621,-0.0013163687327939991,0.09205832482865822,-0.2519816505129488,0.0,0.0,-0.6,0.0,0.002759695053100586,0.005029201507568359,0.009975671768188477,0
1.9959819316864014,-0.06162932515144348,-0.0293095875531435,-0.7119315266609192,0.19956068877369212,-0.5180889260985213,0.000871434845302848,0.08478093264893816,-0.25122241364919945,0.0,0.0,-0.6,0.0,0.002435922622680664,0.004754543304443359,0.010053396224975586,0
2.0089991092681885,-0.05987954139709473,-0.027926888316869736,-0.7147704362869263,0.19795166092522834,-0.5181620929785633,-0.0010332415143145513,0.07474193192221824,-0.2500875624014014,0.0,0.0,-0.6,0.0,0.0024967193603515625,0.004394054412841797,0.009044170379638672,0
2.0233616828918457,-0.05987954139709473,-0.027926888316869736,-0.7147704362869263,0.19795166092522834,-0.5182170089565779,-0.002341798879292205,0.06789561789129017,-0.2492931665279424,0.0,0.0,-0.6,0.0,0.002352476119995117,0.0043430328369140625,0.009582996368408203,0
2.036032199859619,-0.05874677374958992,-0.02712252177298069,-0.7165572047233582,0.19687085039059943,-0.5181745670852288,-0.001994759935898156,0.058211661606405264,-0.2483317854660354,0.0,0.0,-0.6,0.0,0.0017135143280029297,0.003062009811401367,0.006727457046508789,0
2.0457592010498047,-0.05874677374958992,-0.02712252177298069,-0.7165572047233582,0.19687085039059943,-0.5181379617818186,-0.001762619585329639,0.05160425060811661,-0.24765881872270024,0.0,0.0,-0.6,0.0,0.0024759769439697266,0.004449367523193359,0.009710550308227539,0
2.059115409851074,-0.057605911046266556,-0.026233268901705742,-0.7183520197868347,0.19567356095562394,-0.5179196861754752,-0.0004786130238437702,0.05533432281571103,-0.24673875846425006,0.0,0.0,-0.6,0.0,0.0038094520568847656,0.005683183670043945,0.010816335678100586,0
2.074091911315918,-0.05646100267767906,-0.02543078176677227,-0.7200958728790283,0.19455502611429218,-0.5178719885197267,-0.006044469806422634,0.047473762810531554,-0.24567526571783568,0.0,0.0,-0.6,0.0,0.0020956993103027344,0.004137277603149414,0.009646415710449219,0
2.087491035461426,-0.05646100267767906,-0.02543078176677227,-0.7200958728790283,0.19455502611429218,-0.517831270825208,-0.009845077514206609,0.04211449744288955,-0.24493082079534528,0.0,0.0,-0.6,0.0,0.002487659454345703,0.004933357238769531,0.010401725769042969,0
2.1008691787719727,-0.05484621971845627,-0.0242279302328825,-0.7225313782691956,0.1928410135617355,-0.5177869038498324,-0.006511276325218182,0.0296940767471561,-0.24376695464239367,0.0,0.0,-0.6,0.0,0.0019271373748779297,0.004193305969238281,0.009469747543334961,0
2.115229606628418,-0.05484621971845627,-0.0242279302328825,-0.7225313782691956,0.1928410135617355,-0.517748523538284,-0.004245228537580125,0.02121823854819614,-0.2429522483353272,0.0,0.0,-0.6,0.0,0.005307435989379883,0.006560087203979492,0.011710643768310547,0
2.129668951034546,-0.05314842239022255,-0.022961419075727463,-0.7249101996421814,0.1910689036662261,-0.5177440784578531,-0.0008089263091692598,0.018209565792235437,-0.24171741270956504,0.0,0.0,-0.6,0.0,0.002266407012939453,0.0044825077056884766,0.009223222732543945,0
2.142686367034912,-0.05314842239022255,-0.022961419075727463,-0.7249101996421814,0.1910689036662261,-0.5177405581883485,0.0015332780150650008,0.01615419207293288,-0.24085302777153117,0.0,0.0,-0.6,0.0,0.0025794506072998047,0.004715442657470703,0.01006937026977539,0
2.1567535400390625,-0.05225779861211777,-0.02217179164290428,-0.7263108491897583,0.18985543617583064,-0.517870795521366,-0.0031221587143436097,0.011132145886487763,-0.23979290800600936,0.0,0.0,-0.6,0.0,0.002418994903564453,0.00492548942565918,0.010244369506835938,0
2.16961407661438,-0.05125661566853523,-0.021456770598888397,-0.7277018427848816,0.18851881994747252,-0.5177227855830407,-0.006489725970025369,0.009051180390072282,-0.23854959308451,0.0,0.0,-0.6,0.0,0.0024106502532958984,0.004384040832519531,0.00912928581237793,0
2.1826789379119873,-0.05125661566853523,-0.021456770598888397,-0.7277018427848816,0.18851881994747252,-0.5176040075586645,-0.00878528374042616,0.0076280889750689924,-0.23767927263946007,0.0,0.0,-0.6,0.0,0.002256631851196289,0.003887653350830078,0.008822441101074219,0
2.1957027912139893,-0.05041103810071945,-0.020687762647867203,-0.7289668321609497,0.18714496352087365,-0.5178172844867396,-0.014965570302246147,0.00287075987249631,-0.2365548521679508,0.0,0.0,-0.6,0.0,0.0023567676544189453,0.003927946090698242,0.009271860122680664,0
2.207512378692627,-0.04962257668375969,-0.02010175958275795,-0.7300707101821899,0.18576363569630935,-0.5179909542691318,-0.009954778048358134,-0.009005517944406016,-0.23524975990368288,0.0,0.0,-0.6,0.0,0.0014925003051757812,0.0037469863891601562,0.007497310638427734,0
2.2201759815216064,-0.04962257668375969,-0.02010175958275795,-0.7300707101821899,0.18576363569630935,-0.5181297716285228,-0.0065456648967595205,-0.01710627643282553,-0.23433619531869493,0.0,0.0,-0.6,0.0,0.0026094913482666016,0.004484415054321289,0.009987831115722656,0
2.233396530151367,-0.04894878342747688,-0.01939130388200283,-0.7311576008796692,0.1843021914159937,-0.5182182538768947,-0.00311360592086063,-0.018775191782205235,-0.23314865850408525,0.0,0.0,-0.6,0.0,0.0022106170654296875,0.003933906555175781,0.009377002716064453,0
2.2467479705810547,-0.04894878342747688,-0.01939130388200283,-0.7311576008796692,0.1843021914159937,-0.518289623494045,-0.0007756339508040062,-0.01991073097258178,-0.23231738273385813,0.0,0.0,-0.6,0.0,0.0020589828491210938,0.004023551940917969,0.009473323822021484,0
2.260100841522217,-0.048032112419605255,-0.018548762425780296,-0.7325668931007385,0.1822461245782529,-0.518466023212983,-0.010209865929406573,-0.0320095097403172,-0.23096446463054687,0.0,0.0,-0.6,0.0,0.00264739990234375,0.0049130916595458984,0.010383129119873047,0
2.272832155227661,-0.048032112419605255,-0.018548762425780296,-0.7325668931007385,0.1822461245782529,-0.5186072907531438,-0.016664224553762052,-0.040249202571829734,-0.23001742195822858,0.0,0.0,-0.6,0.0,0.0024678707122802734,0.004686117172241211,0.01005101203918457,0
2.2864270210266113,-0.047207966446876526,-0.01775999180972576,-0.7338396310806274,0.18019953183937024,-0.5186412367694959,-0.016899724443361186,-0.03838502793653029,-0.2285870198105253,0.0,0.0,-0.6,0.0,0.0025174617767333984,0.004860877990722656,0.009755611419677734,0
2.2992019653320312,-0.047207966446876526,-0.01775999180972576,-0.7338396310806274,0.18019953183937024,-0.5186676999043506,-0.017059496154241963,-0.03710983979969015,-0.22758573830713255,0.0,0.0,-0.6,0.0,0.0025806427001953125,0.004639863967895508,0.009981155395507812,0
2.314929246902466,-0.04662672057747841,-0.017136259004473686,-0.734599769115448,0.17868239133525687,-0.5187148561858813,-0.013418286027352736,-0.0390210273495818,-0.22631591356571537,0.0,0.0,-0.6,0.0,0.0016627311706542969,0.003448009490966797,0.008310317993164062,0
2.3255627155303955,-0.04662672057747841,-0.017136259004473686,-0.734599769115448,0.17868239133525687,-0.5187530880816877,-0.010936074952949177,-0.04032388643112526,-0.22542703624672297,0.0,0.0,-0.6,0.0,0.002167940139770508,0.004549980163574219,0.009500980377197266,0
2.3402481079101562,-0.04610159993171692,-0.016240613535046577,-0.7354781031608582,0.17646617912269996,-0.5188953116824622,-0.010578423656521438,-0.04566880175035055,-0.22397374254372002,0.0,0.0,-0.6,0.0,0.002193450927734375,0.0043048858642578125,0.009479522705078125,0
2.351490020751953,-0.04610159993171692,-0.016240613535046577,-0.7354781031608582,0.17646617912269996,-0.519011241079145,-0.010342981954209015,-0.04930401464822686,-0.22295643695161751,0.0,0.0,-0.6,0.0,0.0021092891693115234,0.004342555999755859,0.007830142974853516,0
2.363710880279541,-0.04567563533782959,-0.015689454972743988,-0.7361286878585815,0.17507830783364314,-0.5192238610062555,-0.01199074662083085,-0.057017323941266435,-0.22172387130374968,0.0,0.0,-0.6,0.0,0.0018815994262695312,0.0033941268920898438,0.008546113967895508,0
2.3748273849487305,-0.04567563533782959,-0.015689454972743988,-0.7361286878585815,0.17507830783364314,-0.519397637102412,-0.013125893187096383,-0.062256721285021396,-0.2208610753502418,0.0,0.0,-0.6,0.0,0.0029561519622802734,0.0062334537506103516,0.011403799057006836,0
2.3889400959014893,-0.045277275145053864,-0.014933685772120953,-0.7367175817489624,0.17286272163861482,-0.5197042233454034,-0.012615835652556303,-0.0630925465999257,-0.21942627335965126,0.0,0.0,-0.6,0.0,0.0015549659729003906,0.0029115676879882812,0.0066509246826171875,0
2.3989243507385254,-0.045277275145053864,-0.014933685772120953,-0.7367175817489624,0.17286272163861482,-0.5199503945231635,-0.012273392334121351,-0.06361697943247027,-0.21842191196623742,0.0,0.0,-0.6,0.0,0.0017726421356201172,0.003292560577392578,0.007410764694213867,0
2.4094600677490234,-0.04518415406346321,-0.014423315413296223,-0.7370896935462952,0.17123583009654905,-0.5200317352124557,-0.013054389189413287,-0.055742780530911355,-0.2171087746625734,0.0,0.0,-0.6,0.0,0.0017621517181396484,0.003211498260498047,0.007291555404663086,0
2.420245885848999,-0.04518415406346321,-0.014423315413296223,-0.7370896935462952,0.17123583009654905,-0.5200910695820604,-0.01358382582189139,-0.05035455568830966,-0.21618957855000817,0.0,0.0,-0.6,0.0,0.001963376998901367,0.0035729408264160156,0.00781559944152832,0
2.4312005043029785,-0.04501917213201523,-0.014031843282282352,-0.737373948097229,0.16956295252067388,-0.5202246933408938,-0.016981685957628688,-0.052133539940183715,-0.21491881218025968,0.0,0.0,-0.6,0.0,0.001859903335571289,0.00350189208984375,0.007487773895263672,0
2.4427247047424316,-0.045038945972919464,-0.013811517506837845,-0.7374333739280701,0.16876648216789344,-0.5204961994913612,-0.01928606626765619,-0.056818077412391865,-0.21373059933914298,0.0,0.0,-0.6,0.0,0.001749277114868164,0.003304004669189453,0.007481813430786133,0
2.4533021450042725,-0.04510940983891487,-0.01346692442893982,-0.7374882698059082,0.16714723027720868,-0.5205651363156301,-0.013199985871462348,-0.06170158770109719,-0.21229163089135478,0.0,0.0,-0.6,0.0,0.0017719268798828125,0.003282785415649414,0.007359743118286133,0
2.463881015777588,-0.04510940983891487,-0.01346692442893982,-0.7374882698059082,0.16714723027720868,-0.5206227148493549,-0.009051528297782732,-0.06502912476620258,-0.2112843529779026,0.0,0.0,-0.6,0.0,0.0018589496612548828,0.00356292724609375,0.00752568244934082,0
2.4745733737945557,-0.04518676549196243,-0.013112657703459263,-0.737586498260498,0.1655716363721925,-0.5209329424153802,-0.008568185205338126,-0.06417568077761429,-0.2099884107241053,0.0,0.0,-0.6,0.0,0.0016183853149414062,0.0032317638397216797,0.0073833465576171875,0
2.485333204269409,-0.04518676549196243,-0.013112657703459263,-0.737586498260498,0.1655716363721925,-0.5211807709968036,-0.0082442853210618,-0.06353339124162169,-0.2090812511464468,0.0,0.0,-0.6,0.0,0.0014913082122802734,0.0028076171875,0.006814718246459961,0
2.4948201179504395,-0.04530315846204758,-0.012811345979571342,-0.7375762462615967,0.1638487872763758,-0.5213414390070935,-0.00457001934147506,-0.06417678005387142,-0.20780017103115495,0.0,0.0,-0.6,0.0,0.002063751220703125,0.0037713050842285156,0.007601499557495117,0
2.5057737827301025,-0.04530315846204758,-0.012811345979571342,-0.7375762462615967,0.1638487872763758,-0.5214705496716415,-0.0020659496750513357,-0.06458688537785102,-0.20690341495045028,0.0,0.0,-0.6,0.0,0.0017175674438476562,0.003359556198120117,0.007468700408935547,0
2.5173027515411377,-0.04563581198453903,-0.012549660168588161,-0.737468421459198,0.16213052459271696,-0.5215262788060965,-0.004570230941132489,-0.05883548281175187,-0.20563133718758533,0.0,0.0,-0.6,0.0,0.0017304420471191406,0.003258943557739258,0.007489204406738281,0
2.5278615951538086,-0.04563581198453903,-0.012549660168588161,-0.737468421459198,0.16213052459271696,-0.521565741162443,-0.0062776694141308985,-0.05489505533117515,-0.20474088275357946,0.0,0.0,-0.6,0.0,0.0017809867858886719,0.003387451171875,0.007297039031982422,0
2.5384631156921387,-0.045877162367105484,-0.012367968447506428,-0.7374110221862793,0.16037000275819158,-0.5215509141836446,-0.007290667633168293,-0.056370863933129026,-0.20345736896182876,0.0,0.0,-0.6,0.0,0.0016393661499023438,0.003185749053955078,0.007513523101806641,0
2.5492806434631348,-0.045877162367105484,-0.012367968447506428,-0.7374110221862793,0.16037000275819158,-0.5215401079479384,-0.007983406736209493,-0.057380724967612505,-0.20255890930760287,0.0,0.0,-0.6,0.0,0.0017290115356445312,0.0032694339752197266,0.007325410842895508,0
2.560039758682251,-0.04646018147468567,-0.012098340317606926,-0.737125039100647,0.15769197027122603,-0.5217106361745432,-0.005270825052073299,-0.058475809259299065,-0.2009257253670334,0.0,0.0,-0.6,0.0,0.0021822452545166016,0.003800630569458008,0.008116006851196289,0
2.5715248584747314,-0.04646018147468567,-0.012098340317606926,-0.737125039100647,0.15769197027122603,-0.5218480481835702,-0.003423915679368201,-0.05918986234929841,-0.19978249660863429,0.0,0.0,-0.6,0.0,0.001997232437133789,0.0035512447357177734,0.007615566253662109,0
2.5821053981781006,-0.04670350253582001,-0.01204148679971695,-0.7370491027832031,0.15687986550389113,-0.5218627297449827,0.0011908843145033788,-0.06097477605988741,-0.19867769719000428,0.0,0.0,-0.6,0.0,0.0016813278198242188,0.0030608177185058594,0.0069580078125,0
2.592477798461914,-0.04707052931189537,-0.01172911562025547,-0.7369434237480164,0.15522755760021098,-0.5219352468422876,0.006659197721921737,-0.05980121491189173,-0.1972847221330835,0.0,0.0,-0.6,0.0,0.001596212387084961,0.0029189586639404297,0.006720542907714844,0
2.6018006801605225,-0.04707052931189537,-0.01172911562025547,-0.7369434237480164,0.15522755760021098,-0.5219925599635035,0.010388813209209046,-0.05898833498801145,-0.19630963959323855,0.0,0.0,-0.6,0.0,0.001773834228515625,0.003418445587158203,0.007615804672241211,0
2.6133921146392822,-0.04707052931189537,-0.01172911562025547,-0.7369434237480164,0.15522755760021098,-0.5220381777310346,0.012931516766315236,-0.058422918680434865,-0.19562708181534677,0.0,0.0,-0.6,0.0,0.0017840862274169922,0.003537893295288086,0.007856607437133789,0
2.6244242191314697,-0.04763683304190636,-0.011229406110942364,-0.7367058992385864,0.15272679958770385,-0.5221601374447942,0.0045557428741799435,-0.06117139871898607,-0.1942115071161331,0.0,0.0,-0.6,0.0,0.0018970966339111328,0.003347635269165039,0.0073773860931396484,0
2.635071039199829,-0.04763683304190636,-0.011229406110942364,-0.7367058992385864,0.15272679958770385,-0.5222578717381171,-0.0011712219637577403,-0.06301296012078958,-0.1932206048266831,0.0,0.0,-0.6,0.0,0.0022001266479492188,0.0037178993225097656,0.0077915191650390625,0
2.645944833755493,-0.04801561310887337,-0.010922939516603947,-0.7366319894790649,0.1511556491711726,-0.5221477189355354,-0.005410389695739492,-0.059329121632342864,-0.19193779181786919,0.0,0.0,-0.6,0.0,0.001699686050415039,0.0031571388244628906,0.007281303405761719,0
2.6564269065856934,-0.04801561310887337,-0.010922939516603947,-0.7366319894790649,0.1511556491711726,-0.5220554846921989,-0.008297982620202472,-0.056837694007818865,-0.19103982271169906,0.0,0.0,-0.6,0.0,0.001836538314819336,0.0034177303314208984,0.007683277130126953,0
2.667290449142456,-0.04834242910146713,-0.010507343336939812,-0.7365127801895142,0.14953707280793455,-0.5221490452834493,-0.010816685375110317,-0.04873769546801252,-0.18980427820116602,0.0,0.0,-0.6,0.0,0.0018432140350341797,0.003553152084350586,0.007741451263427734,0
2.6782052516937256,-0.04834242910146713,-0.010507343336939812,-0.7365127801895142,0.14953707280793455,-0.5222159083790399,-0.012533319710618924,-0.04317996386910676,-0.18893939704379253,0.0,0.0,-0.6,0.0,0.0029959678649902344,0.0055501461029052734,0.010788917541503906,0
2.6919593811035156,-0.049006689339876175,-0.009928978979587555,-0.7362335324287415,0.14685812364157425,-0.5222654656835893,-0.007567367680760231,-0.042917601295420875,-0.18732937429624674,0.0,0.0,-0.6,0.0,0.0015573501586914062,0.0030455589294433594,0.006923198699951172,0
2.7021257877349854,-0.049006689339876175,-0.009928978979587555,-0.7362335324287415,0.14685812364157425,-0.5223047179031098,-0.004179930772675105,-0.04273126160321608,-0.1862023583729642,0.0,0.0,-0.6,0.0,0.0018110275268554688,0.003490447998046875,0.007666587829589844,0
2.7137081623077393,-0.04932057112455368,-0.009515935555100441,-0.7361093163490295,0.14520629681395708,-0.5223406014335942,-0.002416660460727761,-0.042059540828932256,-0.18479401216631025,0.0,0.0,-0.6,0.0,0.0017344951629638672,0.0031960010528564453,0.007236003875732422,0
2.724238872528076,-0.04932057112455368,-0.009515935555100441,-0.7361093163490295,0.14520629681395708,-0.5223688692097692,-0.0012150251220749296,-0.041593229025533834,-0.18380816982165207,0.0,0.0,-0.6,0.0,0.0016672611236572266,0.0032126903533935547,0.0075037479400634766,0
2.7350013256073,-0.04968409985303879,-0.00902043841779232,-0.735927164554596,0.14364344619092678,-0.5225562277204896,-0.010066019807337376,-0.04263022698636833,-0.18253201119675527,0.0,0.0,-0.6,0.0,0.0017898082733154297,0.0032150745391845703,0.00732111930847168,0
2.745504140853882,-0.04968409985303879,-0.00902043841779232,-0.735927164554596,0.14364344619092678,-0.5227055223261398,-0.01611857140382349,-0.04328182256012107,-0.18163870015932712,0.0,0.0,-0.6,0.0,0.001795053482055664,0.003407716751098633,0.007661104202270508,0
2.756303310394287,-0.05009327828884125,-0.008701448328793049,-0.7356301546096802,0.14201246811335586,-0.522880658182825,-0.017946969209384364,-0.04192858675940586,-0.18040176565403868,0.0,0.0,-0.6,0.0,0.0017452239990234375,0.003265857696533203,0.00708317756652832,0
2.7676098346710205,-0.05049667879939079,-0.008258651942014694,-0.7353790402412415,0.14044565269736112,-0.5229219902758627,-0.01844835151545156,-0.028252561428722713,-0.17894835571933895,0.0,0.0,-0.6,0.0,0.0017256736755371094,0.0032796859741210938,0.007493019104003906,0
2.777303695678711,-0.05049667879939079,-0.008258651942014694,-0.7353790402412415,0.14044565269736112,-0.5229403806295776,-0.018781624169078432,-0.018898476263918558,-0.17793096876504869,0.0,0.0,-0.6,0.0,0.0017361640930175781,0.0033516883850097656,0.007394552230834961,0
2.7885944843292236,-0.0508895106613636,-0.007924256846308708,-0.7351061701774597,0.13869779514566333,-0.5229896247495932,-0.01996136558493094,-0.015899757618350576,-0.17656335131515918,0.0,0.0,-0.6,0.0,0.0017414093017578125,0.003299713134765625,0.007483959197998047,0
2.7982261180877686,-0.0508895106613636,-0.007924256846308708,-0.7351061701774597,0.13869779514566333,-0.5230266013420982,-0.02076622784739221,-0.013837748385557895,-0.17560601910023613,0.0,0.0,-0.6,0.0,0.0014395713806152344,0.002833127975463867,0.006570577621459961,0
2.808798313140869,-0.05138556286692619,-0.007575317285954952,-0.734673023223877,0.13712275372677948,-0.5231571105907861,-0.018503921555757374,-0.014102620800314483,-0.17434524601770884,0.0,0.0,-0.6,0.0,0.0019462108612060547,0.003633737564086914,0.00774693489074707,0
2.8196544647216797,-0.05138556286692619,-0.007575317285954952,-0.734673023223877,0.13712275372677948,-0.5232617000619556,-0.016963580682871515,-0.014251263895553866,-0.17346270485993937,0.0,0.0,-0.6,0.0,0.002001523971557617,0.0035712718963623047,0.007580757141113281,0
2.831284523010254,-0.05180148780345917,-0.007260227110236883,-0.7343562245368958,0.13562288630495176,-0.523217361901799,-0.019303723506353627,-0.015595670090798899,-0.17228247576631564,0.0,0.0,-0.6,0.0,0.0019266605377197266,0.0033631324768066406,0.007506132125854492,0
2.841136932373047,-0.05180148780345917,-0.007260227110236883,-0.7343562245368958,0.13562288630495176,-0.5231829115492992,-0.020901235738722164,-0.016524329505046773,-0.17145631540077869,0.0,0.0,-0.6,0.0,0.0018162727355957031,0.003288745880126953,0.0074040889739990234,0
2.852482795715332,-0.052136894315481186,-0.0068458858877420425,-0.7340083122253418,0.13408289787683736,-0.5234089943519783,-0.021868401535336656,-0.013391132042812032,-0.17030050748436024,0.0,0.0,-0.6,0.0,0.0016655921936035156,0.0032591819763183594,0.0072765350341796875,0
2.8621857166290283,-0.052136894315481186,-0.0068458858877420425,-0.7340083122253418,0.13408289787683736,-0.5235872629598918,-0.022532088499192585,-0.011184827747445199,-0.169491441942867,0.0,0.0,-0.6,0.0,0.0018303394317626953,0.003498077392578125,0.007595062255859375,0
2.873779773712158,-0.05257013067603111,-0.006512713618576527,-0.7335907220840454,0.13260625726836944,-0.5237032055293107,-0.02242035221508541,-0.010708182096173016,-0.16837135583564655,0.0,0.0,-0.6,0.0,0.0017290115356445312,0.00330352783203125,0.007601022720336914,0
2.8838541507720947,-0.05257013067603111,-0.006512713618576527,-0.7335907220840454,0.13260625726836944,-0.5237956357494609,-0.022346030467322395,-0.010350233211063662,-0.1675872955605919,0.0,0.0,-0.6,0.0,0.0016224384307861328,0.003153562545776367,0.007275581359863281,0
2.8949191570281982,-0.05299406126141548,-0.006165660452097654,-0.7332078814506531,0.1309619560470726,-0.5236580876472071,-0.018599035625863746,0.0015788289178319884,-0.1664218404100677,0.0,0.0,-0.6,0.0,0.0015654563903808594,0.0028362274169921875,0.006798982620239258,0
2.904897689819336,-0.053149256855249405,-0.006016863975673914,-0.7330580949783325,0.1302394946682084,-0.5236414564986746,-0.02021901361363802,0.009211179645914948,-0.16533509878762662,0.0,0.0,-0.6,0.0,0.0017330646514892578,0.003288745880126953,0.007624387741088867,0
2.9156408309936523,-0.053149256855249405,-0.006016863975673914,-0.7330580949783325,0.1302394946682084,-0.5236220916916312,-0.021320214454199973,0.01442038615952928,-0.16457437965191754,0.0,0.0,-0.6,0.0,0.0017404556274414062,0.003298044204711914,0.007405281066894531,0
2.926947832107544,-0.05373060330748558,-0.005460930056869984,-0.7323454022407532,0.12785639041689534,-0.523634793553444,-0.02477024846876036,0.011265308769481756,-0.16314821216267944,0.0,0.0,-0.6,0.0,0.0016713142395019531,0.0032498836517333984,0.007108449935913086,0
2.9373581409454346,-0.05373060330748558,-0.005460930056869984,-0.7323454022407532,0.12785639041689534,-0.5236469909613315,-0.02712848316448846,0.009116510316510696,-0.16214989492021237,0.0,0.0,-0.6,0.0,0.0016541481018066406,0.003381967544555664,0.0075931549072265625,0
