time,x,y,z,yaw,throttle,roll_rate,pitch_rate,yaw_rate,x_ref,y_ref,z_ref,yaw_ref,pred_time,nr_time,metadata
2.86102294921875e-06,-0.1557842195034027,-0.0908297747373581,-0.23907503485679626,-0.05425026887859528,-0.5324520362382293,0.051029021401780734,-0.056569689678033365,0.020343850829470534,0.0,0.0,-0.6,0.0,0.0022821426391601562,0.003947019577026367,Hardware
0.010598421096801758,-0.1557842195034027,-0.0908297747373581,-0.23907503485679626,-0.05425026887859528,-0.541362022205966,0.0854492569039271,-0.09450019144285046,0.03458454641010072,0.0,0.0,-0.6,0.0,0.0013871192932128906,0.002564668655395508,Nonlinear
0.02159857749938965,-0.1557842195034027,-0.0908297747373581,-0.23907503485679626,-0.05425026887859528,-0.548461509505053,0.10797760002607058,-0.11874787075291379,0.044553033316538086,0.0,0.0,-0.6,0.0,0.0020952224731445312,0.003707408905029297,1x Speed
0.0321352481842041,-0.1557961404323578,-0.09081614017486572,-0.23907212913036346,-0.05431956178174315,-0.5541317909047488,0.12191650219444644,-0.133745217745359,0.05155695898972334,0.0,0.0,-0.6,0.0,0.0014972686767578125,0.003296375274658203,0OrderHold
0.04156804084777832,-0.1557961404323578,-0.09081614017486572,-0.23907212913036346,-0.05431956178174315,-0.5586658861314792,0.13035647005147522,-0.14215905909723442,0.05645970696096362,0.0,0.0,-0.6,0.0,0.002069711685180664,0.0038394927978515625,QuatYawError
0.05369377136230469,-0.15584586560726166,-0.09081128984689713,-0.23907487094402313,-0.054272682035302215,-0.5623056437771694,0.1352501760895764,-0.1462241062161536,0.05987405063591241,0.0,0.0,-0.6,0.0,0.0016493797302246094,0.0034036636352539062,NoPyJoules
0.06278276443481445,-0.15584586560726166,-0.09081128984689713,-0.23907487094402313,-0.054272682035302215,-0.5652073225097246,0.13777887657690138,-0.1476382351917133,0.06226409120837463,0.0,0.0,-0.6,0.0,0.0015692710876464844,0.003149271011352539,0
0.07329678535461426,-0.15588203072547913,-0.09080319106578827,-0.23910798132419586,-0.05423369419055032,-0.5674598627030042,0.13855108369562222,-0.14865802118359836,0.06392249916731983,0.0,0.0,-0.6,0.0,0.0018961429595947266,0.0034761428833007812,0
0.08407092094421387,-0.15588203072547913,-0.09080319106578827,-0.23910798132419586,-0.05423369419055032,-0.5692503685793018,0.1385418822427074,-0.1484814613784428,0.0650833847385801,0.0,0.0,-0.6,0.0,0.0021448135375976562,0.004164695739746094,0
0.09490561485290527,-0.15595243871212006,-0.0908072292804718,-0.2391679883003235,-0.05397275520586593,-0.5706184405054207,0.13916753608973145,-0.14750842195942293,0.06579815251920569,0.0,0.0,-0.6,0.0,0.001111745834350586,0.002271413803100586,0
0.10475397109985352,-0.15597642958164215,-0.09083053469657898,-0.23922456800937653,-0.05385745821652646,-0.5716791443427409,0.140087221872631,-0.1461780254069876,0.06625525359464135,0.0,0.0,-0.6,0.0,0.0015096664428710938,0.0026502609252929688,0
0.1131436824798584,-0.15597642958164215,-0.09083053469657898,-0.23922456800937653,-0.05385745821652646,-0.5725195195991472,0.14046576538187372,-0.14485422562261016,0.06657522434744632,0.0,0.0,-0.6,0.0,0.0012879371643066406,0.0024094581604003906,0
0.12275457382202148,-0.1559285819530487,-0.09089167416095734,-0.2393505871295929,-0.05381505999479299,-0.5732143899118165,0.13929320258215666,-0.13977856108529368,0.0667833045412603,0.0,0.0,-0.6,0.0,0.0031211376190185547,0.00495600700378418,0
0.13426804542541504,-0.1559285819530487,-0.09089167416095734,-0.2393505871295929,-0.05381505999479299,-0.5737539516233191,0.13831621465940358,-0.13601581509481359,0.06692896067692956,0.0,0.0,-0.6,0.0,0.0014717578887939453,0.0026159286499023438,0
0.14806246757507324,-0.15577879548072815,-0.09097843617200851,-0.23944903910160065,-0.05390567475083593,-0.5741187198065673,0.14206291871904664,-0.12787608366051453,0.0670649005054145,0.0,0.0,-0.6,0.0,0.0019106864929199219,0.004914999008178711,0
0.1673874855041504,-0.15541128814220428,-0.09102099388837814,-0.23969903588294983,-0.05340295414889669,-0.5743581238193591,0.13805509161889368,-0.11991645808616665,0.06697153815962642,0.0,0.0,-0.6,0.0,0.0012934207916259766,0.004076242446899414,0
0.18064236640930176,-0.15541128814220428,-0.09102099388837814,-0.23969903588294983,-0.05340295414889669,-0.5745267201518531,0.1352347725785917,-0.11434644866633746,0.06690618451757475,0.0,0.0,-0.6,0.0,0.0018324851989746094,0.0048770904541015625,0
0.19746017456054688,-0.15467464923858643,-0.09104349464178085,-0.2402963787317276,-0.05159201969499283,-0.574413344006568,0.1344827034770406,-0.09965997927806448,0.06618133654792474,0.0,0.0,-0.6,0.0,0.0037512779235839844,0.0068206787109375,0
0.21232986450195312,-0.15467464923858643,-0.09104349464178085,-0.2402963787317276,-0.05159201969499283,-0.574293723194305,0.13397039186555526,-0.08960624408437329,0.0656739429691697,0.0,0.0,-0.6,0.0,0.0011661052703857422,0.0021123886108398438,0
0.2251734733581543,-0.1539667844772339,-0.09109862148761749,-0.24099761247634888,-0.049913984720375455,-0.5738882631477455,0.13358305422101063,-0.07015249820290079,0.06468950434855972,0.0,0.0,-0.6,0.0,0.0038912296295166016,0.006186485290527344,0
0.2424004077911377,-0.15308593213558197,-0.09115204960107803,-0.242070734500885,-0.04803233311488705,-0.5732044009253878,0.1300841574293216,-0.043703650859565964,0.06329477796207462,0.0,0.0,-0.6,0.0,0.002111673355102539,0.005924224853515625,0
0.2600846290588379,-0.1521061658859253,-0.09119447320699692,-0.24351492524147034,-0.04563821405472692,-0.572276345724153,0.12258040413060806,-0.013664334734448159,0.06142067484397508,0.0,0.0,-0.6,0.0,0.003098726272583008,0.004866123199462891,0
0.2734847068786621,-0.1521061658859253,-0.09119447320699692,-0.24351492524147034,-0.04563821405472692,-0.5714736810899114,0.11762309442028138,0.006589927139938102,0.060108802661306464,0.0,0.0,-0.6,0.0,0.002694368362426758,0.006344795227050781,0
0.2924370765686035,-0.15046872198581696,-0.09129910916090012,-0.2465832382440567,-0.0411789596712858,-0.5701635918732476,0.10690775948523473,0.03714360596332886,0.05751827173964704,0.0,0.0,-0.6,0.0,0.003719329833984375,0.005896329879760742,0
0.30544567108154297,-0.15046872198581696,-0.09129910916090012,-0.2465832382440567,-0.0411789596712858,-0.5690576058383424,0.09986651933832437,0.05757974231516882,0.05570490009448534,0.0,0.0,-0.6,0.0,0.0035898685455322266,0.005263090133666992,0
0.32138490676879883,-0.14857053756713867,-0.09145476669073105,-0.25074324011802673,-0.036000310047428846,-0.5675764652975722,0.08785519071183684,0.08950599195613546,0.05249354633392319,0.0,0.0,-0.6,0.0,0.0033905506134033203,0.0051975250244140625,0
0.3356969356536865,-0.14719116687774658,-0.09159089624881744,-0.2541131377220154,-0.03177982012455598,-0.5659460417292972,0.0751891263312031,0.12294348572357072,0.048662914980458556,0.0,0.0,-0.6,0.0,0.0032796859741210938,0.005070924758911133,0
0.3527681827545166,-0.14719116687774658,-0.09159089624881744,-0.2541131377220154,-0.03177982012455598,-0.5645903469313286,0.06691522264736807,0.14520618726049256,0.04598147303302983,0.0,0.0,-0.6,0.0,0.0012450218200683594,0.00247955322265625,0
0.3647422790527344,-0.14545421302318573,-0.09163817763328552,-0.25843527913093567,-0.0270414332226768,-0.562964058845002,0.05547564144475048,0.17089554423652756,0.04232756858162834,0.0,0.0,-0.6,0.0,0.004014730453491211,0.006123542785644531,0
0.37886762619018555,-0.14545421302318573,-0.09163817763328552,-0.25843527913093567,-0.0270414332226768,-0.5616375704032316,0.04806679252131646,0.18793732150748027,0.03976983546564398,0.0,0.0,-0.6,0.0,0.0033860206604003906,0.0064885616302490234,0
0.3955414295196533,-0.14251269400119781,-0.09187514334917068,-0.26674848794937134,-0.018418926501472862,-0.5597594635812584,0.03942854901405324,0.21158086791518993,0.03474598226400377,0.0,0.0,-0.6,0.0,0.002394437789916992,0.0037240982055664062,0
0.4063417911529541,-0.14251269400119781,-0.09187514334917068,-0.26674848794937134,-0.018418926501472862,-0.5582469905744488,0.03400094438666896,0.22720833012770034,0.031229285022856955,0.0,0.0,-0.6,0.0,0.0028533935546875,0.004484653472900391,0
0.42002201080322266,-0.1405697464942932,-0.0919385701417923,-0.2723267674446106,-0.012438802134020604,-0.5565677976583655,0.024732103150065157,0.2389317468914424,0.026525050316256175,0.0,0.0,-0.6,0.0,0.001940011978149414,0.0028214454650878906,0
0.43633294105529785,-0.1405697464942932,-0.0919385701417923,-0.2723267674446106,-0.012438802134020604,-0.5552227104429348,0.018847116039950044,0.2465616933513533,0.023232086021636057,0.0,0.0,-0.6,0.0,0.005823612213134766,0.0071446895599365234,0
0.4526557922363281,-0.13772569596767426,-0.09202059358358383,-0.28047069907188416,-0.005300803205540317,-0.5535978447510008,0.010500026385767455,0.2496647665767978,0.01825026141722136,0.0,0.0,-0.6,0.0,0.002278566360473633,0.004184722900390625,0
0.46371912956237793,-0.13597053289413452,-0.09213890880346298,-0.28551003336906433,0.00011498515215279837,-0.5519205263231763,0.01149755124167481,0.25827056961623684,0.012732063559995989,0.0,0.0,-0.6,0.0,0.001123666763305664,0.002145051956176758,0
0.4739656448364258,-0.13597053289413452,-0.09213890880346298,-0.28551003336906433,0.00011498515215279837,-0.5505901336700657,0.01260005196285347,0.26390919004663344,0.008869325059940404,0.0,0.0,-0.6,0.0,0.002415180206298828,0.004357099533081055,0
0.4861903190612793,-0.13597053289413452,-0.09213890880346298,-0.28551003336906433,0.00011498515215279837,-0.5495351264450167,0.01370082953880152,0.2675896831426832,0.006165408109901049,0.0,0.0,-0.6,0.0,0.0015881061553955078,0.003895282745361328,0
0.5004837512969971,-0.13310366868972778,-0.09222771972417831,-0.2937946617603302,0.008385476229804926,-0.5482841074143973,0.006817870323067952,0.2612959753400381,0.0011712320907534667,0.0,0.0,-0.6,0.0,0.0012950897216796875,0.003087759017944336,0
0.5130939483642578,-0.13201099634170532,-0.09221397340297699,-0.29689809679985046,0.010929475916978399,-0.5471426479969719,0.0004149370957968737,0.25378412210542256,-0.0032786910053398477,0.0,0.0,-0.6,0.0,0.0028967857360839844,0.00466465950012207,0
0.5269520282745361,-0.1297476440668106,-0.09218619018793106,-0.3032565116882324,0.01622658945583916,-0.5458547800415503,-0.006570618131261253,0.24843580465649337,-0.008380054749676902,0.0,0.0,-0.6,0.0,0.0024552345275878906,0.005303382873535156,0
0.5396227836608887,-0.1297476440668106,-0.09218619018793106,-0.3032565116882324,0.01622658945583916,-0.5448176151923038,-0.011007885736384764,0.24469586404882787,-0.011951009370713042,0.0,0.0,-0.6,0.0,0.0024313926696777344,0.0044879913330078125,0
0.5511167049407959,-0.12651900947093964,-0.0920926034450531,-0.3123053312301636,0.024698293592390116,-0.5435862647082355,-0.013312213959315887,0.2378186882057373,-0.01762756665664467,0.0,0.0,-0.6,0.0,0.002649545669555664,0.005218505859375,0
0.5646369457244873,-0.12651900947093964,-0.0920926034450531,-0.3123053312301636,0.024698293592390116,-0.5425962064799249,-0.014588296675921762,0.2330874302953551,-0.02160115675679876,0.0,0.0,-0.6,0.0,0.0024733543395996094,0.004651308059692383,0
0.575143575668335,-0.12297767400741577,-0.0918339341878891,-0.3217632472515106,0.033087879533203426,-0.5413573634663222,-0.01846803463180003,0.22638746580633742,-0.02752876455470963,0.0,0.0,-0.6,0.0,0.0021855831146240234,0.0038890838623046875,0
0.5869815349578857,-0.12297767400741577,-0.0918339341878891,-0.3217632472515106,0.033087879533203426,-0.5403599853609145,-0.020830126387061977,0.22180181489179807,-0.03167809001324748,0.0,0.0,-0.6,0.0,0.001950979232788086,0.003991365432739258,0
0.5995609760284424,-0.12163689732551575,-0.09172273427248001,-0.32524991035461426,0.03612565384055532,-0.5394283135258631,-0.023886819083539314,0.21936900024956668,-0.03572178319948445,0.0,0.0,-0.6,0.0,0.0026998519897460938,0.004418373107910156,0
0.6130983829498291,-0.11889412254095078,-0.09147945046424866,-0.3322864770889282,0.04174425882883964,-0.5384176455992477,-0.023430258715576715,0.2169155341044248,-0.040659345300451184,0.0,0.0,-0.6,0.0,0.0013267993927001953,0.002338886260986328,0
0.6213676929473877,-0.11751815676689148,-0.09136023372411728,-0.3357992172241211,0.04481107773804189,-0.5374873728770265,-0.019615401828016858,0.2134370667997801,-0.04526569586208093,0.0,0.0,-0.6,0.0,0.0020859241485595703,0.0046160221099853516,0
0.6324584484100342,-0.11751815676689148,-0.09136023372411728,-0.3357992172241211,0.04481107773804189,-0.5367431081172415,-0.01682220088912738,0.21109325528059247,-0.048490141255221934,0.0,0.0,-0.6,0.0,0.002980947494506836,0.004764080047607422,0
0.647418737411499,-0.11477024853229523,-0.09113759547472,-0.34286022186279297,0.05046018770949407,-0.5359726909884662,-0.008615929136607699,0.2066600771783814,-0.05286566926971125,0.0,0.0,-0.6,0.0,0.002318859100341797,0.0044116973876953125,0
0.6602938175201416,-0.11200814694166183,-0.0908793956041336,-0.3499618470668793,0.056057941952480324,-0.5351116157681205,-0.00021339600781700163,0.20155036512893884,-0.058027696720972834,0.0,0.0,-0.6,0.0,0.0014183521270751953,0.0024192333221435547,0
0.6710803508758545,-0.11200814694166183,-0.0908793956041336,-0.3499618470668793,0.056057941952480324,-0.5344224355988313,0.005707378313763026,0.1981415275843127,-0.06164111593686376,0.0,0.0,-0.6,0.0,0.002101898193359375,0.003154754638671875,0
0.6804587841033936,-0.10923191159963608,-0.09060684591531754,-0.3571245074272156,0.061989866280870456,-0.533735555207176,0.005466594427076879,0.19349606319914736,-0.06639498101113042,0.0,0.0,-0.6,0.0,0.00466156005859375,0.006872653961181641,0
0.6957850456237793,-0.10923191159963608,-0.09060684591531754,-0.3571245074272156,0.061989866280870456,-0.5331817474888066,0.005460898648550954,0.19037643892295925,-0.06972268656311728,0.0,0.0,-0.6,0.0,0.0023758411407470703,0.0041332244873046875,0
0.7075986862182617,-0.10506248474121094,-0.09012266248464584,-0.3679799735546112,0.07017827786590966,-0.5323156134190233,0.0018105378734178932,0.18162384200890128,-0.0751227347938975,0.0,0.0,-0.6,0.0,0.0011157989501953125,0.0032625198364257812,0
0.7177770137786865,-0.10506248474121094,-0.09012266248464584,-0.3679799735546112,0.07017827786590966,-0.5316109432123974,-0.00046806100643629776,0.17572763215146664,-0.07890276855544387,0.0,0.0,-0.6,0.0,0.0025374889373779297,0.004369258880615234,0
0.7275867462158203,-0.10506248474121094,-0.09012266248464584,-0.3679799735546112,0.07017827786590966,-0.531040200295618,-0.0018620655558901288,0.1717589719643766,-0.08154879218852877,0.0,0.0,-0.6,0.0,0.001775979995727539,0.003616809844970703,0
0.7409374713897705,-0.10048805922269821,-0.08950597792863846,-0.37985968589782715,0.07882352107306874,-0.5304248102365582,-0.0037937356466141593,0.1601218754636009,-0.08664297493437466,0.0,0.0,-0.6,0.0,0.0031232833862304688,0.004285097122192383,0
0.7527048587799072,-0.10048805922269821,-0.08950597792863846,-0.37985968589782715,0.07882352107306874,-0.5299185687455724,-0.004955037113255695,0.1522487011029781,-0.09020890285646566,0.0,0.0,-0.6,0.0,0.0034945011138916016,0.004922389984130859,0
0.763725996017456,-0.09743930399417877,-0.08911990374326706,-0.38793742656707764,0.08515515928558223,-0.5292727099593428,-0.003958841430786451,0.14068692007485378,-0.09507941673162287,0.0,0.0,-0.6,0.0,0.0013003349304199219,0.0034685134887695312,0
0.773608922958374,-0.09743930399417877,-0.08911990374326706,-0.38793742656707764,0.08515515928558223,-0.5287445311390271,-0.0031210615774458594,0.1328818084427259,-0.09848877644422593,0.0,0.0,-0.6,0.0,0.002267599105834961,0.0039052963256835938,0
0.786461591720581,-0.09477582573890686,-0.08880659192800522,-0.3950008749961853,0.0897043842832038,-0.5282796326046434,0.0003684483308076629,0.1244155396760318,-0.1025812876171697,0.0,0.0,-0.6,0.0,0.0024347305297851562,0.003734111785888672,0
0.7996988296508789,-0.09477582573890686,-0.08880659192800522,-0.3950008749961853,0.0897043842832038,-0.5279018025835552,0.0028615501564023043,0.11870184121088884,-0.10544604543822232,0.0,0.0,-0.6,0.0,0.002532958984375,0.00455927848815918,0
0.8108515739440918,-0.09126565605401993,-0.08849050104618073,-0.40441009402275085,0.09691425631668496,-0.5276868497080345,0.0010489413356995021,0.10616463763979105,-0.11015507792550777,0.0,0.0,-0.6,0.0,0.0022478103637695312,0.004250526428222656,0
0.8242578506469727,-0.09126565605401993,-0.08849050104618073,-0.40441009402275085,0.09691425631668496,-0.5275019986702132,-0.00011737203468007882,0.09763076570103724,-0.11345140066661472,0.0,0.0,-0.6,0.0,0.002421140670776367,0.004200458526611328,0
0.8372225761413574,-0.08902433514595032,-0.08835650980472565,-0.41028302907943726,0.10169989530529742,-0.5271961520703355,0.007403823793749244,0.09248509306631758,-0.11755344120611985,0.0,0.0,-0.6,0.0,0.0012044906616210938,0.0023136138916015625,0
0.8489928245544434,-0.08774975687265396,-0.08824510127305984,-0.4135816693305969,0.10378527816436589,-0.5270315153416524,0.01237625878935004,0.0859088702944179,-0.12120688815591744,0.0,0.0,-0.6,0.0,0.002261638641357422,0.004152059555053711,0
0.8622407913208008,-0.08524379134178162,-0.08802593499422073,-0.42007288336753845,0.10785365881384512,-0.5269613966889857,0.015249396338109048,0.07739859351838475,-0.1252899437643442,0.0,0.0,-0.6,0.0,0.002141237258911133,0.004180908203125,0
0.8741285800933838,-0.08524379134178162,-0.08802593499422073,-0.42007288336753845,0.10785365881384512,-0.5269008293706875,0.017242135088438974,0.07160507876838014,-0.12814808269023,0.0,0.0,-0.6,0.0,0.0014061927795410156,0.0027840137481689453,0
0.8869547843933105,-0.0831766352057457,-0.08787815272808075,-0.4255428910255432,0.11224519810201253,-0.5268817723638101,0.018140326157402627,0.06437843182637501,-0.13179560717141203,0.0,0.0,-0.6,0.0,0.0027468204498291016,0.004853487014770508,0
0.8999779224395752,-0.08004691451787949,-0.0876733809709549,-0.4338749349117279,0.11858551640959678,-0.5268696622779946,0.023476905025787576,0.05414615421530075,-0.13672649367358228,0.0,0.0,-0.6,0.0,0.002399444580078125,0.004225969314575195,0
0.9134416580200195,-0.08004691451787949,-0.0876733809709549,-0.4338749349117279,0.11858551640959678,-0.526856551065337,0.027149568098582596,0.047178925472106246,-0.14017811422510293,0.0,0.0,-0.6,0.0,0.0034596920013427734,0.006896257400512695,0
0.9329369068145752,-0.07785260677337646,-0.08752543479204178,-0.43977072834968567,0.1222718253804127,-0.5269252826837948,0.03156225281137842,0.03854148562007223,-0.143976614475223,0.0,0.0,-0.6,0.0,0.004423618316650391,0.00764155387878418,0
0.952228307723999,-0.07785260677337646,-0.08752543479204178,-0.43977072834968567,0.1222718253804127,-0.5269787455784513,0.034578489242370565,0.032648911687821414,-0.1466355646503082,0.0,0.0,-0.6,0.0,0.003179788589477539,0.005267143249511719,0
0.9717011451721191,-0.07408715784549713,-0.08736710995435715,-0.4502743184566498,0.12996145527851719,-0.5269954751991192,0.03904283647711522,0.021859291656616507,-0.15138044098465495,0.0,0.0,-0.6,0.0,0.003785848617553711,0.007657051086425781,0
0.9917683601379395,-0.07408715784549713,-0.08736710995435715,-0.4502743184566498,0.12996145527851719,-0.5270067070496524,0.042116121075186946,0.014505378886648136,-0.15470185441869908,0.0,0.0,-0.6,0.0,0.0037903785705566406,0.00751948356628418,0
1.0121042728424072,-0.07043516635894775,-0.08720395714044571,-0.4608318507671356,0.13690656410094598,-0.5270086658964056,0.04873030369790144,0.0070693816448053745,-0.15963125963093916,0.0,0.0,-0.6,0.0,0.004366874694824219,0.007335186004638672,0
1.0324058532714844,-0.07043516635894775,-0.08720395714044571,-0.4608318507671356,0.13690656410094598,-0.5270121444569803,0.05326831361838119,0.002013739974008025,-0.1630818432795087,0.0,0.0,-0.6,0.0,0.003503561019897461,0.006845951080322266,0
1.0531697273254395,-0.06665375083684921,-0.08705861866474152,-0.47335898876190186,0.1450095982573231,-0.5270772663016243,0.05716852558448097,-0.014775072942836937,-0.1685358896421468,0.0,0.0,-0.6,0.0,0.003635406494140625,0.007231950759887695,0
1.0738072395324707,-0.06665375083684921,-0.08705861866474152,-0.47335898876190186,0.1450095982573231,-0.5271266308906529,0.05987172701257601,-0.02622844355670969,-0.17235372209599512,0.0,0.0,-0.6,0.0,0.002230405807495117,0.005549192428588867,0
1.0933585166931152,-0.06423892080783844,-0.08705021440982819,-0.4829539656639099,0.15070690983807442,-0.5270027120230346,0.062499940158099114,-0.0374811751891661,-0.17716269665646966,0.0,0.0,-0.6,0.0,0.0046007633209228516,0.00791025161743164,0
1.113145112991333,-0.06423892080783844,-0.08705021440982819,-0.4829539656639099,0.15070690983807442,-0.5269051543953344,0.06435374679476473,-0.04515102569432792,-0.1805289788488033,0.0,0.0,-0.6,0.0,0.0031409263610839844,0.005023956298828125,0
1.1320610046386719,-0.06282152235507965,-0.0871100127696991,-0.4899466037750244,0.15472414250132763,-0.5268076804112303,0.06988122758774569,-0.05744434032390931,-0.18439183863215633,0.0,0.0,-0.6,0.0,0.003652811050415039,0.008239030838012695,0
1.1514835357666016,-0.06282152235507965,-0.0871100127696991,-0.4899466037750244,0.15472414250132763,-0.5267353997042634,0.07370805070096073,-0.06582505898741661,-0.1870958404805046,0.0,0.0,-0.6,0.0,0.0034291744232177734,0.0072174072265625,0
1.181593418121338,-0.06125638633966446,-0.08712776750326157,-0.4996127784252167,0.159604650838474,-0.5265596021445919,0.0713512898012925,-0.07262827358587447,-0.19081883240077724,0.0,0.0,-0.6,0.0,0.0042612552642822266,0.007121562957763672,0
1.2024576663970947,-0.060545433312654495,-0.08728088438510895,-0.5055708289146423,0.16272422647587242,-0.5264372387005535,0.062383415829866784,-0.08131612225908405,-0.19459476760899244,0.0,0.0,-0.6,0.0,0.003300905227661133,0.006906986236572266,0
1.2227013111114502,-0.05999906361103058,-0.08739681541919708,-0.5113236308097839,0.1657990668574344,-0.5263775150961487,0.05715998885080777,-0.08585663197484035,-0.19839098739782882,0.0,0.0,-0.6,0.0,0.00390625,0.007829904556274414,0
1.2433202266693115,-0.05999906361103058,-0.08739681541919708,-0.5113236308097839,0.1657990668574344,-0.5263266816898672,0.05362131860373818,-0.08897083107189384,-0.20104834125001542,0.0,0.0,-0.6,0.0,0.0047245025634765625,0.008313655853271484,0
1.2650408744812012,-0.05969694256782532,-0.08760036528110504,-0.518752932548523,0.16967709173762036,-0.5264311478624385,0.04512984902221741,-0.09254096299636799,-0.2043627482766151,0.0,0.0,-0.6,0.0,0.003966093063354492,0.007599830627441406,0
1.285921573638916,-0.05969694256782532,-0.08760036528110504,-0.518752932548523,0.16967709173762036,-0.5265079789186748,0.03930606822584829,-0.09497480104269304,-0.20668283319523587,0.0,0.0,-0.6,0.0,0.0033435821533203125,0.006898164749145508,0
1.3063185214996338,-0.05973584204912186,-0.08788932859897614,-0.5273541212081909,0.17401068947858914,-0.5269044771348476,0.0306805669601802,-0.09120329003930765,-0.20993199179113278,0.0,0.0,-0.6,0.0,0.004177093505859375,0.008351802825927734,0
1.3256211280822754,-0.05973584204912186,-0.08788932859897614,-0.5273541212081909,0.17401068947858914,-0.5272086099873973,0.024654512159477063,-0.08855279522707732,-0.2122064028082616,0.0,0.0,-0.6,0.0,0.002216815948486328,0.00616908073425293,0
1.3458256721496582,-0.0599740706384182,-0.08798572421073914,-0.5326873660087585,0.17700681715752986,-0.527566684636855,0.01283629241234338,-0.0831340016379601,-0.2149220383998541,0.0,0.0,-0.6,0.0,0.0039937496185302734,0.007503032684326172,0
1.3653428554534912,-0.0599740706384182,-0.08798572421073914,-0.5326873660087585,0.17700681715752986,-0.5278350422200284,0.004638942516027171,-0.07935711624002706,-0.21682298331396968,0.0,0.0,-0.6,0.0,0.004511594772338867,0.007498979568481445,0
1.3885877132415771,-0.06058884784579277,-0.08815588057041168,-0.5381379127502441,0.17998417931456376,-0.5282471608500753,-0.001768960695387443,-0.06923989274634337,-0.21927015556273774,0.0,0.0,-0.6,0.0,0.0037376880645751953,0.007492542266845703,0
1.4085948467254639,-0.06058884784579277,-0.08815588057041168,-0.5381379127502441,0.17998417931456376,-0.5285594810579699,-0.0062831960621629705,-0.06221744224935017,-0.22098317613687612,0.0,0.0,-0.6,0.0,0.003150463104248047,0.005148172378540039,0
1.4298946857452393,-0.06137537956237793,-0.08814003318548203,-0.543674647808075,0.1832908346887608,-0.529039147147309,-0.013014783128892524,-0.053944026108588124,-0.22342228630409616,0.0,0.0,-0.6,0.0,0.0033719539642333984,0.007332801818847656,0
1.4493162631988525,-0.06204723194241524,-0.08810865134000778,-0.5472564101219177,0.18501094116682215,-0.5294254616615371,-0.01889694526754556,-0.04180538415557927,-0.22577470335042327,0.0,0.0,-0.6,0.0,0.0036056041717529297,0.006569623947143555,0
1.470280647277832,-0.06204723194241524,-0.08810865134000778,-0.5472564101219177,0.18501094116682215,-0.5297157020333935,-0.023035828761324303,-0.03339168089089796,-0.22742139528285293,0.0,0.0,-0.6,0.0,0.003098011016845703,0.006448507308959961,0
1.4913692474365234,-0.0629514679312706,-0.0878438875079155,-0.5517582893371582,0.18727030154191207,-0.5301173417285313,-0.025214702837365034,-0.02509841579750329,-0.22942133977621207,0.0,0.0,-0.6,0.0,0.0034852027893066406,0.007401227951049805,0
1.5130553245544434,-0.0629514679312706,-0.0878438875079155,-0.5517582893371582,0.18727030154191207,-0.530428074983118,-0.02680228191821776,-0.019302509563720927,-0.23082130092156405,0.0,0.0,-0.6,0.0,0.0035462379455566406,0.006884098052978516,0
1.534902811050415,-0.06379032880067825,-0.08730670064687729,-0.5559428334236145,0.18901583389102938,-0.5307032314852809,-0.028025588700919094,-0.0025845998594362825,-0.23245584835422922,0.0,0.0,-0.6,0.0,0.0038747787475585938,0.007101297378540039,0
1.5529241561889648,-0.06379032880067825,-0.08730670064687729,-0.5559428334236145,0.18901583389102938,-0.5309029694327387,-0.02894022058545151,0.008936755928715151,-0.23360003155709533,0.0,0.0,-0.6,0.0,0.0034804344177246094,0.007105112075805664,0
1.5751760005950928,-0.06453829258680344,-0.08655577152967453,-0.5597934126853943,0.19053493170336708,-0.5311849113720518,-0.03023538301792642,0.01999005493964392,-0.23497062147872802,0.0,0.0,-0.6,0.0,0.0018935203552246094,0.005055904388427734,0
1.596811294555664,-0.06453829258680344,-0.08655577152967453,-0.5597934126853943,0.19053493170336708,-0.531398673873658,-0.031185824858991105,0.027638068649991146,-0.23593003442387128,0.0,0.0,-0.6,0.0,0.003693103790283203,0.005892753601074219,0
1.6171929836273193,-0.06510771811008453,-0.08558490872383118,-0.5633114576339722,0.19191524497561843,-0.5317103532659273,-0.03621087311516585,0.04468857798195906,-0.23711924096256562,0.0,0.0,-0.6,0.0,0.0038874149322509766,0.006819725036621094,0
1.6355364322662354,-0.06510771811008453,-0.08558490872383118,-0.5633114576339722,0.19191524497561843,-0.5319405864136176,-0.039719562471197505,0.05644509501339022,-0.237951685539652,0.0,0.0,-0.6,0.0,0.0031890869140625,0.006123065948486328,0
1.656266450881958,-0.06551509350538254,-0.08441829681396484,-0.5666898488998413,0.1931333806254485,-0.5321694590037521,-0.040224310608527866,0.07082578923358226,-0.23899119761229853,0.0,0.0,-0.6,0.0,0.003920078277587891,0.007575273513793945,0
1.6765787601470947,-0.06551509350538254,-0.08441829681396484,-0.5666898488998413,0.1931333806254485,-0.5323406079786656,-0.040620521590623924,0.08072685554529874,-0.23971885606315144,0.0,0.0,-0.6,0.0,0.0022907257080078125,0.005693197250366211,0
1.697080135345459,-0.06580577790737152,-0.08320146054029465,-0.5693127512931824,0.19416253039207196,-0.5326702776638571,-0.04891335260242982,0.09127839388004477,-0.2406141481412321,0.0,0.0,-0.6,0.0,0.004091024398803711,0.007919549942016602,0
1.7164134979248047,-0.06580577790737152,-0.08320146054029465,-0.5693127512931824,0.19416253039207196,-0.5329241425365718,-0.05464345276120668,0.09858273553479947,-0.24124085259588882,0.0,0.0,-0.6,0.0,0.0042383670806884766,0.007932662963867188,0
1.7381556034088135,-0.06602301448583603,-0.08183478564023972,-0.5718170404434204,0.19494252042668941,-0.5331042746155947,-0.06029353804595857,0.10629987731720071,-0.24197204197712996,0.0,0.0,-0.6,0.0,0.004401445388793945,0.008520126342773438,0
1.7573058605194092,-0.06608077883720398,-0.08060332387685776,-0.5735883712768555,0.19575501345081836,-0.5332103819499568,-0.06405106958984806,0.11370047421816315,-0.24278855942804703,0.0,0.0,-0.6,0.0,0.0031630992889404297,0.005305767059326172,0
1.7758464813232422,-0.06608077883720398,-0.08060332387685776,-0.5735883712768555,0.19575501345081836,-0.5332922560925945,-0.06663688749381166,0.11877944147786729,-0.24336012164368923,0.0,0.0,-0.6,0.0,0.0019888877868652344,0.0033016204833984375,0
1.7872674465179443,-0.06593635678291321,-0.07925326377153397,-0.5753649473190308,0.19626591339378974,-0.5333470530134324,-0.07030665689222342,0.11843172520854908,-0.243951802673253,0.0,0.0,-0.6,0.0,0.001695871353149414,0.003484487533569336,0
1.797121286392212,-0.06593635678291321,-0.07925326377153397,-0.5753649473190308,0.19626591339378974,-0.5333904995358157,-0.07282040262494285,0.11820297389994697,-0.24436597939394783,0.0,0.0,-0.6,0.0,0.001949310302734375,0.0034284591674804688,0
1.8079266548156738,-0.06570927053689957,-0.07824306190013885,-0.5766114592552185,0.19648151432243605,-0.5335034849383241,-0.071922257496393,0.11687782100049451,-0.2447367534466766,0.0,0.0,-0.6,0.0,0.001645803451538086,0.003136873245239258,0
1.8167052268981934,-0.06570927053689957,-0.07824306190013885,-0.5766114592552185,0.19648151432243605,-0.5335937347507409,-0.0713204829661573,0.11599245350619479,-0.2449962952835869,0.0,0.0,-0.6,0.0,0.0017695426940917969,0.003322601318359375,0
1.8265576362609863,-0.06535060703754425,-0.07683813571929932,-0.5782251954078674,0.19680141816575403,-0.5337099382143394,-0.06884886654357011,0.11387355151045303,-0.2452979385106683,0.0,0.0,-0.6,0.0,0.0017113685607910156,0.002698183059692383,0
1.8344440460205078,-0.06535060703754425,-0.07683813571929932,-0.5782251954078674,0.19680141816575403,-0.5338025790989179,-0.06717075481042555,0.1124456992912503,-0.24550908876962538,0.0,0.0,-0.6,0.0,0.0012235641479492188,0.0021638870239257812,0
1.8413498401641846,-0.06535060703754425,-0.07683813571929932,-0.5782251954078674,0.19680141816575403,-0.5338765351785651,-0.06603315494565917,0.11148612450635718,-0.24565689395089538,0.0,0.0,-0.6,0.0,0.0017015933990478516,0.003116130828857422,0
1.850903034210205,-0.06500363349914551,-0.07578062266111374,-0.5793421268463135,0.19680088249307473,-0.533964324655593,-0.06651279134488063,0.11197083334443979,-0.24576015670052967,0.0,0.0,-0.6,0.0,0.0016722679138183594,0.0028314590454101562,0
1.860584020614624,-0.06489457190036774,-0.0753423199057579,-0.5797566175460815,0.19675690551561106,-0.5340424828256759,-0.06531413300310282,0.10995597569113762,-0.24581594925872485,0.0,0.0,-0.6,0.0,0.0016858577728271484,0.0029370784759521484,0
1.8711657524108887,-0.06469438225030899,-0.07478716224431992,-0.5802873373031616,0.1967733424636295,-0.5340731805493686,-0.06439798317737302,0.10972928074346175,-0.2458611679049684,0.0,0.0,-0.6,0.0,0.001552581787109375,0.002557992935180664,0
1.882594347000122,-0.06448093056678772,-0.07420120388269424,-0.5807979106903076,0.19662885685463238,-0.534191800854641,-0.0664216629230334,0.11084320888048153,-0.24583863885396504,0.0,0.0,-0.6,0.0,0.0016031265258789062,0.004143238067626953,0
1.8941199779510498,-0.06448093056678772,-0.07420120388269424,-0.5807979106903076,0.19662885685463238,-0.5342865742551085,-0.0678131752352834,0.1116214662378514,-0.24582286851826268,0.0,0.0,-0.6,0.0,0.002690553665161133,0.005496978759765625,0
1.9065592288970947,-0.06381753832101822,-0.07234463095664978,-0.5822315812110901,0.19621086338516955,-0.534355893278992,-0.0622509675583728,0.11007082501954168,-0.2456550817322226,0.0,0.0,-0.6,0.0,0.0011451244354248047,0.0021452903747558594,0
1.9165349006652832,-0.06381753832101822,-0.07234463095664978,-0.5822315812110901,0.19621086338516955,-0.5344098959283334,-0.058454640799087305,0.10901965796923961,-0.24553763098199452,0.0,0.0,-0.6,0.0,0.0025920867919921875,0.0046367645263671875,0
1.9284470081329346,-0.06381753832101822,-0.07234463095664978,-0.5822315812110901,0.19621086338516955,-0.5344523656809892,-0.05586436159121343,0.1083080568639807,-0.24545541545683483,0.0,0.0,-0.6,0.0,0.0026705265045166016,0.003975391387939453,0
1.9390640258789062,-0.06311330944299698,-0.07039064168930054,-0.5835576057434082,0.19565846274195028,-0.5345088206871512,-0.05607595491616595,0.10003386433159688,-0.245190714348016,0.0,0.0,-0.6,0.0,0.0022084712982177734,0.0042667388916015625,0
1.9504761695861816,-0.06311330944299698,-0.07039064168930054,-0.5835576057434082,0.19565846274195028,-0.5345522219718665,-0.056224949141496734,0.09438718578097094,-0.24500542357184274,0.0,0.0,-0.6,0.0,0.002583742141723633,0.004228115081787109,0
1.963346242904663,-0.06258265674114227,-0.06906166672706604,-0.5844372510910034,0.19527651130858528,-0.5346287952300448,-0.056694927568729674,0.09115127681620189,-0.24473248824100968,0.0,0.0,-0.6,0.0,0.001998424530029297,0.0036840438842773438,0
1.9737486839294434,-0.06258265674114227,-0.06906166672706604,-0.5844372510910034,0.19527651130858528,-0.5346897330437445,-0.0570194379320927,0.08894884092746942,-0.24454143350942645,0.0,0.0,-0.6,0.0,0.0015006065368652344,0.004021644592285156,0
1.9888107776641846,-0.062080204486846924,-0.06771526485681534,-0.5852866172790527,0.1947524161237251,-0.5346327033277288,-0.052084851488324646,0.08780131990175782,-0.24421115950299574,0.0,0.0,-0.6,0.0,0.002292633056640625,0.004157543182373047,0
2.0014455318450928,-0.06154671311378479,-0.0663035660982132,-0.5861432552337646,0.1942651515254397,-0.534604061550294,-0.04646251405439284,0.08010500083963842,-0.2437972434741373,0.0,0.0,-0.6,0.0,0.002246379852294922,0.004438877105712891,0
2.014925718307495,-0.06154671311378479,-0.0663035660982132,-0.5861432552337646,0.1942651515254397,-0.5345787675469681,-0.04262314881371154,0.07484468191104827,-0.24350750225393628,0.0,0.0,-0.6,0.0,0.001672983169555664,0.0034911632537841797,0
2.0276806354522705,-0.06072333827614784,-0.06412942707538605,-0.5873757600784302,0.19363655299572674,-0.5346158845290845,-0.04483649691534028,0.06514061548433003,-0.24306895895115335,0.0,0.0,-0.6,0.0,0.0018553733825683594,0.003858804702758789,0
2.037097930908203,-0.06072333827614784,-0.06412942707538605,-0.5873757600784302,0.19363655299572674,-0.5346441863253367,-0.04635245823224651,0.058514703723982556,-0.24276197863920518,0.0,0.0,-0.6,0.0,0.002559185028076172,0.0045506954193115234,0
2.0505244731903076,-0.06017635762691498,-0.0626310482621193,-0.5881734490394592,0.1931510972936403,-0.534593680375061,-0.047493907069280354,0.05532174781012455,-0.24236504653255914,0.0,0.0,-0.6,0.0,0.0020809173583984375,0.004103899002075195,0
2.06341290473938,-0.06017635762691498,-0.0626310482621193,-0.5881734490394592,0.1931510972936403,-0.5345535241231333,-0.048273384822179743,0.05313651235965139,-0.2420871940579068,0.0,0.0,-0.6,0.0,0.0019495487213134766,0.004046440124511719,0
2.0754759311676025,-0.05934617668390274,-0.060316093266010284,-0.5893225073814392,0.19233669326166838,-0.5345821211491703,-0.04499060508975117,0.04399585675633196,-0.2415872958136609,0.0,0.0,-0.6,0.0,0.0024383068084716797,0.00434112548828125,0
2.08575439453125,-0.05934617668390274,-0.060316093266010284,-0.5893225073814392,0.19233669326166838,-0.5346035200197149,-0.04275082775526431,0.037752815389083254,-0.24123736704268864,0.0,0.0,-0.6,0.0,0.0017631053924560547,0.00394439697265625,0
2.099177360534668,-0.05907026305794716,-0.05953023210167885,-0.5896710753440857,0.1920401729582657,-0.5346731781121873,-0.04119662749150858,0.03187335692217692,-0.24088122178923202,0.0,0.0,-0.6,0.0,0.002266407012939453,0.004143953323364258,0
2.111708402633667,-0.058459360152482986,-0.05785224959254265,-0.5904019474983215,0.1914939145454328,-0.5347741112539698,-0.04195760201158645,0.027688403789815814,-0.24042707320700016,0.0,0.0,-0.6,0.0,0.0013027191162109375,0.003095865249633789,0
2.122112989425659,-0.058459360152482986,-0.05785224959254265,-0.5904019474983215,0.1914939145454328,-0.5348551227154122,-0.04247990476808832,0.024837425883074325,-0.24010916919943773,0.0,0.0,-0.6,0.0,0.0025773048400878906,0.0045168399810791016,0
2.135234832763672,-0.057906851172447205,-0.05626527592539787,-0.591074526309967,0.19075833200882408,-0.5349163976027191,-0.036111789912960005,0.01773166763004494,-0.23961079294291593,0.0,0.0,-0.6,0.0,0.002460479736328125,0.003607511520385742,0
2.1435651779174805,-0.057906851172447205,-0.05626527592539787,-0.591074526309967,0.19075833200882408,-0.5349643420695981,-0.03176314205852617,0.0128803035050282,-0.23926192956335054,0.0,0.0,-0.6,0.0,0.0010821819305419922,0.002282857894897461,0
2.154991388320923,-0.05765862762928009,-0.05555693805217743,-0.5913510918617249,0.1903889754855751,-0.5350129358222729,-0.027200031796095956,0.008834167129625264,-0.23887921650143643,0.0,0.0,-0.6,0.0,0.0022547245025634766,0.0039844512939453125,0
2.167004346847534,-0.05692248418927193,-0.05361131951212883,-0.5920342206954956,0.18941612995463727,-0.5352079710007637,-0.026604902072993902,0.002448384270429183,-0.2382465002839951,0.0,0.0,-0.6,0.0,0.0023398399353027344,0.0040950775146484375,0
2.1795387268066406,-0.05692248418927193,-0.05361131951212883,-0.5920342206954956,0.18941612995463727,-0.5353647401739833,-0.02620253383293342,-0.0018977553821040126,-0.237803598931786,0.0,0.0,-0.6,0.0,0.001140594482421875,0.0021142959594726562,0
2.1909079551696777,-0.05665859580039978,-0.052941132336854935,-0.5922362804412842,0.18904167367268268,-0.5355425739606786,-0.02611741413340834,-0.00459565196792508,-0.23735314687950665,0.0,0.0,-0.6,0.0,0.002236604690551758,0.0048770904541015625,0
2.2027394771575928,-0.05665859580039978,-0.052941132336854935,-0.5922362804412842,0.18904167367268268,-0.5356853140897205,-0.02606112810468552,-0.0064199027136462115,-0.23703783044291096,0.0,0.0,-0.6,0.0,0.0022695064544677734,0.004697084426879883,0
2.2168824672698975,-0.05601268261671066,-0.05118616670370102,-0.5926964282989502,0.187799691677016,-0.5358030153936453,-0.020078695501338627,-0.008145329481739787,-0.23635136568891935,0.0,0.0,-0.6,0.0,0.0011775493621826172,0.0028448104858398438,0
2.2285661697387695,-0.05581417307257652,-0.05058469623327255,-0.5928242802619934,0.18738585144679645,-0.5359422564543052,-0.017021678138455027,-0.01117397216492534,-0.23571565027479285,0.0,0.0,-0.6,0.0,0.002385377883911133,0.004373073577880859,0
2.241926431655884,-0.05563933774828911,-0.049975551664829254,-0.5929148197174072,0.18689990308918847,-0.5360438306511103,-0.015270139075076468,-0.014860122681272568,-0.2350884188508013,0.0,0.0,-0.6,0.0,0.0017354488372802734,0.0038673877716064453,0
2.2543587684631348,-0.05533308535814285,-0.048879750072956085,-0.5930641889572144,0.18578566084440915,-0.5361991175983785,-0.011474714854608055,-0.016685874525404164,-0.2342315160122152,0.0,0.0,-0.6,0.0,0.002258777618408203,0.005199432373046875,0
2.2667839527130127,-0.055013783276081085,-0.047744426876306534,-0.5931792855262756,0.18471094560072907,-0.536265412450224,-0.006222562475167393,-0.017613135190454796,-0.23322866580882504,0.0,0.0,-0.6,0.0,0.0018019676208496094,0.004058837890625,0
2.278407335281372,-0.055013783276081085,-0.047744426876306534,-0.5931792855262756,0.18471094560072907,-0.5363181313656835,-0.002634458394485006,-0.01824179429575663,-0.2325266706664516,0.0,0.0,-0.6,0.0,0.003205537796020508,0.005499362945556641,0
2.2931926250457764,-0.05474776402115822,-0.046609241515398026,-0.5932680368423462,0.18355904550811233,-0.536474939354859,0.001750704315807252,-0.022188389895824518,-0.23160331153205918,0.0,0.0,-0.6,0.0,0.0011379718780517578,0.0021834373474121094,0
2.3032209873199463,-0.054631639271974564,-0.046048205345869064,-0.5932961702346802,0.1829502733029456,-0.5366026610208103,0.006209385154341886,-0.026808594780842042,-0.2307286705610469,0.0,0.0,-0.6,0.0,0.002018451690673828,0.004103183746337891,0
2.315920829772949,-0.054631639271974564,-0.046048205345869064,-0.5932961702346802,0.1829502733029456,-0.5367065397560522,0.00925196256067404,-0.029952748457914225,-0.23011642188133805,0.0,0.0,-0.6,0.0,0.0024671554565429688,0.003899097442626953,0
2.327322244644165,-0.05434694141149521,-0.04439607262611389,-0.5933459401130676,0.1810935004467867,-0.5368788592796501,0.006477116813788776,-0.03343147833386634,-0.22899155798448276,0.0,0.0,-0.6,0.0,0.00199127197265625,0.00402379035949707,0
2.3377015590667725,-0.05434694141149521,-0.04439607262611389,-0.5933459401130676,0.1810935004467867,-0.5370177192230927,0.004573981025252302,-0.03578394156081242,-0.22820415325668372,0.0,0.0,-0.6,0.0,0.0029075145721435547,0.004698276519775391,0
2.351651668548584,-0.0542343333363533,-0.04337015002965927,-0.5933068990707397,0.18002748257202258,-0.5370929910684185,0.002619946913623996,-0.038054140752135895,-0.22725321324418804,0.0,0.0,-0.6,0.0,0.0020236968994140625,0.003985881805419922,0
2.364125967025757,-0.0542343333363533,-0.04337015002965927,-0.5933068990707397,0.18002748257202258,-0.5371541732600433,0.001281808965323659,-0.039593746082063265,-0.22658755523544077,0.0,0.0,-0.6,0.0,0.002227306365966797,0.0038805007934570312,0
2.376927137374878,-0.05412555858492851,-0.04187461733818054,-0.5930737257003784,0.178367357350279,-0.5374301937684891,0.005890401885927714,-0.04228026117457878,-0.22549904767116427,0.0,0.0,-0.6,0.0,0.002326488494873047,0.0036177635192871094,0
2.388066530227661,-0.05412555858492851,-0.04187461733818054,-0.5930737257003784,0.178367357350279,-0.5376519395666283,0.00903474299564009,-0.04407764101959446,-0.22473709237617037,0.0,0.0,-0.6,0.0,0.0034372806549072266,0.007414817810058594,0
2.409027338027954,-0.054168157279491425,-0.04048722982406616,-0.5926640629768372,0.1769530818584896,-0.5378777713249342,0.009985369215289412,-0.04844904682961577,-0.22367337036025392,0.0,0.0,-0.6,0.0,0.0030715465545654297,0.0050504207611083984,0
2.4285130500793457,-0.054168157279491425,-0.04048722982406616,-0.5926640629768372,0.1769530818584896,-0.5380606309217038,0.010626138051110031,-0.05140353020018205,-0.2229287649491121,0.0,0.0,-0.6,0.0,0.0032913684844970703,0.0065898895263671875,0
2.4475836753845215,-0.054342009127140045,-0.03890944644808769,-0.5919551253318787,0.1746050626637434,-0.5381934773520202,0.015967717632984615,-0.05344897881273587,-0.22152703396328363,0.0,0.0,-0.6,0.0,0.004508495330810547,0.007266044616699219,0
2.468705654144287,-0.054342009127140045,-0.03890944644808769,-0.5919551253318787,0.1746050626637434,-0.5383011064382904,0.019613891636277192,-0.05482934574416485,-0.2205458222732033,0.0,0.0,-0.6,0.0,0.0028901100158691406,0.006582498550415039,0
2.4887311458587646,-0.054680269211530685,-0.03760609030723572,-0.5912115573883057,0.17235478504551563,-0.5385134811420116,0.02250744842436772,-0.05910971575741039,-0.2190151199833122,0.0,0.0,-0.6,0.0,0.003923177719116211,0.007138252258300781,0
2.508610486984253,-0.054680269211530685,-0.03760609030723572,-0.5912115573883057,0.17235478504551563,-0.5386863532972881,0.024476255453580436,-0.06200030364842172,-0.21794362838038794,0.0,0.0,-0.6,0.0,0.003582000732421875,0.00723576545715332,0
2.5287294387817383,-0.05508548393845558,-0.036608368158340454,-0.5906914472579956,0.17024210413583377,-0.5386570248039603,0.02860961092569369,-0.062276829489597334,-0.21640132891721078,0.0,0.0,-0.6,0.0,0.004790544509887695,0.008477449417114258,0
2.54962158203125,-0.055462487041950226,-0.035621318966150284,-0.5903318524360657,0.16826884434567044,-0.538631099761618,0.026862741008348696,-0.06299470760195403,-0.21458174687167578,0.0,0.0,-0.6,0.0,0.003521442413330078,0.006495952606201172,0
2.5714168548583984,-0.055462487041950226,-0.035621318966150284,-0.5903318524360657,0.16826884434567044,-0.538610570797453,0.02566861833609477,-0.06348953066633643,-0.21330803943980073,0.0,0.0,-0.6,0.0,0.003905057907104492,0.008006811141967773,0
2.5930960178375244,-0.056107085198163986,-0.034344810992479324,-0.5900689959526062,0.16557981573993238,-0.5385020379010642,0.021995566124843102,-0.061627491671851324,-0.21140805851033706,0.0,0.0,-0.6,0.0,0.003987312316894531,0.007281780242919922,0
2.613969564437866,-0.056107085198163986,-0.034344810992479324,-0.5900689959526062,0.16557981573993238,-0.5384122762361824,0.019495043904133702,-0.06037553753177247,-0.21007807185971192,0.0,0.0,-0.6,0.0,0.0025107860565185547,0.004510402679443359,0
2.633885145187378,-0.056853119283914566,-0.03325618803501129,-0.59000563621521,0.1630145224439053,-0.5383209705530084,0.012194220728023654,-0.05996446010799548,-0.2081850962182647,0.0,0.0,-0.6,0.0,0.0035660266876220703,0.0070953369140625,0
2.6547274589538574,-0.056853119283914566,-0.03325618803501129,-0.59000563621521,0.1630145224439053,-0.5382446838266883,0.007213093188778792,-0.05969672619651215,-0.2068600132692511,0.0,0.0,-0.6,0.0,0.003333568572998047,0.007329463958740234,0
2.675124406814575,-0.057834476232528687,-0.03198167309165001,-0.5899080634117126,0.15979590711654673,-0.5381513163480948,-0.0005718932825745284,-0.0543204351335333,-0.20472547445718292,0.0,0.0,-0.6,0.0,0.0038030147552490234,0.0074920654296875,0
2.6939034461975098,-0.057834476232528687,-0.03198167309165001,-0.5899080634117126,0.15979590711654673,-0.5380679202692645,-0.005878037418770203,-0.050658036292572685,-0.20323129728873457,0.0,0.0,-0.6,0.0,0.0038709640502929688,0.007670164108276367,0
2.716661214828491,-0.05884159356355667,-0.030950726941227913,-0.589697003364563,0.15687024495665713,-0.5381252281894258,-0.012835039671746411,-0.04489098472822077,-0.20108824996086277,0.0,0.0,-0.6,0.0,0.002570629119873047,0.004549264907836914,0
2.732820749282837,-0.05884159356355667,-0.030950726941227913,-0.589697003364563,0.15687024495665713,-0.538162528045307,-0.017591031321081526,-0.04092106472843604,-0.19958811683135186,0.0,0.0,-0.6,0.0,0.004290342330932617,0.008755207061767578,0
2.7540440559387207,-0.05968658626079559,-0.029751183465123177,-0.5892935395240784,0.15428436216686886,-0.538307612872915,-0.030829208748296536,-0.03405283753462124,-0.19756831759452415,0.0,0.0,-0.6,0.0,0.004155635833740234,0.007841348648071289,0
2.784867286682129,-0.05968658626079559,-0.029751183465123177,-0.5892935395240784,0.15428436216686886,-0.5384119243290676,-0.03988542497980862,-0.02929570198592447,-0.19615445812874413,0.0,0.0,-0.6,0.0,0.004373073577880859,0.007761478424072266,0
2.807330369949341,-0.060757290571928024,-0.028340602293610573,-0.5886536836624146,0.1510096154847738,-0.538507643660926,-0.0370512710144237,-0.021145041274508846,-0.19393672649691326,0.0,0.0,-0.6,0.0,0.0021619796752929688,0.004118442535400391,0
2.82415509223938,-0.060757290571928024,-0.028340602293610573,-0.5886536836624146,0.1510096154847738,-0.5385749101288982,-0.03510970822253516,-0.015543928565426874,-0.192384314354631,0.0,0.0,-0.6,0.0,0.0049211978912353516,0.008146047592163086,0
2.8443655967712402,-0.06157172843813896,-0.027137231081724167,-0.5881568193435669,0.1480090406518503,-0.5385943431364182,-0.03780511409614181,-0.006609191775449103,-0.19017241029268778,0.0,0.0,-0.6,0.0,0.0051386356353759766,0.008693218231201172,0
2.866224527359009,-0.06157172843813896,-0.027137231081724167,-0.5881568193435669,0.1480090406518503,-0.5386006900314779,-0.039638306540870236,-0.0004881451023984202,-0.18862407744932685,0.0,0.0,-0.6,0.0,0.004110097885131836,0.007409572601318359,0
2.8864972591400146,-0.062421828508377075,-0.025973258540034294,-0.5876327753067017,0.14504181534563806,-0.5386683077877651,-0.03691941505874697,0.0037121306808788924,-0.18642753496914527,0.0,0.0,-0.6,0.0,0.004677772521972656,0.008061408996582031,0
2.907881259918213,-0.062421828508377075,-0.025973258540034294,-0.5876327753067017,0.14504181534563806,-0.5387181373549809,-0.03505862346126587,0.00660103529071231,-0.18488995523301752,0.0,0.0,-0.6,0.0,0.003238677978515625,0.005480051040649414,0
2.928295850753784,-0.06303521245718002,-0.025135701522231102,-0.5872679352760315,0.14270478902715836,-0.5387264236457783,-0.032932377820805415,0.010660021943679595,-0.1829372645482986,0.0,0.0,-0.6,0.0,0.0035097599029541016,0.007306337356567383,0
2.947779417037964,-0.06364218145608902,-0.024297282099723816,-0.5868589282035828,0.14040833959980578,-0.5386753697216958,-0.02881849195749513,0.014823100538609045,-0.1807092125337384,0.0,0.0,-0.6,0.0,0.0033097267150878906,0.006797313690185547,0
2.9680328369140625,-0.06364218145608902,-0.024297282099723816,-0.5868589282035828,0.14040833959980578,-0.5386309130225272,-0.026001971869377152,0.017651507595702033,-0.1791495761235456,0.0,0.0,-0.6,0.0,0.0038623809814453125,0.006284236907958984,0
2.9885261058807373,-0.0641978308558464,-0.02350146882236004,-0.5864042043685913,0.13829356165602638,-0.5387377535668995,-0.023497542860656053,0.016974245109927198,-0.1772647889074937,0.0,0.0,-0.6,0.0,0.0036287307739257812,0.00708317756652832,0
3.007794141769409,-0.0641978308558464,-0.02350146882236004,-0.5864042043685913,0.13829356165602638,-0.5388231794415675,-0.02178953044531052,0.016533586650208577,-0.1759454378562568,0.0,0.0,-0.6,0.0,0.003222942352294922,0.007000923156738281,0
3.029381036758423,-0.0647980198264122,-0.022180920466780663,-0.5855794548988342,0.13514635134610853,-0.5389082177975913,-0.02066151846711095,0.01764745399365369,-0.17384168825417257,0.0,0.0,-0.6,0.0,0.0036830902099609375,0.0069980621337890625,0
3.0491223335266113,-0.0647980198264122,-0.022180920466780663,-0.5855794548988342,0.13514635134610853,-0.538975275106917,-0.0198915155468504,0.01842703446539391,-0.17236906353271297,0.0,0.0,-0.6,0.0,0.003534078598022461,0.007398366928100586,0
3.0758399963378906,-0.0651954784989357,-0.02129821665585041,-0.5847797393798828,0.1321890188248155,-0.5391429846591258,-0.013432294277428678,0.013994127464242716,-0.17022922653220704,0.0,0.0,-0.6,0.0,0.0037221908569335938,0.006406068801879883,0
3.098569869995117,-0.065342016518116,-0.020885642617940903,-0.5843253135681152,0.13090064848930236,-0.5393742864360126,-0.010429312933953744,0.011249461781568713,-0.16824820175603528,0.0,0.0,-0.6,0.0,0.004048585891723633,0.007391214370727539,0
3.1180105209350586,-0.0654940977692604,-0.020175257697701454,-0.583595871925354,0.1289522117437044,-0.5396388035640632,-0.013777221754597967,0.011325172565453161,-0.16613082063311596,0.0,0.0,-0.6,0.0,0.002415180206298828,0.006265163421630859,0
3.1376001834869385,-0.0654940977692604,-0.020175257697701454,-0.583595871925354,0.1289522117437044,-0.5398495984013669,-0.016071243770568767,0.011439750110578717,-0.1646486538470718,0.0,0.0,-0.6,0.0,0.003879547119140625,0.006982564926147461,0
3.156447410583496,-0.0655117779970169,-0.019206199795007706,-0.5825691819190979,0.12617606052718147,-0.540080030864451,-0.018041724046418184,0.0162347392540657,-0.16257008039064538,0.0,0.0,-0.6,0.0,0.0032253265380859375,0.0063326358795166016,0
3.1770806312561035,-0.0655117779970169,-0.019206199795007706,-0.5825691819190979,0.12617606052718147,-0.5402605524128267,-0.019386132735593486,0.01956944853288884,-0.16111507897114627,0.0,0.0,-0.6,0.0,0.0038814544677734375,0.006476163864135742,0
3.1970486640930176,-0.0655408650636673,-0.018242254853248596,-0.5814778208732605,0.12325102914483717,-0.5403426298490522,-0.017549992878311323,0.026402821033654784,-0.15899969120911844,0.0,0.0,-0.6,0.0,0.004473447799682617,0.008730649948120117,0
3.217481851577759,-0.0655408650636673,-0.018242254853248596,-0.5814778208732605,0.12325102914483717,-0.5404034293093146,-0.016287952965956125,0.03109217837562689,-0.15751891977569832,0.0,0.0,-0.6,0.0,0.0038483142852783203,0.007447957992553711,0
3.2358033657073975,-0.06562001258134842,-0.017335768789052963,-0.5802052021026611,0.11984285031106223,-0.5404180914829345,-0.01646328161831133,0.03323814749220716,-0.15520431270963947,0.0,0.0,-0.6,0.0,0.0031766891479492188,0.005962848663330078,0
3.2564780712127686,-0.06562001258134842,-0.017335768789052963,-0.5802052021026611,0.11984285031106223,-0.5404287010453493,-0.016581265415861912,0.034708682062675994,-0.15358408776339758,0.0,0.0,-0.6,0.0,0.004312753677368164,0.007551431655883789,0
3.2790029048919678,-0.06566818803548813,-0.016491185873746872,-0.5791300535202026,0.1167033379900365,-0.5405400640491317,-0.017638060481288048,0.028748597491699605,-0.1512726131806443,0.0,0.0,-0.6,0.0,0.0042231082916259766,0.007736682891845703,0
3.301382303237915,-0.06566818803548813,-0.016491185873746872,-0.5791300535202026,0.1167033379900365,-0.5406309355085576,-0.018372106574205273,0.02469465284045711,-0.1496545809727163,0.0,0.0,-0.6,0.0,0.0040056705474853516,0.00818181037902832,0
3.322514057159424,-0.06570667773485184,-0.015721354633569717,-0.5779750943183899,0.11395644959484612,-0.5407018667231325,-0.021006798554078755,0.018239859867175353,-0.14749187527897087,0.0,0.0,-0.6,0.0,0.0038988590240478516,0.0061664581298828125,0
3.344191551208496,-0.06575056910514832,-0.015402073040604591,-0.5773781538009644,0.11242675577070708,-0.5407533302734414,-0.024366816895351917,0.013960121817311887,-0.14540434610929687,0.0,0.0,-0.6,0.0,0.012835502624511719,0.014966487884521484,0
3.3760433197021484,-0.06575056910514832,-0.015402073040604591,-0.5773781538009644,0.11242675577070708,-0.5407960838686999,-0.026670867039179178,0.011046774394733748,-0.14394307569052442,0.0,0.0,-0.6,0.0,0.0027010440826416016,0.0055789947509765625,0
3.394181489944458,-0.06577979773283005,-0.014739525504410267,-0.5759623646736145,0.10937891573261047,-0.5408873685360209,-0.022581080538512304,0.004401091778755388,-0.1417772463830982,0.0,0.0,-0.6,0.0,0.0014853477478027344,0.0027582645416259766,0
3.403099775314331,-0.06578070670366287,-0.014610623940825462,-0.5757191181182861,0.1088435919124342,-0.5409460549088312,-0.019383328829179258,0.0006657544905808517,-0.14006041943533326,0.0,0.0,-0.6,0.0,0.0017404556274414062,0.0031232833862304688,0
3.41214656829834,-0.06578682363033295,-0.01437511295080185,-0.5752514004707336,0.1075734923633763,-0.54092862426202,-0.0187771281629532,-0.0009213947705618768,-0.13838235324100107,0.0,0.0,-0.6,0.0,0.0020856857299804688,0.003351449966430664,0
3.421189546585083,-0.06578682363033295,-0.01437511295080185,-0.5752514004707336,0.1075734923633763,-0.5409155438385033,-0.018364518278125914,-0.0020103891209219934,-0.13720770690496803,0.0,0.0,-0.6,0.0,0.0012218952178955078,0.002214193344116211,0
3.4302847385406494,-0.06578589230775833,-0.01430477388203144,-0.5750420093536377,0.10684275873029675,-0.5408619251155179,-0.018431314160038185,-0.002418950874299858,-0.13611142935734,0.0,0.0,-0.6,0.0,0.0014071464538574219,0.002542734146118164,0
3.440629720687866,-0.06579716503620148,-0.014281411655247211,-0.5747556686401367,0.10600211669942923,-0.5408609717592252,-0.012526651603749883,-0.003728095342156243,-0.13502879431242504,0.0,0.0,-0.6,0.0,0.0013201236724853516,0.0024869441986083984,0
3.4503026008605957,-0.06579457968473434,-0.014233390800654888,-0.5745537877082825,0.10544022796366079,-0.540843579696558,-0.008283671801009047,-0.006459384605062303,-0.1340602415050713,0.0,0.0,-0.6,0.0,0.0013606548309326172,0.0025568008422851562,0
3.460819959640503,-0.06579536199569702,-0.014181178994476795,-0.5743502974510193,0.10485989274541725,-0.5408359533629404,-0.0066870596365802455,-0.009200284285608587,-0.13316462883308228,0.0,0.0,-0.6,0.0,0.0017049312591552734,0.002788543701171875,0
3.4706175327301025,-0.06575798243284225,-0.014147289097309113,-0.5741361379623413,0.10389084346560487,-0.5407903754570127,-0.0062000998673087575,-0.006096016982523524,-0.1321743064827604,0.0,0.0,-0.6,0.0,0.0024864673614501953,0.004662275314331055,0
3.4845242500305176,-0.06575798243284225,-0.014147289097309113,-0.5741361379623413,0.10389084346560487,-0.5407519104603167,-0.005864789387211047,-0.003982989727266636,-0.1314810808375348,0.0,0.0,-0.6,0.0,0.0025205612182617188,0.004949331283569336,0
3.5002758502960205,-0.06576213240623474,-0.014076661318540573,-0.5737570524215698,0.10254523236985422,-0.5406815580413682,-0.004347555696094723,-0.002403900519232953,-0.13049121872497066,0.0,0.0,-0.6,0.0,0.002383708953857422,0.00471949577331543,0
3.513760566711426,-0.06576213240623474,-0.014076661318540573,-0.5737570524215698,0.10254523236985422,-0.5406244789844107,-0.0033084575164714827,-0.0013394136705316283,-0.12979831524617547,0.0,0.0,-0.6,0.0,0.0021004676818847656,0.004575490951538086,0
3.5275676250457764,-0.06571173667907715,-0.013954045251011848,-0.5732778310775757,0.10052984918364823,-0.5405822104604802,-9.037845774563426e-05,0.0017668223741416204,-0.12855751411619215,0.0,0.0,-0.6,0.0,0.002465963363647461,0.004734992980957031,0
3.542880058288574,-0.06568718701601028,-0.013873166404664516,-0.5729200839996338,0.09926844954357637,-0.5406258540876613,0.002863347688174713,0.0022584005165486075,-0.12721592846017699,0.0,0.0,-0.6,0.0,0.0026464462280273438,0.005383491516113281,0
3.5567703247070312,-0.06568718701601028,-0.013873166404664516,-0.5729200839996338,0.09926844954357637,-0.5406604227213394,0.004881336817480016,0.00260109461090072,-0.12627681850096598,0.0,0.0,-0.6,0.0,0.002775907516479492,0.005248308181762695,0
3.5721957683563232,-0.06569933891296387,-0.013854705728590488,-0.572438657283783,0.09718132155789644,-0.5406023555620109,0.009390380652025236,0.004985870735318754,-0.12483676853488877,0.0,0.0,-0.6,0.0,0.002583026885986328,0.004918813705444336,0
3.588991403579712,-0.06573889404535294,-0.013869439251720905,-0.5721384882926941,0.09584146071023654,-0.5406517257674662,0.009145092145275301,0.005282009690789624,-0.12332628574076235,0.0,0.0,-0.6,0.0,0.002338409423828125,0.00452876091003418,0
3.602367401123047,-0.06573889404535294,-0.013869439251720905,-0.5721384882926941,0.09584146071023654,-0.5406908703944988,0.008975183386380696,0.005494905463674891,-0.1222689477848734,0.0,0.0,-0.6,0.0,0.002488851547241211,0.004828691482543945,0
3.6176486015319824,-0.06576508283615112,-0.014020451344549656,-0.5717259645462036,0.09393426411124546,-0.5406695987482526,0.012394472302571609,0.009067647594678556,-0.12081361249112736,0.0,0.0,-0.6,0.0,0.0026009082794189453,0.004926443099975586,0
3.631479501724243,-0.06576508283615112,-0.014020451344549656,-0.5717259645462036,0.09393426411124546,-0.5406507178395404,0.014734740036838261,0.011503071715200052,-0.11979487778550368,0.0,0.0,-0.6,0.0,0.0024199485778808594,0.004744768142700195,0
3.6463091373443604,-0.06575095653533936,-0.014292394742369652,-0.5713851451873779,0.09186967251595511,-0.5405109958889146,0.018176917274956298,0.015040008826990296,-0.11830754164333465,0.0,0.0,-0.6,0.0,0.0032286643981933594,0.005525350570678711,0
3.6606295108795166,-0.06575095653533936,-0.014292394742369652,-0.5713851451873779,0.09186967251595511,-0.5403981161607089,0.020538644083030567,0.017427214442282124,-0.11726640634381666,0.0,0.0,-0.6,0.0,0.0024306774139404297,0.004721403121948242,0
3.675530195236206,-0.06566359847784042,-0.014688397757709026,-0.5711109638214111,0.08978782769004509,-0.5404336591639993,0.019830725406741714,0.0138837710670107,-0.11575691982443746,0.0,0.0,-0.6,0.0,0.0025544166564941406,0.0048487186431884766,0
3.6906747817993164,-0.06566359847784042,-0.014688397757709026,-0.5711109638214111,0.08978782769004509,-0.5404634390968874,0.01934124408719731,0.011467928707212596,-0.11470027926087419,0.0,0.0,-0.6,0.0,0.002357006072998047,0.004790306091308594,0
3.7050185203552246,-0.06560125201940536,-0.015152178704738617,-0.5708186030387878,0.08775547471049942,-0.540458646452397,0.020845855648955663,0.010584020916597301,-0.11319849849905071,0.0,0.0,-0.6,0.0,0.0026357173919677734,0.005059480667114258,0
3.719616651535034,-0.06560125201940536,-0.015152178704738617,-0.5708186030387878,0.08775547471049942,-0.5404556505666184,0.021873480771402637,0.009976932859523788,-0.11214725196577383,0.0,0.0,-0.6,0.0,0.0022652149200439453,0.004450321197509766,0
3.734321117401123,-0.06559484452009201,-0.015504088252782822,-0.5705544948577881,0.0863623202995062,-0.5404522728011552,0.022555237321940813,0.011319591854952174,-0.11088894648835557,0.0,0.0,-0.6,0.0,0.002378702163696289,0.004883289337158203,0
3.749465227127075,-0.06561192125082016,-0.015881357714533806,-0.5702736973762512,0.08515975242902883,-0.5404354150003821,0.022919877772578926,0.0115709059481038,-0.10955716970273373,0.0,0.0,-0.6,0.0,0.0024156570434570312,0.004590272903442383,0
