time,x,y,z,yaw,throttle,roll_rate,pitch_rate,yaw_rate,x_ref,y_ref,z_ref,yaw_ref,pred_time,nr_time,metadata
4.76837158203125e-06,-0.0237132515758276,-0.0736672580242157,-0.24058738350868225,-0.0061371466172468365,-0.532401885585275,0.03927698070803798,-0.003456264502264966,0.0023014299814675078,0.0,0.0,-0.6,0.0,0.0015490055084228516,0.0024704933166503906,Hardware
0.010454893112182617,-0.0237132515758276,-0.0736672580242157,-0.24058738350868225,-0.0061371466172468365,-0.5412767338912844,0.06650876564845043,-0.0051245431830880825,0.003912430968494955,0.0,0.0,-0.6,0.0,0.0008072853088378906,0.0023169517517089844,Nonlinear
0.020205020904541016,-0.02369772456586361,-0.07364175468683243,-0.24058662354946136,-0.0060906040422590265,-0.5483193572752798,0.08397981892041695,-0.005403490975069916,0.005022678193793817,0.0,0.0,-0.6,0.0,0.0017070770263671875,0.0031464099884033203,1x Speed
0.030756711959838867,-0.023665528744459152,-0.07364179939031601,-0.24057240784168243,-0.006045464902437965,-0.5539134038662402,0.09610081775152347,-0.005477777055612278,0.005782924074069972,0.0,0.0,-0.6,0.0,0.001850128173828125,0.002841949462890625,0OrderHold
0.04060721397399902,-0.023649176582694054,-0.07362192869186401,-0.24058003723621368,-0.005992012476481282,-0.5582621634369039,0.10337783072373835,-0.003991728226586443,0.006295051530529449,0.0,0.0,-0.6,0.0,0.001718759536743164,0.0028955936431884766,QuatYawError
0.050004005432128906,-0.023649176582694054,-0.07362192869186401,-0.24058003723621368,-0.005992012476481282,-0.5617131659476134,0.10772121175948805,-0.002651365096168004,0.006653540750051164,0.0,0.0,-0.6,0.0,0.001308441162109375,0.0022110939025878906,NoPyJoules
0.060327768325805664,-0.023661423474550247,-0.07359714061021805,-0.2406199425458908,-0.005982085006709037,-0.5645270329058537,0.11052441486273579,-0.00303097591865099,0.00690076040255175,0.0,0.0,-0.6,0.0,0.0018570423126220703,0.003049135208129883,0
0.07093214988708496,-0.02364516071975231,-0.07359359413385391,-0.24066174030303955,-0.005901433189100386,-0.5667384342026133,0.11219069196742454,-0.0023802031347293076,0.007043569727698882,0.0,0.0,-0.6,0.0,0.0023212432861328125,0.0039293766021728516,0
0.08149290084838867,-0.02362540364265442,-0.07359230518341064,-0.24070638418197632,-0.005877783052038138,-0.5684468458310741,0.1122986462969144,-0.001032387172640855,0.007134667453903536,0.0,0.0,-0.6,0.0,0.0017032623291015625,0.00264739990234375,0
0.09060215950012207,-0.0236051082611084,-0.0735994204878807,-0.2407640665769577,-0.005847094614460067,-0.5698014340280091,0.11214335365840607,-0.0014969760455387903,0.00718692769815501,0.0,0.0,-0.6,0.0,0.0014536380767822266,0.0029249191284179688,0
0.10094356536865234,-0.023568062111735344,-0.07361744344234467,-0.24082033336162567,-0.005801247812617092,-0.570885367117066,0.11426441885246441,-0.0008405189348050309,0.00720631731843992,0.0,0.0,-0.6,0.0,0.0016398429870605469,0.0027904510498046875,0
0.11354398727416992,-0.023527713492512703,-0.0736357569694519,-0.24087384343147278,-0.005794940542406874,-0.5716674392263702,0.11471774758751052,0.002063197210913736,0.007217524826310521,0.0,0.0,-0.6,0.0,0.0015299320220947266,0.0031561851501464844,0
0.12275004386901855,-0.023484403267502785,-0.07365255057811737,-0.24093738198280334,-0.005798845004405897,-0.5723069612342787,0.11351317660570748,0.005143141966315688,0.007226834255069575,0.0,0.0,-0.6,0.0,0.0018093585968017578,0.002880096435546875,0
0.13148260116577148,-0.02343025989830494,-0.07366626709699631,-0.2410019487142563,-0.005785335463600507,-0.5727896701459364,0.11181193573034613,0.008392463527924715,0.007228284777398892,0.0,0.0,-0.6,0.0,0.0017781257629394531,0.0026810169219970703,0
0.13982009887695312,-0.02343025989830494,-0.07366626709699631,-0.2410019487142563,-0.005785335463600507,-0.5731694263919723,0.11055839862901455,0.010653472442390633,0.007229300143029415,0.0,0.0,-0.6,0.0,0.0018239021301269531,0.0029227733612060547,0
0.15088319778442383,-0.023227570578455925,-0.0737406462430954,-0.24119773507118225,-0.005618803118735685,-0.5734227397688274,0.11251372958571924,0.015847889559737323,0.00716756126964646,0.0,0.0,-0.6,0.0,0.0013873577117919922,0.002441883087158203,0
0.1597750186920166,-0.023227570578455925,-0.0737406462430954,-0.24119773507118225,-0.005618803118735685,-0.5736243098602994,0.113813251625636,0.01942778916735061,0.007124344058278404,0.0,0.0,-0.6,0.0,0.0022754669189453125,0.003700733184814453,0
0.1699390411376953,-0.023151760920882225,-0.07376730442047119,-0.24132129549980164,-0.005452884222332157,-0.5736627066776393,0.11621097161599768,0.02271975134371924,0.007031872424169444,0.0,0.0,-0.6,0.0,0.0017871856689453125,0.0028235912322998047,0
0.180344820022583,-0.02306719310581684,-0.07379215210676193,-0.24149306118488312,-0.005021667124082598,-0.5735641470619105,0.12074237078781831,0.026590781962437842,0.006805435868449591,0.0,0.0,-0.6,0.0,0.0014765262603759766,0.0024976730346679688,0
0.18987178802490234,-0.02296966128051281,-0.07381242513656616,-0.2417278289794922,-0.004479739424502673,-0.5733516004698839,0.12379203588381828,0.03130866547849773,0.006443707392103146,0.0,0.0,-0.6,0.0,0.0015282630920410156,0.002691030502319336,0
0.2001028060913086,-0.022859571501612663,-0.07381360977888107,-0.24203042685985565,-0.003830185489759436,-0.5730655941973762,0.12504638576832106,0.035679957016043456,0.005946914733132002,0.0,0.0,-0.6,0.0,0.001787424087524414,0.0030252933502197266,0
0.2108628749847412,-0.022753536701202393,-0.07378602027893066,-0.24241656064987183,-0.0029647896762847836,-0.5726621854608861,0.11946540085211244,0.03957015981986682,0.005274636441799066,0.0,0.0,-0.6,0.0,0.0018870830535888672,0.0030069351196289062,0
0.22101807594299316,-0.022684786468744278,-0.07371558248996735,-0.24290595948696136,-0.0019957465257874904,-0.5721853637762525,0.11295841800875038,0.04343808501422307,0.004440650456429675,0.0,0.0,-0.6,0.0,0.0019156932830810547,0.0033075809478759766,0
0.231034517288208,-0.022626513615250587,-0.07366710901260376,-0.24350039660930634,-0.0009626510249854151,-0.5716330697245487,0.10604151118074286,0.04622521308126321,0.003469449453870116,0.0,0.0,-0.6,0.0,0.00153350830078125,0.0034787654876708984,0
0.24149394035339355,-0.02260778471827507,-0.0736304521560669,-0.2442317008972168,0.0002450832638718997,-0.5709599625544507,0.09839493458416626,0.04809237794835404,0.002336708393757085,0.0,0.0,-0.6,0.0,0.001386404037475586,0.002834796905517578,0
0.24990224838256836,-0.02260778471827507,-0.0736304521560669,-0.2442317008972168,0.0002450832638718997,-0.5704166524070055,0.09329065027376564,0.04933176822012263,0.001543789651678016,0.0,0.0,-0.6,0.0,0.0015912055969238281,0.0026764869689941406,0
0.2599194049835205,-0.022628117352724075,-0.07360168546438217,-0.24610567092895508,0.003087115652029298,-0.5695020963555627,0.08332184319887351,0.05206715286511553,-7.701561333633652e-05,0.0,0.0,-0.6,0.0,0.0020384788513183594,0.003573179244995117,0
0.27007579803466797,-0.022631099447607994,-0.07356986403465271,-0.24753764271736145,0.005194312613231996,-0.5684052830158647,0.07370494970075514,0.0562090474267258,-0.002001778159297388,0.0,0.0,-0.6,0.0,0.0017604827880859375,0.002725362777709961,0
0.279742956161499,-0.022652002051472664,-0.07358310371637344,-0.24878357350826263,0.0067660149775042935,-0.5672953116757123,0.06776569855508639,0.05869576546364842,-0.003938500328072025,0.0,0.0,-0.6,0.0,0.0013942718505859375,0.002518892288208008,0
0.28969311714172363,-0.022701406851410866,-0.07362402975559235,-0.2501336336135864,0.008256906770703948,-0.5661893126777903,0.06492795036220363,0.05889871971752416,-0.005853290268664144,0.0,0.0,-0.6,0.0,0.0016736984252929688,0.0026960372924804688,0
0.3000187873840332,-0.022785188630223274,-0.0736713632941246,-0.2515837848186493,0.00980494893177466,-0.5651331428180731,0.06301360628968322,0.057462208924949125,-0.007774159037480351,0.0,0.0,-0.6,0.0,0.0017418861389160156,0.0030896663665771484,0
0.31119656562805176,-0.022752655670046806,-0.07376296073198318,-0.2527400553226471,0.011541188098425116,-0.5641091446758432,0.057731282766053084,0.05732497661655573,-0.009769856863145833,0.0,0.0,-0.6,0.0,0.00179290771484375,0.002756834030151367,0
0.3205101490020752,-0.022832810878753662,-0.07381664216518402,-0.2543798089027405,0.013271001604486847,-0.5630738558877776,0.05310733001020986,0.055392051814251705,-0.011815525405885267,0.0,0.0,-0.6,0.0,0.0018641948699951172,0.003247976303100586,0
0.3312044143676758,-0.022935347631573677,-0.07386519759893417,-0.2561495006084442,0.015089058978057124,-0.561968197539218,0.04818993219873208,0.05323288762609497,-0.013929264900890827,0.0,0.0,-0.6,0.0,0.001561880111694336,0.0029070377349853516,0
0.34102654457092285,-0.023045716807246208,-0.07391655445098877,-0.2580530345439911,0.017008282979965227,-0.5608479085146834,0.04328919958359775,0.051199102746640635,-0.016128591548110725,0.0,0.0,-0.6,0.0,0.0013780593872070312,0.0024034976959228516,0
0.34980320930480957,-0.023256268352270126,-0.07394979149103165,-0.2616279721260071,0.021002187740019707,-0.5594908435126247,0.03081193236268405,0.041343205148326984,-0.019165834486183836,0.0,0.0,-0.6,0.0,0.0014834403991699219,0.0028028488159179688,0
0.3597879409790039,-0.023256268352270126,-0.07394979149103165,-0.2616279721260071,0.021002187740019707,-0.5583984553588892,0.022588940976064262,0.03450248486456763,-0.021291904542836717,0.0,0.0,-0.6,0.0,0.0015208721160888672,0.002533435821533203,0
0.3700442314147949,-0.023471372202038765,-0.07397835701704025,-0.26382118463516235,0.022894344811795336,-0.5573088683325909,0.01515480701762778,0.02836312895137938,-0.023489712484407708,0.0,0.0,-0.6,0.0,0.001901865005493164,0.0032002925872802734,0
0.3808324337005615,-0.023894568905234337,-0.07402512431144714,-0.2679305672645569,0.027266234882668057,-0.5560172370643552,0.011149942261192905,0.02279776390625073,-0.026667636820085494,0.0,0.0,-0.6,0.0,0.0017631053924560547,0.003007650375366211,0
0.3908650875091553,-0.02414149045944214,-0.07411659508943558,-0.2703930139541626,0.029349687832922137,-0.554818552616566,0.010188068286929879,0.019229018125828137,-0.02967347871140525,0.0,0.0,-0.6,0.0,0.0017154216766357422,0.0030286312103271484,0
0.4000086784362793,-0.02414149045944214,-0.07411659508943558,-0.2703930139541626,0.029349687832922137,-0.5538649872791143,0.009772434492921265,0.016671210321838454,-0.0317775680353292,0.0,0.0,-0.6,0.0,0.0018157958984375,0.0028984546661376953,0
0.41124987602233887,-0.024394061416387558,-0.07423610240221024,-0.2729351818561554,0.03144819564434331,-0.5528592427772555,0.012445702089071886,0.01549497131746506,-0.034037370991357896,0.0,0.0,-0.6,0.0,0.0017466545104980469,0.0029649734497070312,0
0.42086243629455566,-0.024757670238614082,-0.07449150830507278,-0.2776523530483246,0.03586230396127592,-0.5517353847723773,0.011486449397679236,0.012474393710526274,-0.037274523679427164,0.0,0.0,-0.6,0.0,0.0016324520111083984,0.002969980239868164,0
0.4299592971801758,-0.024757670238614082,-0.07449150830507278,-0.2776523530483246,0.03586230396127592,-0.5508409224648249,0.011056019317062097,0.010287371064568366,-0.039540530561076204,0.0,0.0,-0.6,0.0,0.0015265941619873047,0.002496480941772461,0
0.43981289863586426,-0.02524886652827263,-0.07477985322475433,-0.2832513749599457,0.04020445068783114,-0.5497206294993063,0.01174556273907012,0.0061358346862723885,-0.042755040400689594,0.0,0.0,-0.6,0.0,0.0019087791442871094,0.003222942352294922,0
0.45111680030822754,-0.02554410509765148,-0.07497654855251312,-0.28689640760421753,0.043915370730010825,-0.5487218803920679,0.01992844833719369,0.0053103728746922785,-0.04639679230423313,0.0,0.0,-0.6,0.0,0.0018324851989746094,0.0034351348876953125,0
0.4604766368865967,-0.025774670764803886,-0.07509332150220871,-0.2898983657360077,0.04613408720635959,-0.5476629488567465,0.025056360545536917,0.007191296939929695,-0.04977803731534759,0.0,0.0,-0.6,0.0,0.001321554183959961,0.0023801326751708984,0
0.47092413902282715,-0.025774670764803886,-0.07509332150220871,-0.2898983657360077,0.04613408720635959,-0.5468217625580738,0.028765044729569377,0.008340122614711041,-0.05214490882312785,0.0,0.0,-0.6,0.0,0.001775503158569336,0.0030760765075683594,0
0.48072242736816406,-0.026242507621645927,-0.07525061815977097,-0.2961151599884033,0.050994653978380204,-0.545792220508911,0.02856277851870531,0.013189636504854853,-0.055624431418081606,0.0,0.0,-0.6,0.0,0.0018405914306640625,0.002913951873779297,0
0.4907999038696289,-0.026473671197891235,-0.07534345984458923,-0.2993046045303345,0.05351934381300755,-0.5447876000398296,0.027548425158593227,0.01795040380353297,-0.05900685592253157,0.0,0.0,-0.6,0.0,0.0014586448669433594,0.0024650096893310547,0
0.4999511241912842,-0.026473671197891235,-0.07534345984458923,-0.2993046045303345,0.05351934381300755,-0.5439837198077696,0.027058011792509638,0.021046815083528105,-0.061374553075647556,0.0,0.0,-0.6,0.0,0.0016589164733886719,0.003213644027709961,0
0.5111744403839111,-0.02672153152525425,-0.07544653117656708,-0.3025428056716919,0.05580726571746136,-0.5431332988846466,0.027334344160704106,0.024319314957482126,-0.06388991179700096,0.0,0.0,-0.6,0.0,0.0013735294342041016,0.0027310848236083984,0
0.5217757225036621,-0.02698131464421749,-0.0755629688501358,-0.3058197796344757,0.058501069668777175,-0.5422861933723606,0.028575205196140593,0.02843114425987193,-0.06666083938369174,0.0,0.0,-0.6,0.0,0.0015807151794433594,0.002585172653198242,0
0.5304901599884033,-0.02723349817097187,-0.07567446678876877,-0.309155136346817,0.06120432159457155,-0.5414691148740703,0.031247949866832186,0.03372446524930067,-0.06961420816654816,0.0,0.0,-0.6,0.0,0.0017473697662353516,0.0028505325317382812,0
0.5408132076263428,-0.02748079039156437,-0.07579225301742554,-0.31251028180122375,0.06344435702170302,-0.5407013938392486,0.03388248597615785,0.0393469708672884,-0.07252157959972196,0.0,0.0,-0.6,0.0,0.0017249584197998047,0.0026400089263916016,0
0.55074143409729,-0.027994921430945396,-0.07601767778396606,-0.31926393508911133,0.06871946136791106,-0.5398551710396896,0.03713797571686371,0.047225559183454516,-0.07653490373277148,0.0,0.0,-0.6,0.0,0.0017673969268798828,0.003032207489013672,0
0.5600399971008301,-0.027994921430945396,-0.07601767778396606,-0.31926393508911133,0.06871946136791106,-0.5391785241861643,0.039521904807205535,0.052457950856808676,-0.07934423062590631,0.0,0.0,-0.6,0.0,0.0014984607696533203,0.002526998519897461,0
0.5699353218078613,-0.02851632982492447,-0.0762081891298294,-0.3260842263698578,0.07359963424237333,-0.5385581923850127,0.036367734627893146,0.05858400511696328,-0.0831408242790338,0.0,0.0,-0.6,0.0,0.0015108585357666016,0.0034942626953125,0
0.5809469223022461,-0.028770897537469864,-0.07630295306444168,-0.32951995730400085,0.07625429946197446,-0.5379009056865356,0.032735468142604286,0.0639956708984159,-0.08679393929356677,0.0,0.0,-0.6,0.0,0.001463174819946289,0.0024869441986083984,0
0.5898277759552002,-0.028770897537469864,-0.07630295306444168,-0.32951995730400085,0.07625429946197446,-0.537371314115063,0.03038774105498603,0.06756819464564966,-0.08935111980374347,0.0,0.0,-0.6,0.0,0.0018267631530761719,0.003256082534790039,0
0.6003243923187256,-0.029027631506323814,-0.07640881091356277,-0.33296236395835876,0.07855828139685941,-0.5368143657144439,0.026523664148704145,0.06951060979103647,-0.09200513938644465,0.0,0.0,-0.6,0.0,0.0015766620635986328,0.0029850006103515625,0
0.6137638092041016,-0.029027631506323814,-0.07640881091356277,-0.33296236395835876,0.07855828139685941,-0.5363661848116899,0.02400094758433307,0.07073699920130531,-0.09386295309433168,0.0,0.0,-0.6,0.0,0.002697467803955078,0.003877401351928711,0
0.6237246990203857,-0.02982504293322563,-0.07665075361728668,-0.34343379735946655,0.0862516871084694,-0.5356668686110921,0.017488630618567164,0.07080679399691421,-0.09804844983170401,0.0,0.0,-0.6,0.0,0.0017828941345214844,0.0031270980834960938,0
0.6327178478240967,-0.02982504293322563,-0.07665075361728668,-0.34343379735946655,0.0862516871084694,-0.5351032406013146,0.013193960454242329,0.0707138528970823,-0.1009782975478659,0.0,0.0,-0.6,0.0,0.0019237995147705078,0.003488779067993164,0
0.6421444416046143,-0.03036571480333805,-0.07681433856487274,-0.35046830773353577,0.09109547958982062,-0.5344987200838788,0.010094614572083162,0.0720201755114438,-0.1048456131296917,0.0,0.0,-0.6,0.0,0.0017421245574951172,0.0029985904693603516,0
0.6509227752685547,-0.03036571480333805,-0.07681433856487274,-0.35046830773353577,0.09109547958982062,-0.5340133736272941,0.0081009101487203,0.07279456713762406,-0.10755273403696891,0.0,0.0,-0.6,0.0,0.0014519691467285156,0.0029332637786865234,0
0.6597976684570312,-0.030632860958576202,-0.0768958181142807,-0.35400933027267456,0.09367046659625515,-0.533566917063042,0.006916784563047543,0.07446452832322602,-0.11041333879947603,0.0,0.0,-0.6,0.0,0.0014958381652832031,0.002564668655395508,0
0.6698901653289795,-0.030902331694960594,-0.07698331028223038,-0.35751858353614807,0.09583130227515628,-0.5331159563305959,0.005794417279903641,0.07635630939016957,-0.11322607551281401,0.0,0.0,-0.6,0.0,0.002218484878540039,0.0036003589630126953,0
0.6803379058837891,-0.03142630308866501,-0.0771443098783493,-0.3645798861980438,0.10091324385097222,-0.5325071760891945,0.00318925075432065,0.07722497552953636,-0.11710071930309396,0.0,0.0,-0.6,0.0,0.0015666484832763672,0.002882242202758789,0
0.6898691654205322,-0.03142630308866501,-0.0771443098783493,-0.3645798861980438,0.10091324385097222,-0.5320188067537065,0.0015375270231691356,0.07770977632868015,-0.11981296995628234,0.0,0.0,-0.6,0.0,0.0015397071838378906,0.0029478073120117188,0
0.6999740600585938,-0.03174674138426781,-0.07719696313142776,-0.36901384592056274,0.10423350032726723,-0.5315323563434774,0.0001177221527906096,0.07814983897232362,-0.1229566415921197,0.0,0.0,-0.6,0.0,0.0014798641204833984,0.0029795169830322266,0
0.7121357917785645,-0.0319889634847641,-0.07729287445545197,-0.37255752086639404,0.10656679792759804,-0.5310690246232134,0.0005198526727313264,0.07702700113459778,-0.12603219833732998,0.0,0.0,-0.6,0.0,0.0016231536865234375,0.003125429153442383,0
0.7201581001281738,-0.0319889634847641,-0.07729287445545197,-0.37255752086639404,0.10656679792759804,-0.5306990766638685,0.0008909566843381063,0.07618598102364263,-0.1281850880589781,0.0,0.0,-0.6,0.0,0.0018155574798583984,0.0029554367065429688,0
0.7352962493896484,-0.03243264928460121,-0.07749731838703156,-0.3796422481536865,0.11086403124310437,-0.530322030190164,0.0021057593637973703,0.07362286304328088,-0.1313035733574457,0.0,0.0,-0.6,0.0,0.0021207332611083984,0.0029952526092529297,0
0.74684739112854,-0.03275352343916893,-0.0777568370103836,-0.38580411672592163,0.11543421980587214,-0.5297896963929037,0.006160076160047302,0.07197902056522254,-0.13520033377741014,0.0,0.0,-0.6,0.0,0.0021605491638183594,0.0031800270080566406,0
0.754692792892456,-0.03275352343916893,-0.0777568370103836,-0.38580411672592163,0.11543421980587214,-0.5293663871944535,0.009037992089396383,0.07078430341904185,-0.1379280660713864,0.0,0.0,-0.6,0.0,0.002488851547241211,0.004399299621582031,0
0.7672638893127441,-0.03309060260653496,-0.07795533537864685,-0.3937978446483612,0.12096093557716524,-0.5287413810346414,0.010507949495742769,0.07354530856258432,-0.14190999709140348,0.0,0.0,-0.6,0.0,0.00128173828125,0.003272533416748047,0
0.7762832641601562,-0.03309060260653496,-0.07795533537864685,-0.3937978446483612,0.12096093557716524,-0.5282417882183692,0.011632514719346579,0.07533942242873495,-0.1446973488054166,0.0,0.0,-0.6,0.0,0.002527475357055664,0.004624366760253906,0
0.7972886562347412,-0.03340229392051697,-0.07813714444637299,-0.40082165598869324,0.1250374549910838,-0.5278732530636719,0.008769153026492539,0.07242375374915039,-0.14817718978544456,0.0,0.0,-0.6,0.0,0.0075511932373046875,0.00942850112915039,0
0.8156771659851074,-0.03376780450344086,-0.07845722138881683,-0.41030651330947876,0.1313372307884922,-0.5274095522279748,0.010487121804249934,0.07029942791697372,-0.15297549439549096,0.0,0.0,-0.6,0.0,0.002479076385498047,0.004616498947143555,0
0.8283934593200684,-0.03376780450344086,-0.07845722138881683,-0.41030651330947876,0.1313372307884922,-0.5270397168899776,0.011758906330524366,0.06879431503062736,-0.15633430762252487,0.0,0.0,-0.6,0.0,0.002563953399658203,0.004887580871582031,0
0.8431258201599121,-0.034043699502944946,-0.07880691438913345,-0.41961339116096497,0.1375584917602104,-0.5266774264326551,0.012608176814663868,0.0652487145811613,-0.16101844974584162,0.0,0.0,-0.6,0.0,0.003124237060546875,0.0058746337890625,0
0.8622579574584961,-0.034043699502944946,-0.07880691438913345,-0.41961339116096497,0.1375584917602104,-0.5263883691214244,0.013272093304212517,0.062783727939752,-0.16429734923216474,0.0,0.0,-0.6,0.0,0.0031096935272216797,0.005521535873413086,0
0.8777225017547607,-0.034272726625204086,-0.0790712758898735,-0.42950305342674255,0.14312817892530158,-0.5262162878285067,0.01187248700640557,0.06183165305078933,-0.16868121155949903,0.0,0.0,-0.6,0.0,0.0023665428161621094,0.004626035690307617,0
0.8916282653808594,-0.034424398094415665,-0.0792805626988411,-0.43506863713264465,0.1471160163572712,-0.5260572893545704,0.012252252760106531,0.06111543965608612,-0.17324535422562146,0.0,0.0,-0.6,0.0,0.002354860305786133,0.0046901702880859375,0
0.9064199924468994,-0.034424398094415665,-0.0792805626988411,-0.43506863713264465,0.1471160163572712,-0.5259304079510918,0.012545605154099927,0.06060577497335717,-0.1764402540919085,0.0,0.0,-0.6,0.0,0.0024259090423583984,0.00452876091003418,0
0.9218237400054932,-0.03458983823657036,-0.07944931089878082,-0.44220027327537537,0.15110189037193203,-0.5257226895925533,0.014800393724693514,0.06348400357878184,-0.18017138675380673,0.0,0.0,-0.6,0.0,0.0021665096282958984,0.004256486892700195,0
0.9342637062072754,-0.03458983823657036,-0.07944931089878082,-0.44220027327537537,0.15110189037193203,-0.525557043302446,0.016374298692806807,0.06542278252357314,-0.1827831796171366,0.0,0.0,-0.6,0.0,0.002286672592163086,0.0047702789306640625,0
0.9477357864379883,-0.0347360260784626,-0.07948780059814453,-0.45075690746307373,0.15680034526171285,-0.5254241315198168,0.01584873390524491,0.06325839220540873,-0.18674835520513397,0.0,0.0,-0.6,0.0,0.0022821426391601562,0.004538297653198242,0
0.9612221717834473,-0.03487950190901756,-0.07961058616638184,-0.45676368474960327,0.16032355789483319,-0.5253124434632475,0.01566631279256463,0.05786290423354816,-0.19084518285415214,0.0,0.0,-0.6,0.0,0.0026721954345703125,0.004561901092529297,0
0.9733412265777588,-0.03487950190901756,-0.07961058616638184,-0.45676368474960327,0.16032355789483319,-0.525223555877902,0.015577485253501049,0.054165397949913756,-0.19371296220846607,0.0,0.0,-0.6,0.0,0.002359628677368164,0.0041310787200927734,0
0.9867861270904541,-0.034997180104255676,-0.07991967350244522,-0.46545541286468506,0.16548170694615147,-0.5250518408101993,0.01712051761232445,0.058279093460983956,-0.19765471365072912,0.0,0.0,-0.6,0.0,0.002105712890625,0.003941774368286133,0
0.998906135559082,-0.034997180104255676,-0.07991967350244522,-0.46545541286468506,0.16548170694615147,-0.5249142347077115,0.018197922198900138,0.06106637156860521,-0.20041393966031443,0.0,0.0,-0.6,0.0,0.0027947425842285156,0.005372762680053711,0
1.014488935470581,-0.034997180104255676,-0.07991967350244522,-0.46545541286468506,0.16548170694615147,-0.5248041509490613,0.018956209042627535,0.06295211518438608,-0.20234539786702496,0.0,0.0,-0.6,0.0,0.002373218536376953,0.004478931427001953,0
1.0282788276672363,-0.03505074605345726,-0.08016582578420639,-0.47394493222236633,0.17034245624159358,-0.5246456230419742,0.021019810205007466,0.05913187842814342,-0.2055201995975119,0.0,0.0,-0.6,0.0,0.0019845962524414062,0.004285097122192383,0
1.0414867401123047,-0.03505074605345726,-0.08016582578420639,-0.47394493222236633,0.17034245624159358,-0.5245202320310788,0.022467718971376144,0.05650966319469022,-0.2077425608088537,0.0,0.0,-0.6,0.0,0.0020704269409179688,0.004181385040283203,0
1.0539309978485107,-0.035057246685028076,-0.08034171164035797,-0.4822523593902588,0.175048877847768,-0.5244191913629097,0.023427391701926266,0.0534154005530157,-0.21106312175910724,0.0,0.0,-0.6,0.0,0.0030684471130371094,0.00652623176574707,0
1.0688002109527588,-0.035057246685028076,-0.08034171164035797,-0.4822523593902588,0.175048877847768,-0.5243392320229361,0.024109419070502645,0.05129401647683317,-0.21338751442428575,0.0,0.0,-0.6,0.0,0.0019578933715820312,0.0033292770385742188,0
1.0805606842041016,-0.03502298891544342,-0.08047585189342499,-0.4903348684310913,0.1793641669582992,-0.5243111953787335,0.021623712167603813,0.05095685542111686,-0.21663282270635897,0.0,0.0,-0.6,0.0,0.0022118091583251953,0.004450798034667969,0
1.092376708984375,-0.03502298891544342,-0.08047585189342499,-0.4903348684310913,0.1793641669582992,-0.5242871885226154,0.019932982729582067,0.050720346992077954,-0.2189045385038112,0.0,0.0,-0.6,0.0,0.002643585205078125,0.005003690719604492,0
1.106611967086792,-0.034954629838466644,-0.08053925633430481,-0.4955693781375885,0.1819536971504113,-0.5241680613567616,0.022250047646099343,0.05044882111731172,-0.2214658133840695,0.0,0.0,-0.6,0.0,0.001641988754272461,0.003106355667114258,0
1.1201276779174805,-0.03490152582526207,-0.08056402951478958,-0.4981454610824585,0.18334075651704146,-0.5240549031549617,0.025165435823784246,0.04980952702778317,-0.22377885306273687,0.0,0.0,-0.6,0.0,0.00235748291015625,0.0042476654052734375,0
1.1317267417907715,-0.03490152582526207,-0.08056402951478958,-0.4981454610824585,0.18334075651704146,-0.5239661102480893,0.02717944335931773,0.04936425604612232,-0.22539798083780474,0.0,0.0,-0.6,0.0,0.002732515335083008,0.0050084590911865234,0
1.1455366611480713,-0.0346217155456543,-0.08057934790849686,-0.5064263939857483,0.18754473563318275,-0.5238769644470299,0.02437773862092096,0.05143244401425248,-0.22810786244890413,0.0,0.0,-0.6,0.0,0.00244140625,0.004088163375854492,0
1.1570148468017578,-0.0346217155456543,-0.08057934790849686,-0.5064263939857483,0.18754473563318275,-0.5238032782140866,0.022480166943034223,0.05283028791071945,-0.23000477957667453,0.0,0.0,-0.6,0.0,0.0017313957214355469,0.003171205520629883,0
1.1683769226074219,-0.03441159054636955,-0.08062729239463806,-0.5114094614982605,0.18973360908934292,-0.5237175204089253,0.021283467684103746,0.05148489871071632,-0.23215344911217362,0.0,0.0,-0.6,0.0,0.0024979114532470703,0.004716396331787109,0
1.1808488368988037,-0.03441159054636955,-0.08062729239463806,-0.5114094614982605,0.18973360908934292,-0.5236482933672016,0.020485630927134898,0.05055566233045235,-0.23365751778702362,0.0,0.0,-0.6,0.0,0.0022110939025878906,0.004347801208496094,0
1.19273042678833,-0.03410659730434418,-0.0807131975889206,-0.5180805921554565,0.1930310694709464,-0.5235639323265973,0.022709557128710776,0.0528925383859236,-0.23594691350251912,0.0,0.0,-0.6,0.0,0.002092123031616211,0.004131317138671875,0
1.2027716636657715,-0.03410659730434418,-0.0807131975889206,-0.5180805921554565,0.1930310694709464,-0.5234972004464038,0.02424161569285739,0.05447992312837448,-0.23754949050336668,0.0,0.0,-0.6,0.0,0.0018379688262939453,0.0034923553466796875,0
1.2142729759216309,-0.03387981280684471,-0.08070437610149384,-0.5244904160499573,0.19598624211047314,-0.5234905186930667,0.02415773399129932,0.055068442591604656,-0.23977948414378186,0.0,0.0,-0.6,0.0,0.0023856163024902344,0.00459742546081543,0
1.2256336212158203,-0.03387981280684471,-0.08070437610149384,-0.5244904160499573,0.19598624211047314,-0.5234850166574716,0.024101331595195816,0.05547022083896733,-0.24134047969207315,0.0,0.0,-0.6,0.0,0.0024013519287109375,0.004153013229370117,0
1.237663984298706,-0.03387981280684471,-0.08070437610149384,-0.5244904160499573,0.19598624211047314,-0.5234805106894984,0.02406376786555671,0.05574443619415565,-0.24243317657587754,0.0,0.0,-0.6,0.0,0.0024547576904296875,0.004587411880493164,0
1.251105785369873,-0.03366238623857498,-0.08073027431964874,-0.5307022333145142,0.1988209134385029,-0.5235230040619526,0.02278904133439996,0.054241990202709346,-0.24426106614255105,0.0,0.0,-0.6,0.0,0.0024127960205078125,0.0045664310455322266,0
1.264211893081665,-0.03366238623857498,-0.08073027431964874,-0.5307022333145142,0.1988209134385029,-0.5235563429283938,0.021911167571744293,0.05322134399996632,-0.24554058883922303,0.0,0.0,-0.6,0.0,0.0027103424072265625,0.0051555633544921875,0
1.2796881198883057,-0.03343575447797775,-0.08062618970870972,-0.5372084975242615,0.20124781537844652,-0.523687747095048,0.015932157514344153,0.05480601688734591,-0.24734634295437175,0.0,0.0,-0.6,0.0,0.0023496150970458984,0.004573345184326172,0
1.2931036949157715,-0.03343575447797775,-0.08062618970870972,-0.5372084975242615,0.20124781537844652,-0.5237883691672182,0.011818150961913874,0.055899394020950184,-0.2486103708349764,0.0,0.0,-0.6,0.0,0.0027971267700195312,0.005239009857177734,0
1.307279348373413,-0.03320078179240227,-0.080458864569664,-0.542881429195404,0.2034547600019961,-0.523818007353434,0.009571613690551034,0.054809543029978425,-0.25032279458523027,0.0,0.0,-0.6,0.0,0.002518892288208008,0.0048465728759765625,0
1.3229248523712158,-0.03320078179240227,-0.080458864569664,-0.542881429195404,0.2034547600019961,-0.5238404159206608,0.00803250697745224,0.054067593381260964,-0.25152149121039186,0.0,0.0,-0.6,0.0,0.002770662307739258,0.005208015441894531,0
1.338836908340454,-0.03299457207322121,-0.08028119057416916,-0.5483599901199341,0.2055540458009107,-0.5238783280804294,0.003687116378322283,0.04944235148722815,-0.2531478110226142,0.0,0.0,-0.6,0.0,0.0022416114807128906,0.004166841506958008,0
1.3511545658111572,-0.03292190283536911,-0.08019901067018509,-0.5502830743789673,0.2062612448955932,-0.5239198901706178,0.002598113879986446,0.04725940221774561,-0.25455143455167595,0.0,0.0,-0.6,0.0,0.0026628971099853516,0.004850625991821289,0
1.3663718700408936,-0.03276517242193222,-0.0800236240029335,-0.5540080666542053,0.20741744045957117,-0.5240380768857233,0.003147052450987704,0.0439167757223795,-0.2559675443585306,0.0,0.0,-0.6,0.0,0.002143383026123047,0.004127979278564453,0
1.3802876472473145,-0.03269675374031067,-0.07993248105049133,-0.5558046102523804,0.20809786368743788,-0.5242478934636926,0.0011567421047412917,0.038842572157492664,-0.25721397993374207,0.0,0.0,-0.6,0.0,0.002635955810546875,0.004816532135009766,0
1.3948967456817627,-0.03269675374031067,-0.07993248105049133,-0.5558046102523804,0.20809786368743788,-0.5244150731681714,-0.000241937176773197,0.03539827826023255,-0.2580864848364199,0.0,0.0,-0.6,0.0,0.0026531219482421875,0.004956245422363281,0
1.409790277481079,-0.03247101977467537,-0.07962429523468018,-0.5609951615333557,0.20958536997141639,-0.5246092897404528,-0.0034877023299619224,0.031180130919493086,-0.25925505312475766,0.0,0.0,-0.6,0.0,0.004616498947143555,0.00618743896484375,0
1.4245662689208984,-0.03247101977467537,-0.07962429523468018,-0.5609951615333557,0.20958536997141639,-0.5247634127971217,-0.005740636520043545,0.028318727661705713,-0.2600730509265993,0.0,0.0,-0.6,0.0,0.0034439563751220703,0.006132841110229492,0
1.443967580795288,-0.03225463628768921,-0.07924877107143402,-0.5658609867095947,0.21098964041049367,-0.5249424576730107,-0.007267743208221791,0.027063478204838926,-0.2611722508025535,0.0,0.0,-0.6,0.0,0.003615856170654297,0.0064544677734375,0
1.4620189666748047,-0.03205975145101547,-0.07877835631370544,-0.5703663229942322,0.21209336724244007,-0.5252289814334362,-0.008963292506901935,0.021516339667849136,-0.26235558827770133,0.0,0.0,-0.6,0.0,0.0032961368560791016,0.005316495895385742,0
1.4786286354064941,-0.03205975145101547,-0.07877835631370544,-0.5703663229942322,0.21209336724244007,-0.5254581231943947,-0.010173559907693664,0.017755579686149207,-0.26318392451031664,0.0,0.0,-0.6,0.0,0.002051830291748047,0.003795146942138672,0
1.4912362098693848,-0.03184455633163452,-0.07820712774991989,-0.5745905041694641,0.21292021306866002,-0.5257579440824024,-0.01603693246941371,0.016797757174591085,-0.2640738270579559,0.0,0.0,-0.6,0.0,0.0027298927307128906,0.00514984130859375,0
1.5060360431671143,-0.03184455633163452,-0.07820712774991989,-0.5745905041694641,0.21292021306866002,-0.5259949060728922,-0.02009907284628073,0.016175114122156962,-0.264696758841316,0.0,0.0,-0.6,0.0,0.0021653175354003906,0.004292726516723633,0
1.5209236145019531,-0.03172352537512779,-0.07771007716655731,-0.5775209665298462,0.2133711183924821,-0.526231701743193,-0.019908564207714786,0.01381860808756286,-0.26530190058610137,0.0,0.0,-0.6,0.0,0.0025026798248291016,0.005029916763305664,0
1.5344979763031006,-0.03172352537512779,-0.07771007716655731,-0.5775209665298462,0.2133711183924821,-0.5264218176371,-0.01981822523225492,0.012237225986278815,-0.2657254998074572,0.0,0.0,-0.6,0.0,0.0029592514038085938,0.0052721500396728516,0
1.5493180751800537,-0.031519051641225815,-0.07700290530920029,-0.5815579295158386,0.21387298879613317,-0.5265991462549583,-0.022273841095660895,0.013756914947534957,-0.26621022066377625,0.0,0.0,-0.6,0.0,0.0024504661560058594,0.004990100860595703,0
1.563046932220459,-0.031519051641225815,-0.07700290530920029,-0.5815579295158386,0.21387298879613317,-0.5267394342670348,-0.023981748076308488,0.01481803220145232,-0.266549525263193,0.0,0.0,-0.6,0.0,0.0028023719787597656,0.0050830841064453125,0
1.577820062637329,-0.03135821223258972,-0.07638351619243622,-0.5847328901290894,0.2140470983644016,-0.5269375193326716,-0.024368693167805447,0.016626082040797376,-0.2668523295708854,0.0,0.0,-0.6,0.0,0.0024576187133789062,0.004559040069580078,0
1.5918869972229004,-0.03135821223258972,-0.07638351619243622,-0.5847328901290894,0.2140470983644016,-0.5270951589981473,-0.024665255768388395,0.017887366430423098,-0.2670642925862702,0.0,0.0,-0.6,0.0,0.0034356117248535156,0.00576019287109375,0
1.6074049472808838,-0.03126823902130127,-0.07562106847763062,-0.588038444519043,0.21415994359989993,-0.527248045637354,-0.023666981569083024,0.015674360201238198,-0.26725498366035144,0.0,0.0,-0.6,0.0,0.0024559497833251953,0.004804372787475586,0
1.6216773986816406,-0.03126823902130127,-0.07562106847763062,-0.588038444519043,0.21415994359989993,-0.5273713237041396,-0.023008467377154663,0.014183679556175862,-0.26738846741220645,0.0,0.0,-0.6,0.0,0.002688884735107422,0.00499415397644043,0
1.6369447708129883,-0.031247880309820175,-0.07484593987464905,-0.5909269452095032,0.21407505803576188,-0.527557700752008,-0.02538366851933191,0.014396301517788255,-0.26745007395195514,0.0,0.0,-0.6,0.0,0.002620697021484375,0.0048675537109375,0
1.6501495838165283,-0.031247880309820175,-0.07484593987464905,-0.5909269452095032,0.21407505803576188,-0.5277057930168162,-0.027035757310514677,0.01456918744259185,-0.26749319852977865,0.0,0.0,-0.6,0.0,0.0028619766235351562,0.005415678024291992,0
1.6650192737579346,-0.031264934688806534,-0.07397059351205826,-0.5936616063117981,0.21388363521426484,-0.5278475911752111,-0.026748712776674795,0.018760784838937228,-0.2674516021761944,0.0,0.0,-0.6,0.0,0.002253293991088867,0.00452876091003418,0
1.6784687042236328,-0.031264934688806534,-0.07397059351205826,-0.5936616063117981,0.21388363521426484,-0.527959278120244,-0.02657475142331767,0.02164480348465173,-0.2674224847286854,0.0,0.0,-0.6,0.0,0.002633333206176758,0.005118370056152344,0
1.6931953430175781,-0.03128645941615105,-0.07300829887390137,-0.5964775681495667,0.2133585345042727,-0.5280569016813143,-0.028981751061668337,0.026113527111569952,-0.2672051897491823,0.0,0.0,-0.6,0.0,0.0018770694732666016,0.003980398178100586,0
1.7049872875213623,-0.03128645941615105,-0.07300829887390137,-0.5964775681495667,0.2133585345042727,-0.5281324665395476,-0.030640246709117865,0.029180090872420187,-0.26705308326353,0.0,0.0,-0.6,0.0,0.0026319026947021484,0.004947662353515625,0
1.7206971645355225,-0.03124416433274746,-0.07198375463485718,-0.5990842580795288,0.21287717943513637,-0.5283006459596287,-0.026955273015371616,0.03021182671331334,-0.26676610057264744,0.0,0.0,-0.6,0.0,0.0025272369384765625,0.005032539367675781,0
1.7351462841033936,-0.03124416433274746,-0.07198375463485718,-0.5990842580795288,0.21287717943513637,-0.5284354349112846,-0.024459600830362287,0.030939557827626172,-0.26656521268902955,0.0,0.0,-0.6,0.0,0.002368450164794922,0.004769563674926758,0
1.7499275207519531,-0.031208589673042297,-0.07090548425912857,-0.6014688014984131,0.21231925194085413,-0.5286609439708828,-0.02341991410505723,0.03391589707872509,-0.2662153683601365,0.0,0.0,-0.6,0.0,0.002368927001953125,0.004647254943847656,0
1.7637155055999756,-0.031208589673042297,-0.07090548425912857,-0.6014688014984131,0.21231925194085413,-0.5288404524586762,-0.022736859346159276,0.03598066812503386,-0.2659704773299161,0.0,0.0,-0.6,0.0,0.0024826526641845703,0.004638671875,0
1.7779955863952637,-0.031191930174827576,-0.07012994587421417,-0.6029202938079834,0.21175393126520586,-0.5289887871004887,-0.019303636449050903,0.038805695330786406,-0.26558705835538854,0.0,0.0,-0.6,0.0,0.002460956573486328,0.004761219024658203,0
1.790316104888916,-0.031191930174827576,-0.07012994587421417,-0.6029202938079834,0.21175393126520586,-0.5291071766904618,-0.016975547213538444,0.04075439853106878,-0.26531866507322444,0.0,0.0,-0.6,0.0,0.0018677711486816406,0.004146099090576172,0
1.804250955581665,-0.031180957332253456,-0.06892383843660355,-0.6049224138259888,0.21114078109920267,-0.5293091097796518,-0.014395348542537115,0.039346925994275014,-0.2649008584634585,0.0,0.0,-0.6,0.0,0.0023849010467529297,0.004563570022583008,0
1.8187506198883057,-0.031180957332253456,-0.06892383843660355,-0.6049224138259888,0.21114078109920267,-0.5294712861175176,-0.01265474990262672,0.03841089335150326,-0.26460839383662227,0.0,0.0,-0.6,0.0,0.002318143844604492,0.004192352294921875,0
1.832911729812622,-0.031154166907072067,-0.06765688955783844,-0.606702983379364,0.21037112196531454,-0.5297620067880048,-0.009710071041758465,0.04004635913006928,-0.26411504642262906,0.0,0.0,-0.6,0.0,0.002730131149291992,0.005068540573120117,0
1.8475229740142822,-0.031154166907072067,-0.06765688955783844,-0.606702983379364,0.21037112196531454,-0.5299943685034857,-0.007725549936457415,0.04120248812260667,-0.26376970323283366,0.0,0.0,-0.6,0.0,0.0023071765899658203,0.004628896713256836,0
1.8616254329681396,-0.03110048547387123,-0.06635745614767075,-0.6082408428192139,0.20939616666660926,-0.5302150846571411,-0.0009689181326603367,0.04335701128263751,-0.2631623547629626,0.0,0.0,-0.6,0.0,0.002373933792114258,0.005013465881347656,0
1.8758857250213623,-0.03110048547387123,-0.06635745614767075,-0.6082408428192139,0.20939616666660926,-0.5303919248340451,0.0036271281344257764,0.04485434135696383,-0.2627372108340527,0.0,0.0,-0.6,0.0,0.002301454544067383,0.004315853118896484,0
1.8900706768035889,-0.0310799740254879,-0.0653892382979393,-0.6091966032981873,0.208572879297974,-0.5307225047944822,0.00792934368390387,0.04535086569299583,-0.2621308773205777,0.0,0.0,-0.6,0.0,0.0023703575134277344,0.0047338008880615234,0
1.903820514678955,-0.0310799740254879,-0.0653892382979393,-0.6091966032981873,0.208572879297974,-0.5309875071683875,0.010836334954576449,0.045728478060323464,-0.26170644386114505,0.0,0.0,-0.6,0.0,0.0029990673065185547,0.00543975830078125,0
1.921029806137085,-0.03091825172305107,-0.06355172395706177,-0.6105503439903259,0.20731977941808857,-0.5313090626178215,0.012587210065907021,0.04724822433949718,-0.26093942798457487,0.0,0.0,-0.6,0.0,0.0024716854095458984,0.004964590072631836,0
1.935314655303955,-0.03091825172305107,-0.06355172395706177,-0.6105503439903259,0.20731977941808857,-0.531566144414683,0.013751313813288394,0.04832328938627687,-0.2604025168709936,0.0,0.0,-0.6,0.0,0.0024747848510742188,0.0046885013580322266,0
1.95009446144104,-0.030841996893286705,-0.06258788704872131,-0.6111834645271301,0.20663343213902974,-0.5317548123157286,0.015379861917224461,0.049103903605669644,-0.2597692988618323,0.0,0.0,-0.6,0.0,0.0023224353790283203,0.00496983528137207,0
1.9647188186645508,-0.030841996893286705,-0.06258788704872131,-0.6111834645271301,0.20663343213902974,-0.531905891994726,0.016473455445223564,0.04965762689624296,-0.25932604625541306,0.0,0.0,-0.6,0.0,0.002540111541748047,0.004885673522949219,0
1.9794116020202637,-0.030643794685602188,-0.060679931193590164,-0.612259030342102,0.20492274773491695,-0.5320725307277109,0.016305906083202263,0.05240133050107129,-0.25837426277938397,0.0,0.0,-0.6,0.0,0.0024309158325195312,0.004891633987426758,0
1.9928719997406006,-0.030643794685602188,-0.060679931193590164,-0.612259030342102,0.20492274773491695,-0.5322050767526866,0.016175718268903252,0.05429529414708989,-0.2577080143461633,0.0,0.0,-0.6,0.0,0.002032041549682617,0.004277944564819336,0
2.0077407360076904,-0.030534032732248306,-0.05978059768676758,-0.61273592710495,0.204061689321658,-0.5322808258529057,0.016758026627020504,0.05549535160704817,-0.25691874353793687,0.0,0.0,-0.6,0.0,0.0025053024291992188,0.004865169525146484,0
2.0240604877471924,-0.030362529680132866,-0.05844077840447426,-0.6133547425270081,0.20283272686425066,-0.5324968856379945,0.014521538378380786,0.05681642724572981,-0.2559053930506508,0.0,0.0,-0.6,0.0,0.0024225711822509766,0.004831552505493164,0
2.0388686656951904,-0.030362529680132866,-0.05844077840447426,-0.6133547425270081,0.20283272686425066,-0.5326684320661456,0.012971203677597971,0.057744389416167774,-0.2551960477095503,0.0,0.0,-0.6,0.0,0.0025670528411865234,0.005082845687866211,0
2.053654909133911,-0.030285105109214783,-0.05754566565155983,-0.6136988401412964,0.2018782659816552,-0.5329233365510432,0.0122352671670021,0.05713947513870285,-0.25434158313980676,0.0,0.0,-0.6,0.0,0.002713918685913086,0.004921436309814453,0
2.0685150623321533,-0.030285105109214783,-0.05754566565155983,-0.6136988401412964,0.2018782659816552,-0.5331266782165319,0.011706829113378302,0.05675411275763683,-0.253743457940986,0.0,0.0,-0.6,0.0,0.0020949840545654297,0.004132986068725586,0
2.082247734069824,-0.030205274000763893,-0.05622139573097229,-0.6140766143798828,0.20047664997203687,-0.5333203025016623,0.010405035064720384,0.05939248560771832,-0.252799164298205,0.0,0.0,-0.6,0.0,0.003145933151245117,0.005583524703979492,0
2.0973448753356934,-0.030205274000763893,-0.05622139573097229,-0.6140766143798828,0.20047664997203687,-0.5334741325570581,0.009496809849963993,0.061216707202421825,-0.25213815874825796,0.0,0.0,-0.6,0.0,0.002740621566772461,0.004827260971069336,0
2.1132967472076416,-0.030129924416542053,-0.05497940629720688,-0.614260733127594,0.19900947582988482,-0.5336952457817233,0.006620995059910587,0.05884498592277175,-0.2511252645599884,0.0,0.0,-0.6,0.0,0.002485513687133789,0.004650115966796875,0
2.1269569396972656,-0.030129924416542053,-0.05497940629720688,-0.614260733127594,0.19900947582988482,-0.5338708250272868,0.004631004031547487,0.057247661711018194,-0.2504162386281994,0.0,0.0,-0.6,0.0,0.0026493072509765625,0.004914283752441406,0
2.142538070678711,-0.03004111908376217,-0.053834252059459686,-0.6142590641975403,0.19747111556852617,-0.5341918493413121,0.003848070673395368,0.05794725842554893,-0.24934303537793798,0.0,0.0,-0.6,0.0,0.002766132354736328,0.0049970149993896484,0
2.156205892562866,-0.03004111908376217,-0.053834252059459686,-0.6142590641975403,0.19747111556852617,-0.5344477840357837,0.003281019015768061,0.058457796752740744,-0.24859179310275464,0.0,0.0,-0.6,0.0,0.0022754669189453125,0.004279136657714844,0
2.1705899238586426,-0.029976360499858856,-0.052679069340229034,-0.6140795946121216,0.195782554565755,-0.534720763730734,0.0011268360700764672,0.05592337754971474,-0.24743271313408752,0.0,0.0,-0.6,0.0,0.0024726390838623047,0.00511622428894043,0
2.1849911212921143,-0.029976360499858856,-0.052679069340229034,-0.6140795946121216,0.195782554565755,-0.5349379855712796,-0.0003756956608041897,0.0542173731934701,-0.24662135715602018,0.0,0.0,-0.6,0.0,0.002406597137451172,0.0046918392181396484,0
2.199192762374878,-0.029956573620438576,-0.05145673081278801,-0.6137046813964844,0.19410076465994125,-0.5352260057759698,-0.0012074253435028785,0.04963094324545301,-0.2454227367566933,0.0,0.0,-0.6,0.0,0.0023345947265625,0.0046079158782958984,0
2.2145309448242188,-0.029956573620438576,-0.05145673081278801,-0.6137046813964844,0.19410076465994125,-0.53545563776827,-0.001807897063304462,0.04652183727851388,-0.2445837024771641,0.0,0.0,-0.6,0.0,0.002698659896850586,0.005171298980712891,0
2.229517698287964,-0.029989080503582954,-0.05012887716293335,-0.6131676435470581,0.19266883357520725,-0.5358252348613459,-0.0031465567922564705,0.04446618027498908,-0.24345940432471871,0.0,0.0,-0.6,0.0,0.002652883529663086,0.0052831172943115234,0
2.244295120239258,-0.029989080503582954,-0.05012887716293335,-0.6131676435470581,0.19266883357520725,-0.5361198661921068,-0.004099250339890423,0.04309415436421805,-0.2426723956180066,0.0,0.0,-0.6,0.0,0.0025725364685058594,0.004640102386474609,0
2.2580621242523193,-0.030057037249207497,-0.04869905114173889,-0.6124783754348755,0.19078307101849248,-0.5364033392413202,-0.006159916540773589,0.03775633350212664,-0.24141432856454056,0.0,0.0,-0.6,0.0,0.002474069595336914,0.0048563480377197266,0
2.271834135055542,-0.030057037249207497,-0.04869905114173889,-0.6124783754348755,0.19078307101849248,-0.536629165930037,-0.007599025701006741,0.03413362697791798,-0.24053368162711394,0.0,0.0,-0.6,0.0,0.002626657485961914,0.0050051212310791016,0
2.2869608402252197,-0.030227819457650185,-0.04709964245557785,-0.6115163564682007,0.18899383502977535,-0.5369654868253361,-0.008578959444734009,0.028364302117723894,-0.2392462652751468,0.0,0.0,-0.6,0.0,0.0024704933166503906,0.004832267761230469,0
2.3001835346221924,-0.030227819457650185,-0.04709964245557785,-0.6115163564682007,0.18899383502977535,-0.5372340023110981,-0.009282672142665054,0.024450741118985604,-0.23834507382876943,0.0,0.0,-0.6,0.0,0.0025162696838378906,0.004613399505615234,0
2.316800832748413,-0.03035867027938366,-0.04606813192367554,-0.6108418703079224,0.1879199246681607,-0.5375185975768504,-0.01011676846041517,0.019965267472161475,-0.2373115234306999,0.0,0.0,-0.6,0.0,0.002382993698120117,0.004492044448852539,0
2.331129312515259,-0.030496982857584953,-0.04500596597790718,-0.6102140545845032,0.18685039999861164,-0.5378492393261531,-0.009628125824233192,0.0187056512233394,-0.2361869664009704,0.0,0.0,-0.6,0.0,0.0024340152740478516,0.005063295364379883,0
2.3455545902252197,-0.030496982857584953,-0.04500596597790718,-0.6102140545845032,0.18685039999861164,-0.5381132973634248,-0.009319806621839417,0.017880048454207126,-0.23539977648015942,0.0,0.0,-0.6,0.0,0.0026268959045410156,0.0049550533294677734,0
2.3603320121765137,-0.03080771118402481,-0.04341467097401619,-0.6090933680534363,0.18517281823756593,-0.538414885862477,-0.011648218752504944,0.012440302978726623,-0.2342196503752,0.0,0.0,-0.6,0.0,0.002424478530883789,0.005092144012451172,0
2.3751354217529297,-0.03103259578347206,-0.04233410209417343,-0.6082017421722412,0.18410519412611825,-0.5386666385862481,-0.011603932733459934,0.00933866245435852,-0.23299320305993557,0.0,0.0,-0.6,0.0,0.0023801326751708984,0.004620790481567383,0
2.3890416622161865,-0.03103259578347206,-0.04233410209417343,-0.6082017421722412,0.18410519412611825,-0.5388682039070386,-0.011591780587209109,0.007246276916209111,-0.2321346899392501,0.0,0.0,-0.6,0.0,0.0024018287658691406,0.004422664642333984,0
2.403082847595215,-0.03129987418651581,-0.040824536234140396,-0.6069880127906799,0.1823766323343505,-0.539050203731792,-0.007830463676601887,0.005595017760734327,-0.23088552008285776,0.0,0.0,-0.6,0.0,0.0025136470794677734,0.004633665084838867,0
2.418680191040039,-0.03129987418651581,-0.040824536234140396,-0.6069880127906799,0.1823766323343505,-0.5391961627154848,-0.005271447774774978,0.004485040044362723,-0.23001110118338275,0.0,0.0,-0.6,0.0,0.0025010108947753906,0.004976749420166016,0
2.433062791824341,-0.03178882971405983,-0.039241623133420944,-0.6057265996932983,0.18070252344622648,-0.5393959515163173,-0.0050475976571614,0.0008696273343987921,-0.22877121712070408,0.0,0.0,-0.6,0.0,0.002735137939453125,0.004998445510864258,0
2.4473977088928223,-0.03178882971405983,-0.039241623133420944,-0.6057265996932983,0.18070252344622648,-0.5395564882428714,-0.004909570970280474,-0.0015772092262709742,-0.22790329827682868,0.0,0.0,-0.6,0.0,0.0024924278259277344,0.004623889923095703,0
2.460982084274292,-0.03236487880349159,-0.03762810304760933,-0.6043996810913086,0.178967602961659,-0.5396043407464597,-0.0032431500325178315,-0.0011774725117980696,-0.22664515990440345,0.0,0.0,-0.6,0.0,0.002492189407348633,0.004776716232299805,0
2.475027322769165,-0.03236487880349159,-0.03762810304760933,-0.6043996810913086,0.178967602961659,-0.5396425265462204,-0.0021069304222356795,-0.0008989519568220559,-0.22576446304370543,0.0,0.0,-0.6,0.0,0.0025053024291992188,0.0045986175537109375,0
2.4890496730804443,-0.0329866036772728,-0.03607235848903656,-0.6032748222351074,0.17699131556348935,-0.5396945697912767,-0.005028083791983169,-0.004676865332150174,-0.22440686746690366,0.0,0.0,-0.6,0.0,0.0027055740356445312,0.0048716068267822266,0
2.5029547214508057,-0.0329866036772728,-0.03607235848903656,-0.6032748222351074,0.17699131556348935,-0.5397370255208472,-0.007031052803130274,-0.007250037727266003,-0.223456550563142,0.0,0.0,-0.6,0.0,0.0024459362030029297,0.004643678665161133,0
2.518005847930908,-0.03378644958138466,-0.03441280126571655,-0.601988673210144,0.17503008649140048,-0.5398237842114434,-0.007745748505640804,-0.009730473070965346,-0.222055867828476,0.0,0.0,-0.6,0.0,0.0023431777954101562,0.004549741744995117,0
2.531294584274292,-0.03378644958138466,-0.03441280126571655,-0.601988673210144,0.17503008649140048,-0.5398939637526162,-0.008241467731928957,-0.01141338054513593,-0.22107538991420936,0.0,0.0,-0.6,0.0,0.0024929046630859375,0.005182981491088867,0
2.5459413528442383,-0.03469417989253998,-0.03271641582250595,-0.6006550192832947,0.17302672368326083,-0.5400396212547153,-0.01282763422519943,-0.01736913520811406,-0.2196377943211708,0.0,0.0,-0.6,0.0,0.002409219741821289,0.0048177242279052734,0
2.560899257659912,-0.03469417989253998,-0.03271641582250595,-0.6006550192832947,0.17302672368326083,-0.5401574952903996,-0.015976624879400953,-0.021416843973061407,-0.21863147740604338,0.0,0.0,-0.6,0.0,0.002498149871826172,0.004953622817993164,0
2.574995756149292,-0.03562546893954277,-0.030986621975898743,-0.5992017388343811,0.17116770276074908,-0.5402935907608754,-0.02047576531628044,-0.022672742039233473,-0.21722992271951266,0.0,0.0,-0.6,0.0,0.002983570098876953,0.0054132938385009766,0
2.589325189590454,-0.03562546893954277,-0.030986621975898743,-0.5992017388343811,0.17116770276074908,-0.5404022517977344,-0.02356023394437232,-0.023505543496678206,-0.21624883443894075,0.0,0.0,-0.6,0.0,0.0027348995208740234,0.004995822906494141,0
2.6044890880584717,-0.03658819943666458,-0.029339639469981194,-0.5976585149765015,0.16929975591427748,-0.5407074847397443,-0.026152673825915324,-0.027864368781899154,-0.21486159257511397,0.0,0.0,-0.6,0.0,0.0024945735931396484,0.004813671112060547,0
2.6190009117126465,-0.03658819943666458,-0.029339639469981194,-0.5976585149765015,0.16929975591427748,-0.5409532455318181,-0.0279411337808617,-0.030790890267034896,-0.21389052327043478,0.0,0.0,-0.6,0.0,0.002293109893798828,0.004479169845581055,0
2.6330692768096924,-0.03758703172206879,-0.027769844979047775,-0.5960511565208435,0.16738990786546998,-0.5411228537350935,-0.02649002721577674,-0.03061549018021429,-0.212494581738857,0.0,0.0,-0.6,0.0,0.002485513687133789,0.0045604705810546875,0
2.646711587905884,-0.03758703172206879,-0.027769844979047775,-0.5960511565208435,0.16738990786546998,-0.5412578569087475,-0.025503562025564096,-0.030464547482112716,-0.2115174226667521,0.0,0.0,-0.6,0.0,0.002493143081665039,0.004640817642211914,0
2.6604583263397217,-0.03758703172206879,-0.027769844979047775,-0.5960511565208435,0.16738990786546998,-0.5413653324096831,-0.024833935769218902,-0.030336328591105955,-0.2108334113162784,0.0,0.0,-0.6,0.0,0.002588033676147461,0.004874467849731445,0
2.675715923309326,-0.03902442008256912,-0.025866376236081123,-0.593816339969635,0.1646556565556059,-0.5416117069223265,-0.025518860593753263,-0.029690895389392555,-0.2093292591297486,0.0,0.0,-0.6,0.0,0.0026235580444335938,0.004848957061767578,0
2.689056634902954,-0.03902442008256912,-0.025866376236081123,-0.593816339969635,0.1646556565556059,-0.5418076134170596,-0.025993464627623173,-0.02919941096678033,-0.2082763525991773,0.0,0.0,-0.6,0.0,0.002410411834716797,0.004547119140625,0
2.703659772872925,-0.03972163051366806,-0.02491462603211403,-0.5926814079284668,0.16352307911205052,-0.5419585488043964,-0.02527394119635369,-0.030573289028826993,-0.2071146014864442,0.0,0.0,-0.6,0.0,0.002093791961669922,0.003747224807739258,0
2.716860055923462,-0.03972163051366806,-0.02491462603211403,-0.5926814079284668,0.16352307911205052,-0.5420798031343178,-0.024786233969700762,-0.03148247089031508,-0.2063013757075307,0.0,0.0,-0.6,0.0,0.002480745315551758,0.004652261734008789,0
2.7310664653778076,-0.04092119634151459,-0.02352507784962654,-0.590820848941803,0.16125803110484035,-0.5421775553804368,-0.022298536845184142,-0.027649216990829503,-0.20488272465958804,0.0,0.0,-0.6,0.0,0.0025191307067871094,0.005052804946899414,0
2.7442984580993652,-0.04092119634151459,-0.02352507784962654,-0.590820848941803,0.16125803110484035,-0.5422519957274299,-0.020596468585331554,-0.02500701298784047,-0.20388966892602775,0.0,0.0,-0.6,0.0,0.0028295516967773438,0.005043983459472656,0
2.7583980560302734,-0.04180876165628433,-0.02250862494111061,-0.5895177125930786,0.1597150808585669,-0.542371061233892,-0.01893149571194065,-0.024905215371682245,-0.20261592357018327,0.0,0.0,-0.6,0.0,0.002389192581176758,0.0040318965911865234,0
2.771409273147583,-0.04180876165628433,-0.02250862494111061,-0.5895177125930786,0.1597150808585669,-0.5424657222838398,-0.01779452731177219,-0.02481102710798515,-0.20172430182109177,0.0,0.0,-0.6,0.0,0.0026721954345703125,0.005077362060546875,0
2.7857069969177246,-0.04284074157476425,-0.021043887361884117,-0.5879455804824829,0.1578718535172496,-0.5425925671698907,-0.017385372415532292,-0.023222844240220922,-0.20040895634373415,0.0,0.0,-0.6,0.0,0.002618074417114258,0.004900932312011719,0
2.8008880615234375,-0.043622326105833054,-0.0200965516269207,-0.5867811441421509,0.1564925530450727,-0.5427251094788642,-0.017334442541125997,-0.02076453628251814,-0.1989709768325176,0.0,0.0,-0.6,0.0,0.002421140670776367,0.00498509407043457,0
2.816666603088379,-0.043622326105833054,-0.0200965516269207,-0.5867811441421509,0.1564925530450727,-0.5428287685170224,-0.01729916246754635,-0.019052900165105295,-0.19796439117466558,0.0,0.0,-0.6,0.0,0.0024635791778564453,0.004741668701171875,0
2.8312315940856934,-0.04469674453139305,-0.018771955743432045,-0.5851776599884033,0.15455490172040987,-0.5429484230708058,-0.014688513541559586,-0.015426290487580381,-0.19653316196742102,0.0,0.0,-0.6,0.0,0.0025696754455566406,0.0048885345458984375,0
2.845871925354004,-0.04469674453139305,-0.018771955743432045,-0.5851776599884033,0.15455490172040987,-0.5430405845659785,-0.012901316418852227,-0.0129198200938929,-0.1955313015223494,0.0,0.0,-0.6,0.0,0.002439737319946289,0.004624128341674805,0
2.860344171524048,-0.045754510909318924,-0.01760040409862995,-0.5835608839988708,0.1523922459478156,-0.5431344786552624,-0.0089359763128572,-0.010977160403139915,-0.19401900329607694,0.0,0.0,-0.6,0.0,0.002366781234741211,0.0049839019775390625,0
2.874579429626465,-0.045754510909318924,-0.01760040409862995,-0.5835608839988708,0.1523922459478156,-0.5432074799474585,-0.006224206979511884,-0.009630326123761976,-0.19296039453768576,0.0,0.0,-0.6,0.0,0.0044133663177490234,0.006342411041259766,0
2.8884646892547607,-0.04693591967225075,-0.01646486297249794,-0.5817235708236694,0.14983515556281826,-0.5432333357459194,-0.004848235610565981,-0.00513100155295227,-0.19126045951243859,0.0,0.0,-0.6,0.0,0.008311271667480469,0.009541511535644531,0
2.9039394855499268,-0.04693591967225075,-0.01646486297249794,-0.5817235708236694,0.14983515556281826,-0.5432503683774982,-0.0039040803812409202,-0.0020482832627243693,-0.19007050499476505,0.0,0.0,-0.6,0.0,0.0018351078033447266,0.003941535949707031,0
2.915811777114868,-0.047676391899585724,-0.01574600115418434,-0.5806046724319458,0.14856214046003874,-0.5433375751349859,-0.004218765881330276,1.9579063440604803e-05,-0.18876015616885136,0.0,0.0,-0.6,0.0,0.0017404556274414062,0.002928018569946289,0
2.9248533248901367,-0.04828552156686783,-0.015078040771186352,-0.5796731114387512,0.14690116461873123,-0.5433336438566593,-0.0009351869809489828,0.003177047902712819,-0.18722004605022172,0.0,0.0,-0.6,0.0,0.001779794692993164,0.003441333770751953,0
2.936162233352661,-0.04828552156686783,-0.015078040771186352,-0.5796731114387512,0.14690116461873123,-0.5433281556584661,0.0013120101523945542,0.005333068336583612,-0.1861419689671805,0.0,0.0,-0.6,0.0,0.0020058155059814453,0.0033257007598876953,0
2.946357488632202,-0.048618316650390625,-0.014724388718605042,-0.5791429877281189,0.14608376256113076,-0.5433553914212912,0.004205224323541307,0.007357139625296414,-0.18508078923745144,0.0,0.0,-0.6,0.0,0.0027265548706054688,0.004266500473022461,0
2.958035945892334,-0.04928581416606903,-0.014045113697648048,-0.5780781507492065,0.14447815244717044,-0.5434076111716973,0.006263514185971737,0.009017647708269818,-0.18373585963390626,0.0,0.0,-0.6,0.0,0.0016107559204101562,0.0030519962310791016,0
2.9684908390045166,-0.04928581416606903,-0.014045113697648048,-0.5780781507492065,0.14447815244717044,-0.543448222713032,0.007670402646087127,0.010163405048088502,-0.18279440891142423,0.0,0.0,-0.6,0.0,0.00272369384765625,0.004024982452392578,0
2.9796314239501953,-0.0499301478266716,-0.01342586800456047,-0.5770333409309387,0.1428373170828474,-0.5435146495003912,0.0030635085206586633,0.010348990430454112,-0.181520080144066,0.0,0.0,-0.6,0.0,0.0019397735595703125,0.0030655860900878906,0
2.9893269538879395,-0.0499301478266716,-0.01342586800456047,-0.5770333409309387,0.1428373170828474,-0.543566694453487,-8.941696247297126e-05,0.01049400741396007,-0.18062805000691487,0.0,0.0,-0.6,0.0,0.0021643638610839844,0.003589153289794922,0
3.000199317932129,-0.05061476305127144,-0.012841764837503433,-0.5759449005126953,0.1409281233546429,-0.5436924073416624,-0.0037871191260906638,0.01034426469479922,-0.17928768126283284,0.0,0.0,-0.6,0.0,0.002164602279663086,0.0032362937927246094,0
3.013362169265747,-0.05092646926641464,-0.012563953176140785,-0.5754068493843079,0.14012575664203894,-0.5437011238061843,-0.0015395216828880853,0.011320612483095736,-0.17804853562474884,0.0,0.0,-0.6,0.0,0.0021495819091796875,0.0032625198364257812,0
3.0215015411376953,-0.05092646926641464,-0.012563953176140785,-0.5754068493843079,0.14012575664203894,-0.5437074387934441,-2.709320033681675e-06,0.011988769087025845,-0.17718113367808966,0.0,0.0,-0.6,0.0,0.0013973712921142578,0.0022983551025390625,0
3.0311336517333984,-0.05158009007573128,-0.012053990736603737,-0.5742767453193665,0.1383457656762993,-0.5438617258764015,0.0013792932312035521,0.011380973797018188,-0.17590645570327626,0.0,0.0,-0.6,0.0,0.0017974376678466797,0.002979278564453125,0
3.041548490524292,-0.05191957578063011,-0.011783475056290627,-0.5736965537071228,0.13751366597000853,-0.5439789564836237,0.0013691021051628308,0.011648595217547226,-0.17470214373104778,0.0,0.0,-0.6,0.0,0.0021843910217285156,0.003409147262573242,0
3.0525195598602295,-0.05255638435482979,-0.0113291060552001,-0.5725727081298828,0.13566340228942741,-0.5441292052238439,-0.0022287510853873684,0.012721354884413769,-0.17316527647027027,0.0,0.0,-0.6,0.0,0.0017704963684082031,0.0030641555786132812,0
3.0621495246887207,-0.05255638435482979,-0.0113291060552001,-0.5725727081298828,0.13566340228942741,-0.5442476692718827,-0.004695413734009182,0.013491913593786686,-0.17208946938772554,0.0,0.0,-0.6,0.0,0.0018219947814941406,0.0035860538482666016,0
