time,x,y,z,yaw,throttle,roll_rate,pitch_rate,yaw_rate,x_ref,y_ref,z_ref,yaw_ref,pred_time,nr_time,ctrl_callback_time,metadata
2.1457672119140625e-06,-0.18973524868488312,-0.10052648931741714,-0.240281343460083,-0.09850552205459764,-0.532353075748743,0.05045655618390693,-0.08805009066347497,0.03693957077050126,0.0,0.0,-0.6,0.0,0.005078315734863281,0.006178379058837891,0.008756875991821289,Hardware
0.011657476425170898,-0.18973524868488312,-0.10052648931741714,-0.240281343460083,-0.09850552205459764,-0.5411445429522953,0.08245172612906662,-0.1494719956007106,0.06279727030988885,0.0,0.0,-0.6,0.0,0.001104593276977539,0.002117633819580078,0.004768848419189453,Nonlinear
0.020252227783203125,-0.1897183358669281,-0.10050704330205917,-0.2402825653553009,-0.09850608265450282,-0.5481516179566238,0.10098349614165056,-0.1900946670520798,0.08089787021235836,0.0,0.0,-0.6,0.0,0.0009851455688476562,0.0019190311431884766,0.004233837127685547,2x Speed
0.02960801124572754,-0.1896810382604599,-0.10046560317277908,-0.24027691781520844,-0.09850917371428018,-0.5537871479302728,0.1124380822129987,-0.21712549503507853,0.09356944929149326,0.0,0.0,-0.6,0.0,0.0010302066802978516,0.0019447803497314453,0.004324913024902344,0OrderHold
0.03939485549926758,-0.18966758251190186,-0.10044761747121811,-0.24029700458049774,-0.09853108256341286,-0.5582691608277031,0.11910644007784335,-0.23310351551557756,0.10244777046533163,0.0,0.0,-0.6,0.0,0.00110626220703125,0.0020220279693603516,0.004332304000854492,QuatYawError
0.050290822982788086,-0.18966074287891388,-0.10044471174478531,-0.240334153175354,-0.09847618451971858,-0.5618617799306592,0.12359227132637687,-0.24342830427672232,0.10864200852062042,0.0,0.0,-0.6,0.0,0.0010797977447509766,0.0018951892852783203,0.004203081130981445,NoPyJoules
0.05931568145751953,-0.1896551549434662,-0.10045845061540604,-0.24037304520606995,-0.09823637991353036,-0.564742009220749,0.1262379727153334,-0.24801009649204653,0.11288804843201866,0.0,0.0,-0.6,0.0,0.001466512680053711,0.002683877944946289,0.005401134490966797,0
0.0709524154663086,-0.18965651094913483,-0.10048860311508179,-0.2404172420501709,-0.09782325731641457,-0.5670197287799242,0.12746160865633438,-0.2502765674502942,0.1157053553960657,0.0,0.0,-0.6,0.0,0.0015900135040283203,0.0031707286834716797,0.008084774017333984,0
0.08165502548217773,-0.18965651094913483,-0.10048860311508179,-0.2404172420501709,-0.09782325731641457,-0.5688368386861632,0.127658798254743,-0.2508007506956703,0.1176774702709029,0.0,0.0,-0.6,0.0,0.00191497802734375,0.004271507263183594,0.008270263671875,0
0.09488201141357422,-0.1896132379770279,-0.10060296952724457,-0.24054092168807983,-0.09712430023410026,-0.5702132602049756,0.12904372973266762,-0.24742661654651849,0.11879584177741852,0.0,0.0,-0.6,0.0,0.0021898746490478516,0.0038902759552001953,0.008747577667236328,0
0.10635948181152344,-0.1896132379770279,-0.10060296952724457,-0.24054092168807983,-0.09712430023410026,-0.5712998745052922,0.12960433131659216,-0.24446394584495848,0.11957870183198113,0.0,0.0,-0.6,0.0,0.0020270347595214844,0.0037496089935302734,0.008917808532714844,0
0.1204838752746582,-0.18954838812351227,-0.10072922706604004,-0.24070729315280914,-0.0968268528925543,-0.5721570657652423,0.1314224304165604,-0.24158454254486827,0.12001516111709573,0.0,0.0,-0.6,0.0,0.0022492408752441406,0.004234790802001953,0.009416580200195312,0
0.13207554817199707,-0.18954838812351227,-0.10072922706604004,-0.24070729315280914,-0.0968268528925543,-0.5728332042864983,0.13242839873024584,-0.23921385967848585,0.12032068261667457,0.0,0.0,-0.6,0.0,0.002405405044555664,0.0049402713775634766,0.009996652603149414,0
0.14649677276611328,-0.18931008875370026,-0.1008569672703743,-0.241008460521698,-0.09618412927515597,-0.573322222169642,0.1341942305294975,-0.2302752807786811,0.12029352630985567,0.0,0.0,-0.6,0.0,0.0025949478149414062,0.004864931106567383,0.010207414627075195,0
0.159531831741333,-0.18931008875370026,-0.1008569672703743,-0.241008460521698,-0.09618412927515597,-0.5736895673459979,0.1352533274113437,-0.22389603438470934,0.12027451689508245,0.0,0.0,-0.6,0.0,0.0024874210357666016,0.0051059722900390625,0.01095438003540039,0
0.17350125312805176,-0.18879152834415436,-0.10108530521392822,-0.2416120320558548,-0.09404223207875839,-0.5736414907545807,0.13245855177047097,-0.20573706518801982,0.11945799885609008,0.0,0.0,-0.6,0.0,0.002249002456665039,0.004665374755859375,0.009819984436035156,0
0.18727540969848633,-0.18879152834415436,-0.10108530521392822,-0.2416120320558548,-0.09404223207875839,-0.573549394028473,0.13050856197297317,-0.19325604780458866,0.11888643622879703,0.0,0.0,-0.6,0.0,0.0025844573974609375,0.004942417144775391,0.01085972785949707,0
0.20172452926635742,-0.18801170587539673,-0.10131549835205078,-0.24275337159633636,-0.09035724746128955,-0.5731758947435855,0.12637449974469098,-0.17151619020562475,0.11710447315814329,0.0,0.0,-0.6,0.0,0.0024099349975585938,0.0043659210205078125,0.00998687744140625,0
0.21622157096862793,-0.18801170587539673,-0.10131549835205078,-0.24275337159633636,-0.09035724746128955,-0.5728139955199867,0.12358360505177182,-0.1567354382143914,0.11585709900868513,0.0,0.0,-0.6,0.0,0.0021102428436279297,0.004023551940917969,0.009679317474365234,0
0.22963500022888184,-0.18733425438404083,-0.10146727412939072,-0.2440168410539627,-0.08759569594265601,-0.5722133311695264,0.12091735802955929,-0.13665136798844196,0.11394835528457087,0.0,0.0,-0.6,0.0,0.0025663375854492188,0.0047991275787353516,0.010382652282714844,0
0.2438652515411377,-0.1867792010307312,-0.10173452645540237,-0.24542559683322906,-0.08405955392689295,-0.5714097747898141,0.12136718889544684,-0.10866063512978448,0.11128618142178712,0.0,0.0,-0.6,0.0,0.0023207664489746094,0.004511356353759766,0.009536027908325195,0
0.2568817138671875,-0.18613922595977783,-0.10197673738002777,-0.2473977953195572,-0.08040082632940723,-0.5703216900577706,0.11697540869419303,-0.08241573984665758,0.1080506368687707,0.0,0.0,-0.6,0.0,0.0017085075378417969,0.0032079219818115234,0.006878376007080078,0
0.2671046257019043,-0.18613922595977783,-0.10197673738002777,-0.2473977953195572,-0.08040082632940723,-0.569385643334997,0.1142154330402963,-0.0649301710707832,0.10578575568166947,0.0,0.0,-0.6,0.0,0.001967906951904297,0.003432750701904297,0.0069501399993896484,0
0.27641797065734863,-0.18561185896396637,-0.10215908288955688,-0.2494792491197586,-0.07602633701709709,-0.5683625556619951,0.09984578946573706,-0.042116695556569335,0.10255990535857766,0.0,0.0,-0.6,0.0,0.0016825199127197266,0.003117084503173828,0.007166147232055664,0
0.2863447666168213,-0.18561185896396637,-0.10215908288955688,-0.2494792491197586,-0.07602633701709709,-0.5674762570151523,0.09024794778698622,-0.02694883207879822,0.10030181013241411,0.0,0.0,-0.6,0.0,0.002345561981201172,0.004067182540893555,0.007411479949951172,0
0.29686808586120605,-0.18495512008666992,-0.10234945267438889,-0.2522416114807129,-0.07171372489548575,-0.5662822841136178,0.07874975387190551,-0.011129235430703356,0.09710391392848913,0.0,0.0,-0.6,0.0,0.0022330284118652344,0.003967761993408203,0.007689476013183594,0
0.30639076232910156,-0.18495512008666992,-0.10234945267438889,-0.2522416114807129,-0.07171372489548575,-0.565287380839331,0.0711840106965181,-0.000817674807730857,0.0948653865857479,0.0,0.0,-0.6,0.0,0.002025127410888672,0.0034363269805908203,0.006369829177856445,0
0.3174605369567871,-0.18432942032814026,-0.10238508135080338,-0.25506097078323364,-0.066719499636204,-0.5641919941246538,0.061584946127356224,0.01725720983036965,0.09142558297359153,0.0,0.0,-0.6,0.0,0.0015554428100585938,0.0029294490814208984,0.00655364990234375,0
0.32657408714294434,-0.18432942032814026,-0.10238508135080338,-0.25506097078323364,-0.066719499636204,-0.5632773658198124,0.05527897621741763,0.02915498841836618,0.0890177204450888,0.0,0.0,-0.6,0.0,0.0014882087707519531,0.002954244613647461,0.006914377212524414,0
0.3364107608795166,-0.18353024125099182,-0.10245871543884277,-0.25858786702156067,-0.06124762591248043,-0.562162814185193,0.04405502599870073,0.04571269028402673,0.08528026402873957,0.0,0.0,-0.6,0.0,0.0019233226776123047,0.0034503936767578125,0.006797075271606445,0
0.34639739990234375,-0.18353024125099182,-0.10245871543884277,-0.25858786702156067,-0.06124762591248043,-0.5612364984147048,0.036652260940415474,0.056560920725086526,0.08266404453729594,0.0,0.0,-0.6,0.0,0.001989126205444336,0.0034046173095703125,0.007467985153198242,0
0.3571946620941162,-0.18261022865772247,-0.1024727150797844,-0.26238131523132324,-0.055753819551458625,-0.5602800745545382,0.024277502618879124,0.07298425029698975,0.07877251350790128,0.0,0.0,-0.6,0.0,0.0016884803771972656,0.003683805465698242,0.007947206497192383,0
0.36913323402404785,-0.1821143925189972,-0.10248378664255142,-0.2643953859806061,-0.05272510979041675,-0.5593347148607898,0.014817678553774423,0.08855395116125155,0.07491267562693434,0.0,0.0,-0.6,0.0,0.001470327377319336,0.00273895263671875,0.007147550582885742,0
0.37864089012145996,-0.1821143925189972,-0.10248378664255142,-0.2643953859806061,-0.05272510979041675,-0.5585524524438955,0.008569033964330251,0.09880548832250448,0.07221078911025364,0.0,0.0,-0.6,0.0,0.0017275810241699219,0.003184795379638672,0.007020235061645508,0
0.38967108726501465,-0.18042774498462677,-0.10247492790222168,-0.27090567350387573,-0.04397223095541562,-0.5574118146410955,0.0008663882553278197,0.1178292086649447,0.06703713898545909,0.0,0.0,-0.6,0.0,0.0016140937805175781,0.0030210018157958984,0.007303714752197266,0
0.39888787269592285,-0.18042774498462677,-0.10247492790222168,-0.27090567350387573,-0.04397223095541562,-0.556473536953199,-0.004137322925651206,0.1303475652910388,0.06341558389809328,0.0,0.0,-0.6,0.0,0.0016412734985351562,0.0031960010528564453,0.007226228713989258,0
0.4094715118408203,-0.18042774498462677,-0.10247492790222168,-0.27090567350387573,-0.04397223095541562,-0.555710455864436,-0.0073270857617603775,0.1385357129360623,0.06088049533694649,0.0,0.0,-0.6,0.0,0.0015685558319091797,0.0029129981994628906,0.0069942474365234375,0
0.4194345474243164,-0.17842568457126617,-0.10242373496294022,-0.2782074213027954,-0.034668794832836275,-0.554509764131863,-0.012418994970949422,0.1565444793259556,0.05561714479818141,0.0,0.0,-0.6,0.0,0.001573324203491211,0.0029745101928710938,0.006381034851074219,0
0.42900705337524414,-0.17842568457126617,-0.10242373496294022,-0.2782074213027954,-0.034668794832836275,-0.553533135979185,-0.01561043398141502,0.16837397699444587,0.05193279942104108,0.0,0.0,-0.6,0.0,0.0018601417541503906,0.0034961700439453125,0.007497310638427734,0
0.43868517875671387,-0.17842568457126617,-0.10242373496294022,-0.2782074213027954,-0.034668794832836275,-0.5527451485134874,-0.017540506279126927,0.17609958235259585,0.049353757657042696,0.0,0.0,-0.6,0.0,0.0016248226165771484,0.0030672550201416016,0.006985664367675781,0
0.44945526123046875,-0.17688396573066711,-0.10240548849105835,-0.2834465801715851,-0.02848900151153202,-0.5517634870400452,-0.02075005908548099,0.1921239053787878,0.045231005926758515,0.0,0.0,-0.6,0.0,0.0017900466918945312,0.003279447555541992,0.0071713924407958984,0
0.4598228931427002,-0.1760493814945221,-0.10240812599658966,-0.28617098927497864,-0.02509767838666925,-0.550780944057708,-0.02270212231477845,0.20815596776419193,0.04107333354373248,0.0,0.0,-0.6,0.0,0.0016853809356689453,0.0029277801513671875,0.006660938262939453,0
0.46933770179748535,-0.1760493814945221,-0.10240812599658966,-0.28617098927497864,-0.02509767838666925,-0.5499900309905443,-0.023795934008626625,0.21878073312549481,0.03816296287561409,0.0,0.0,-0.6,0.0,0.0020265579223632812,0.0033178329467773438,0.006677865982055664,0
0.47965264320373535,-0.1733650267124176,-0.102439746260643,-0.29462921619415283,-0.015455152820435325,-0.5489082576076805,-0.023369694683771692,0.235639687395124,0.032509756320596314,0.0,0.0,-0.6,0.0,0.0015158653259277344,0.0028257369995117188,0.0065915584564208984,0
0.48827552795410156,-0.1733650267124176,-0.102439746260643,-0.29462921619415283,-0.015455152820435325,-0.5480433645945945,-0.022833615935971087,0.24683288588701274,0.02855251173208291,0.0,0.0,-0.6,0.0,0.0014955997467041016,0.0029172897338867188,0.006861686706542969,0
0.49864721298217773,-0.1733650267124176,-0.102439746260643,-0.29462921619415283,-0.015455152820435325,-0.54735485391927,-0.022249394156157086,0.2542432022772855,0.025782440520122855,0.0,0.0,-0.6,0.0,0.0018565654754638672,0.0033774375915527344,0.007053852081298828,0
0.5087447166442871,-0.17043916881084442,-0.10235007107257843,-0.3034791052341461,-0.0056786150380594294,-0.5464754553436549,-0.02698353806950728,0.2581130852365442,0.020177189003356598,0.0,0.0,-0.6,0.0,0.0017223358154296875,0.0030913352966308594,0.0067195892333984375,0
0.5197982788085938,-0.17043916881084442,-0.10235007107257843,-0.3034791052341461,-0.0056786150380594294,-0.5457720310034575,-0.029985152821035192,0.2605409220547561,0.016253512941622424,0.0,0.0,-0.6,0.0,0.0015888214111328125,0.0029938220977783203,0.00755000114440918,0
0.5288798809051514,-0.17043916881084442,-0.10235007107257843,-0.3034791052341461,-0.0056786150380594294,-0.5452101204631565,-0.03184987063757839,0.2620361189699948,0.013506939698408943,0.0,0.0,-0.6,0.0,0.001279592514038086,0.002498149871826172,0.005972862243652344,0
0.5383872985839844,-0.16803544759750366,-0.10211066156625748,-0.3102189600467682,0.0020769872442959474,-0.5445484551140639,-0.02887587286359218,0.26694078702867635,0.00867598757227592,0.0,0.0,-0.6,0.0,0.0020513534545898438,0.003513336181640625,0.007244110107421875,0
0.5479819774627686,-0.16803544759750366,-0.10211066156625748,-0.3102189600467682,0.0020769872442959474,-0.5440252236199639,-0.026681287973873202,0.2701719063450313,0.005294321083982612,0.0,0.0,-0.6,0.0,0.001527547836303711,0.002791166305541992,0.006532907485961914,0
0.5583314895629883,-0.16546961665153503,-0.10194192081689835,-0.31696778535842896,0.010157889114973636,-0.5434971212145195,-0.025650533245591096,0.26806525418124355,-0.00010318365932891066,0.0,0.0,-0.6,0.0,0.0018737316131591797,0.0033299922943115234,0.007168769836425781,0
0.5684514045715332,-0.16546961665153503,-0.10194192081689835,-0.31696778535842896,0.010157889114973636,-0.5430755722198962,-0.024803433666843247,0.2665510370237154,-0.0038814369796456695,0.0,0.0,-0.6,0.0,0.0018014907836914062,0.0031201839447021484,0.007292270660400391,0
0.5794217586517334,-0.16308574378490448,-0.10187577456235886,-0.3229416608810425,0.01639464813578179,-0.5425702864586247,-0.01792721402716633,0.2632733596978327,-0.00886499893667056,0.0,0.0,-0.6,0.0,0.0016677379608154297,0.0030138492584228516,0.006928443908691406,0
0.5885109901428223,-0.16308574378490448,-0.10187577456235886,-0.3229416608810425,0.01639464813578179,-0.5421693471081652,-0.013090710566524938,0.2609892876610504,-0.0123534923065871,0.0,0.0,-0.6,0.0,0.0019807815551757812,0.003440380096435547,0.007409334182739258,0
0.5996544361114502,-0.16095051169395447,-0.10191308706998825,-0.3281266987323761,0.023375438949726338,-0.5417511016754423,-0.016604187796181256,0.2543338587185584,-0.017413234220757676,0.0,0.0,-0.6,0.0,0.0015232563018798828,0.0029969215393066406,0.006900787353515625,0
0.6086058616638184,-0.16095051169395447,-0.10191308706998825,-0.3281266987323761,0.023375438949726338,-0.5414097636485175,-0.0188825720710876,0.24973625914633157,-0.020955053560679584,0.0,0.0,-0.6,0.0,0.0019648075103759766,0.0034236907958984375,0.0074656009674072266,0
0.6203875541687012,-0.15836253762245178,-0.10185085982084274,-0.3340590298175812,0.029698035802371396,-0.5410096050568522,-0.01946047288514718,0.24118911535657034,-0.02580530091836434,0.0,0.0,-0.6,0.0,0.001817941665649414,0.003469228744506836,0.006647825241088867,0
0.6305661201477051,-0.15702849626541138,-0.10184404999017715,-0.3370108902454376,0.03286128630055205,-0.5406213412146208,-0.017950375551617766,0.23263323594855442,-0.030386693005563438,0.0,0.0,-0.6,0.0,0.0018384456634521484,0.003161907196044922,0.007428407669067383,0
0.6421730518341064,-0.15610508620738983,-0.10188387334346771,-0.3392103314399719,0.03648883416300328,-0.5402593445739297,-0.014251181661189822,0.22613518880424158,-0.03495399791502003,0.0,0.0,-0.6,0.0,0.0015637874603271484,0.002982616424560547,0.006553173065185547,0
0.6522393226623535,-0.15337058901786804,-0.10184703767299652,-0.34514930844306946,0.04265251549596367,-0.5398580873366841,-0.009426447498909016,0.21474925416860394,-0.040462491851506834,0.0,0.0,-0.6,0.0,0.0015764236450195312,0.00311279296875,0.00649571418762207,0
0.6616401672363281,-0.15337058901786804,-0.10184703767299652,-0.34514930844306946,0.04265251549596367,-0.5395309916597991,-0.006012491839181265,0.20696961313573561,-0.044318437607037305,0.0,0.0,-0.6,0.0,0.0017557144165039062,0.003191709518432617,0.007067680358886719,0
0.6722397804260254,-0.15099146962165833,-0.10187064111232758,-0.3503263592720032,0.049099987863613706,-0.53908794801228,0.00121126314327126,0.19900050068930847,-0.04943540177378057,0.0,0.0,-0.6,0.0,0.002125263214111328,0.003558635711669922,0.007014274597167969,0
0.6818187236785889,-0.15099146962165833,-0.10187064111232758,-0.3503263592720032,0.049099987863613706,-0.5387324432749999,0.0062656885676889915,0.19356245668005734,-0.05301727669050417,0.0,0.0,-0.6,0.0,0.0015728473663330078,0.0027980804443359375,0.006536006927490234,0
0.6919333934783936,-0.1481541395187378,-0.10180186480283737,-0.3563040494918823,0.0549742280667334,-0.5382963636784113,0.008405952058034358,0.18510763344462744,-0.05772742920837732,0.0,0.0,-0.6,0.0,0.001720428466796875,0.0032668113708496094,0.0071794986724853516,0
0.7021543979644775,-0.1481541395187378,-0.10180186480283737,-0.3563040494918823,0.0549742280667334,-0.5379433525678123,0.009990924909751286,0.1793312517644292,-0.06102453597089157,0.0,0.0,-0.6,0.0,0.0015139579772949219,0.0028924942016601562,0.0069921016693115234,0
0.714073896408081,-0.14570759236812592,-0.10170430690050125,-0.36149659752845764,0.0612454097846647,-0.5376109825894831,0.0035537740476150924,0.1628325463564973,-0.06568420384886871,0.0,0.0,-0.6,0.0,0.0017809867858886719,0.003217935562133789,0.007094144821166992,0
0.7243585586547852,-0.1428600549697876,-0.10164198279380798,-0.36748555302619934,0.06748548511945605,-0.5370319797246212,0.005280181420023309,0.14944431167514455,-0.07128599961400338,0.0,0.0,-0.6,0.0,0.0017137527465820312,0.0031533241271972656,0.006749391555786133,0
0.733942985534668,-0.1428600549697876,-0.10164198279380798,-0.36748555302619934,0.06748548511945605,-0.536560253822096,0.006624250046199993,0.1403178492881961,-0.07520725664959786,0.0,0.0,-0.6,0.0,0.0016779899597167969,0.003046274185180664,0.006822824478149414,0
0.7436282634735107,-0.1428600549697876,-0.10164198279380798,-0.36748555302619934,0.06748548511945605,-0.5361787994470578,0.007665411283730012,0.1340847358969755,-0.07795213657451416,0.0,0.0,-0.6,0.0,0.0016744136810302734,0.0030188560485839844,0.007046222686767578,0
0.7544078826904297,-0.13997116684913635,-0.10159020125865936,-0.373493492603302,0.07369577273211364,-0.5357194224331184,0.013242555968440976,0.12815178131356061,-0.08220241037671672,0.0,0.0,-0.6,0.0,0.0016052722930908203,0.003175973892211914,0.0068247318267822266,0
0.7643678188323975,-0.13851064443588257,-0.10156430304050446,-0.3765062987804413,0.076988080673788,-0.535292638184138,0.018447634356242092,0.12057498465713676,-0.08641221751636799,0.0,0.0,-0.6,0.0,0.002222776412963867,0.0037603378295898438,0.007309913635253906,0
0.7748622894287109,-0.13851064443588257,-0.10156430304050446,-0.3765062987804413,0.076988080673788,-0.5349506021124876,0.02211428007583069,0.11542141945030136,-0.08935908251413026,0.0,0.0,-0.6,0.0,0.0018792152404785156,0.003359079360961914,0.0070858001708984375,0
0.7851159572601318,-0.13419145345687866,-0.10143440961837769,-0.385414183139801,0.08647347772594864,-0.5345484583364398,0.0279184010408171,0.10194919536796121,-0.0949789119071163,0.0,0.0,-0.6,0.0,0.00145721435546875,0.002782106399536133,0.00684666633605957,0
0.7948594093322754,-0.13419145345687866,-0.10143440961837769,-0.385414183139801,0.08647347772594864,-0.5342217389828255,0.032014109817334074,0.09279081953519745,-0.09891279248222186,0.0,0.0,-0.6,0.0,0.0016791820526123047,0.003040313720703125,0.007321357727050781,0
0.80336594581604,-0.13419145345687866,-0.10143440961837769,-0.385414183139801,0.08647347772594864,-0.533958890702295,0.03490873796035917,0.08655587237676413,-0.10166650888478806,0.0,0.0,-0.6,0.0,0.0021958351135253906,0.0031762123107910156,0.005808353424072266,0
0.8125066757202148,-0.13133911788463593,-0.10128393024206161,-0.3912885785102844,0.09239527541274634,-0.5337443061059408,0.03611386744121659,0.07518569484076962,-0.10581478449914176,0.0,0.0,-0.6,0.0,0.0017383098602294922,0.0025854110717773438,0.005052804946899414,0
0.8201723098754883,-0.1299157589673996,-0.10118857771158218,-0.3942055106163025,0.09562492947188991,-0.5335052029607539,0.035799754316925794,0.06329843458127864,-0.10992969770135383,0.0,0.0,-0.6,0.0,0.0012009143829345703,0.0023224353790283203,0.004953861236572266,0
0.8302674293518066,-0.12851165235042572,-0.10112477838993073,-0.3971095383167267,0.09834098413384629,-0.5333206649913224,0.0323177782350586,0.0504166054825465,-0.11382865744113614,0.0,0.0,-0.6,0.0,0.001440286636352539,0.0026459693908691406,0.0057408809661865234,0
0.8401615619659424,-0.12712982296943665,-0.10106202214956284,-0.4000093638896942,0.10142338580611336,-0.5330503203916432,0.02662724340775545,0.03796630066051544,-0.11771382988609741,0.0,0.0,-0.6,0.0,0.0017271041870117188,0.003200054168701172,0.0062754154205322266,0
0.8506631851196289,-0.12574227154254913,-0.10098524391651154,-0.40289515256881714,0.10464891361430985,-0.5328471280125067,0.019090253137135426,0.026910860654589773,-0.12164302352563726,0.0,0.0,-0.6,0.0,0.0016026496887207031,0.0029582977294921875,0.006257534027099609,0
0.8604640960693359,-0.1243533343076706,-0.10094425827264786,-0.40579313039779663,0.10734267947957717,-0.5325755139720696,0.015902747094815692,0.017655774596320943,-0.12540362127278376,0.0,0.0,-0.6,0.0,0.0015828609466552734,0.002642393112182617,0.005767107009887695,0
0.8699460029602051,-0.1230032816529274,-0.10089953988790512,-0.4086586833000183,0.11036963121562503,-0.532267942222333,0.01564087910781938,0.009104397390636744,-0.12917114659680423,0.0,0.0,-0.6,0.0,0.0018045902252197266,0.003034830093383789,0.006322383880615234,0
0.879643440246582,-0.12167420238256454,-0.10085370391607285,-0.41151344776153564,0.1135211992986112,-0.532030227458202,0.01658002408955739,0.0007870731340228112,-0.13299025235473833,0.0,0.0,-0.6,0.0,0.0011029243469238281,0.002204418182373047,0.005090475082397461,0
0.8901605606079102,-0.12167420238256454,-0.10085370391607285,-0.41151344776153564,0.1135211992986112,-0.5318396330127335,0.017296279699476075,-0.004883356955610985,-0.13566362638529336,0.0,0.0,-0.6,0.0,0.0013628005981445312,0.0026748180389404297,0.005929708480834961,0
0.9002161026000977,-0.11904533207416534,-0.10079045593738556,-0.4171716868877411,0.11908032290524496,-0.5316147035781865,0.02153043355219891,-0.015806201273037022,-0.13961965955916825,0.0,0.0,-0.6,0.0,0.0015957355499267578,0.0026421546936035156,0.005685329437255859,0
0.9110631942749023,-0.11777576059103012,-0.10073534399271011,-0.41999194025993347,0.1219466674847322,-0.5314732436079078,0.0238155290871293,-0.028656996823413446,-0.1434637619981885,0.0,0.0,-0.6,0.0,0.001550436019897461,0.002768993377685547,0.006268024444580078,0
0.9209864139556885,-0.11619687080383301,-0.10065218806266785,-0.4234653115272522,0.12550837940874893,-0.5312725187007955,0.021631155930919504,-0.041614606578086785,-0.14749027567700876,0.0,0.0,-0.6,0.0,0.0017726421356201172,0.0028514862060546875,0.006412506103515625,0
0.9308640956878662,-0.11495901644229889,-0.10063010454177856,-0.4262206256389618,0.12776396861679515,-0.5310574241413497,0.019285933597731737,-0.04999233525151789,-0.15115468120520065,0.0,0.0,-0.6,0.0,0.0014081001281738281,0.0028297901153564453,0.006195068359375,0
0.9406485557556152,-0.11374527215957642,-0.1006229966878891,-0.4289511442184448,0.12994285578404405,-0.5307798690995232,0.019840868146520214,-0.055622746487519484,-0.15453684776265358,0.0,0.0,-0.6,0.0,0.001157522201538086,0.0022270679473876953,0.004976749420166016,0
0.9509787559509277,-0.11228834092617035,-0.10059967637062073,-0.4323592483997345,0.13344843424711203,-0.5305340535418763,0.019051690609969616,-0.06398544724259145,-0.15821895627652086,0.0,0.0,-0.6,0.0,0.0012242794036865234,0.002475738525390625,0.0057413578033447266,0
0.9614479541778564,-0.11114104837179184,-0.10062216967344284,-0.43503719568252563,0.13553564310563895,-0.5303932248676623,0.018293410393389057,-0.07095220418257667,-0.16157913555817585,0.0,0.0,-0.6,0.0,0.0011310577392578125,0.002084016799926758,0.005537271499633789,0
0.9705324172973633,-0.11114104837179184,-0.10062216967344284,-0.43503719568252563,0.13553564310563895,-0.5302817609117395,0.01782913846702645,-0.07571167461603806,-0.16393126105533534,0.0,0.0,-0.6,0.0,0.0013556480407714844,0.0026187896728515625,0.005924224853515625,0
0.9806423187255859,-0.11001655459403992,-0.10066833347082138,-0.4376775324344635,0.13761449744699839,-0.5301680525794003,0.019541595277505583,-0.07987959411668841,-0.16635731928135672,0.0,0.0,-0.6,0.0,0.0012385845184326172,0.002460002899169922,0.005604982376098633,0
0.9905128479003906,-0.10890236496925354,-0.10074061900377274,-0.4402724802494049,0.13962076898229722,-0.5300790602224809,0.019565927634654003,-0.08437903068533899,-0.16880791186530872,0.0,0.0,-0.6,0.0,0.001386404037475586,0.002588987350463867,0.005759477615356445,0
1.0001394748687744,-0.10705547779798508,-0.1010705903172493,-0.44471219182014465,0.14372418560704525,-0.5300065516289112,0.015297640261256934,-0.09032885135948207,-0.1720621079083548,0.0,0.0,-0.6,0.0,0.0012502670288085938,0.0022428035736083984,0.005478382110595703,0
1.0109589099884033,-0.10705547779798508,-0.1010705903172493,-0.44471219182014465,0.14372418560704525,-0.5299471264917087,0.012416164248491662,-0.09440155647145396,-0.17434004513848805,0.0,0.0,-0.6,0.0,0.0016551017761230469,0.0029320716857910156,0.0062024593353271484,0
1.0212757587432861,-0.10495336353778839,-0.10135091096162796,-0.4497419595718384,0.14745145889961947,-0.5298947076014056,0.010118373768476178,-0.09518099962843629,-0.17733232868429596,0.0,0.0,-0.6,0.0,0.0014772415161132812,0.0029315948486328125,0.00630950927734375,0
1.0315101146697998,-0.1042279452085495,-0.10155884921550751,-0.45154309272766113,0.14959140403200083,-0.5298546562826448,0.00970314400809788,-0.09482404360898605,-0.1802294065910046,0.0,0.0,-0.6,0.0,0.001749277114868164,0.002971172332763672,0.006490230560302734,0
1.0396645069122314,-0.1042279452085495,-0.10155884921550751,-0.45154309272766113,0.14959140403200083,-0.5298220457402067,0.00943126708572327,-0.0945826829711776,-0.18225736112570148,0.0,0.0,-0.6,0.0,0.0013115406036376953,0.002469778060913086,0.005297660827636719,0
1.0502707958221436,-0.10223224759101868,-0.101876400411129,-0.4564439058303833,0.15316322205827942,-0.5297792870735111,0.009226526372170538,-0.09256991350901485,-0.18501636105984307,0.0,0.0,-0.6,0.0,0.0013964176177978516,0.0027854442596435547,0.006107330322265625,0
1.0610346794128418,-0.10125922411680222,-0.10202845185995102,-0.4588693678379059,0.15489462823731995,-0.5296837200304784,0.009309050182804111,-0.08905258429013567,-0.18759693833088253,0.0,0.0,-0.6,0.0,0.001402139663696289,0.0026781558990478516,0.0059697628021240234,0
1.071047067642212,-0.10056169331073761,-0.10222794115543365,-0.4606724977493286,0.15688620234032785,-0.5296302966733852,0.006909550482459344,-0.08894140793504805,-0.19015018270923817,0.0,0.0,-0.6,0.0,0.0014429092407226562,0.0025627613067626953,0.00567173957824707,0
1.0813817977905273,-0.09958401322364807,-0.10240060091018677,-0.46303701400756836,0.15860019971628886,-0.5295968643456418,0.005226821748297358,-0.08700089467976553,-0.1925802027900726,0.0,0.0,-0.6,0.0,0.0013778209686279297,0.002484560012817383,0.005629777908325195,0
1.091104507446289,-0.09863502532243729,-0.10258164256811142,-0.46538621187210083,0.16056744832432096,-0.5294775095935299,0.006538105491314853,-0.08219302638577201,-0.19501893507466872,0.0,0.0,-0.6,0.0,0.0016574859619140625,0.0028772354125976562,0.006200075149536133,0
1.1011757850646973,-0.09770374000072479,-0.10274200141429901,-0.4677011966705322,0.16226116410530575,-0.5294246865077517,0.006783211614692219,-0.07466822449943498,-0.19736119109175543,0.0,0.0,-0.6,0.0,0.0013573169708251953,0.002576112747192383,0.006030559539794922,0
1.1122064590454102,-0.09679878503084183,-0.10293465852737427,-0.46999090909957886,0.16419827450500915,-0.5293850596957418,0.007999128134509578,-0.06617861181697808,-0.19972718670360487,0.0,0.0,-0.6,0.0,0.0012366771697998047,0.0022203922271728516,0.005395174026489258,0
1.120342493057251,-0.09592820703983307,-0.10311680287122726,-0.47224414348602295,0.1660154041398851,-0.5293513167697612,0.008176911529484243,-0.05849377117820009,-0.20206480724497797,0.0,0.0,-0.6,0.0,0.0015399456024169922,0.0028493404388427734,0.005973339080810547,0
1.130467176437378,-0.0950852781534195,-0.10332103073596954,-0.4744590222835541,0.16750542423773582,-0.5293309410847734,0.008159569934929181,-0.053543107448765705,-0.2042598991606333,0.0,0.0,-0.6,0.0,0.0017333030700683594,0.0029382705688476562,0.0066683292388916016,0
1.141359567642212,-0.09426131099462509,-0.10351528227329254,-0.47662752866744995,0.1692599940916987,-0.5293942909260495,0.00967010239514674,-0.05078948126594215,-0.20645442719682813,0.0,0.0,-0.6,0.0,0.0013706684112548828,0.002425670623779297,0.005519390106201172,0
1.1503612995147705,-0.0934465155005455,-0.10373499244451523,-0.47873684763908386,0.17107644149249052,-0.5295083618631302,0.011727703803484996,-0.04913823941289336,-0.20867176459746142,0.0,0.0,-0.6,0.0,0.0015568733215332031,0.002778768539428711,0.0060040950775146484,0
1.1603951454162598,-0.0926513671875,-0.10395748913288116,-0.4808095097541809,0.17252096565598934,-0.5295771361219314,0.0147064637121876,-0.04975279724152598,-0.2107655973392169,0.0,0.0,-0.6,0.0,0.001569986343383789,0.002885580062866211,0.006102085113525391,0
1.1711983680725098,-0.09188265353441238,-0.10418825596570969,-0.4828377068042755,0.1742076787286132,-0.529767187120148,0.015388815192254351,-0.050238545028216626,-0.21286379766067967,0.0,0.0,-0.6,0.0,0.001435995101928711,0.0027227401733398438,0.00605010986328125,0
1.1812660694122314,-0.09114348143339157,-0.10441111028194427,-0.4848276376724243,0.17586424648110524,-0.5298714978566109,0.016482568975863744,-0.049789694175565356,-0.21495375079288814,0.0,0.0,-0.6,0.0,0.0015103816986083984,0.0027589797973632812,0.006160736083984375,0
1.1915831565856934,-0.09040485322475433,-0.10464610159397125,-0.48679468035697937,0.17718689296406132,-0.53001160119233,0.01714893200212542,-0.0477886918061153,-0.21691271041654275,0.0,0.0,-0.6,0.0,0.0011951923370361328,0.0022122859954833984,0.005454063415527344,0
1.2003450393676758,-0.08969862759113312,-0.1048615574836731,-0.4887167811393738,0.1786372823169118,-0.5300803619160114,0.019510069025154394,-0.043166922368157175,-0.21882787816041993,0.0,0.0,-0.6,0.0,0.0015101432800292969,0.0027365684509277344,0.00690770149230957,0
1.212024450302124,-0.08901429176330566,-0.10506726801395416,-0.49060699343681335,0.18010020498414944,-0.5301724834003879,0.019813627886077625,-0.037897180962989996,-0.22071709158134808,0.0,0.0,-0.6,0.0,0.001527547836303711,0.0026993751525878906,0.006165266036987305,0
1.2201085090637207,-0.08901429176330566,-0.10506726801395416,-0.49060699343681335,0.18010020498414944,-0.5302429437839745,0.01998630202156447,-0.03428208869183377,-0.22203954097599837,0.0,0.0,-0.6,0.0,0.0018205642700195312,0.0030879974365234375,0.006639719009399414,0
1.2310476303100586,-0.08772554993629456,-0.10546080768108368,-0.49433252215385437,0.18250707488595472,-0.5303153350798836,0.016277101295777543,-0.03262343224300031,-0.22386783176543004,0.0,0.0,-0.6,0.0,0.0014865398406982422,0.0027036666870117188,0.005717754364013672,0
1.2397911548614502,-0.08711254596710205,-0.10565550625324249,-0.49616333842277527,0.18375224827098607,-0.5303507791587542,0.013017017172693872,-0.03229661218439849,-0.22561457533741908,0.0,0.0,-0.6,0.0,0.0017066001892089844,0.0031349658966064453,0.006536245346069336,0
1.2503983974456787,-0.08649592846632004,-0.10584146529436111,-0.4979689121246338,0.18482083025823626,-0.5303788535355751,0.011922104467405064,-0.03373238913866194,-0.22723801408303032,0.0,0.0,-0.6,0.0,0.0013782978057861328,0.002418041229248047,0.005674600601196289,0
1.2605674266815186,-0.08587475121021271,-0.10604165494441986,-0.499767929315567,0.18603311782639814,-0.5304439146214097,0.010320202360458249,-0.036059434232896335,-0.22882902904301894,0.0,0.0,-0.6,0.0,0.0015349388122558594,0.0028090476989746094,0.005806922912597656,0
1.2699756622314453,-0.08527104556560516,-0.10623136162757874,-0.5015309453010559,0.18732257543744854,-0.5305087281713707,0.01036086344208029,-0.03736674060329852,-0.23042628611915486,0.0,0.0,-0.6,0.0,0.0015587806701660156,0.0028133392333984375,0.006201982498168945,0
1.2817058563232422,-0.0846671462059021,-0.1064252182841301,-0.5032721161842346,0.18836498870559581,-0.5305643203810136,0.010503529781310398,-0.03678925154418169,-0.23193527104800532,0.0,0.0,-0.6,0.0,0.0025169849395751953,0.004877328872680664,0.010921001434326172,0
1.2953910827636719,-0.0846671462059021,-0.1064252182841301,-0.5032721161842346,0.18836498870559581,-0.5306085333895681,0.010584346576542877,-0.03638510858357477,-0.23299156049820108,0.0,0.0,-0.6,0.0,0.0021448135375976562,0.004407167434692383,0.009701251983642578,0
1.3096365928649902,-0.08351219445466995,-0.10681424289941788,-0.5067005753517151,0.19058030154146527,-0.5306971487118379,0.008366353346013506,-0.034189597244712676,-0.23456170542678867,0.0,0.0,-0.6,0.0,0.002633810043334961,0.004874229431152344,0.010980844497680664,0
1.3248138427734375,-0.08240300416946411,-0.10719575732946396,-0.5100746750831604,0.1924803735963707,-0.5306837553555813,0.008796235243227878,-0.02775369494617587,-0.23637333389738927,0.0,0.0,-0.6,0.0,0.002305269241333008,0.0044710636138916016,0.009912252426147461,0
1.3394379615783691,-0.0811828076839447,-0.10752430558204651,-0.51384437084198,0.1946980186769865,-0.5306590800084917,0.01327852068153955,-0.02603996729539773,-0.23847309073204032,0.0,0.0,-0.6,0.0,0.00246429443359375,0.004721879959106445,0.010137557983398438,0
1.3529350757598877,-0.0811828076839447,-0.10752430558204651,-0.51384437084198,0.1946980186769865,-0.5306420336873245,0.016347788975483803,-0.02486783094724744,-0.23994292051629668,0.0,0.0,-0.6,0.0,0.002346515655517578,0.004769802093505859,0.010100603103637695,0
1.3669321537017822,-0.08014172315597534,-0.10785382986068726,-0.5170729756355286,0.19621712996871188,-0.5306722038878602,0.013849477350739969,-0.02661077590808629,-0.24154146809967303,0.0,0.0,-0.6,0.0,0.002447843551635742,0.004691362380981445,0.009652137756347656,0
1.380127191543579,-0.08014172315597534,-0.10785382986068726,-0.5170729756355286,0.19621712996871188,-0.5306948972689337,0.012135145708395684,-0.02779721968066967,-0.24266045140803696,0.0,0.0,-0.6,0.0,0.0023200511932373047,0.0044498443603515625,0.010096073150634766,0
1.3939685821533203,-0.07901361584663391,-0.10817529261112213,-0.5206521153450012,0.19809680265972449,-0.5306429584055173,0.009580914146836789,-0.02600612304829862,-0.24414861698302107,0.0,0.0,-0.6,0.0,0.002582550048828125,0.004754066467285156,0.010416984558105469,0
1.4079906940460205,-0.07808099687099457,-0.10847817361354828,-0.5237481594085693,0.19942303744954656,-0.5305836919520655,0.009104440503102362,-0.025333813977467586,-0.24568767093169316,0.0,0.0,-0.6,0.0,0.0021440982818603516,0.003993511199951172,0.00810694694519043,0
1.4206452369689941,-0.07726258784532547,-0.108823761343956,-0.5264111161231995,0.20082801350608587,-0.530521277481514,0.008540616007474654,-0.022392175929914892,-0.2472918747169658,0.0,0.0,-0.6,0.0,0.0023093223571777344,0.0044171810150146484,0.009738683700561523,0
1.4341745376586914,-0.07726258784532547,-0.108823761343956,-0.5264111161231995,0.20082801350608587,-0.530468994339884,0.008170282319942624,-0.020392728440031746,-0.24841481736665713,0.0,0.0,-0.6,0.0,0.002393960952758789,0.004210472106933594,0.009874820709228516,0
1.447014331817627,-0.076316699385643,-0.10905195772647858,-0.5294811725616455,0.2019794961428345,-0.5304582169514854,0.011340705172515035,-0.01825518007473547,-0.24963268321022172,0.0,0.0,-0.6,0.0,0.0017919540405273438,0.0039010047912597656,0.008717536926269531,0
1.4592852592468262,-0.07549672573804855,-0.1092989593744278,-0.5321025252342224,0.20323088453811952,-0.5303461649683504,0.011455384161215863,-0.019139724561393814,-0.2509544599489487,0.0,0.0,-0.6,0.0,0.0017375946044921875,0.003628969192504883,0.008973360061645508,0
1.4719460010528564,-0.07549672573804855,-0.1092989593744278,-0.5321025252342224,0.20323088453811952,-0.5302571673043728,0.011568790929123768,-0.019761865275813195,-0.251879703666058,0.0,0.0,-0.6,0.0,0.002584695816040039,0.004773855209350586,0.009315967559814453,0
1.4854187965393066,-0.0742674246430397,-0.10967352241277695,-0.5362050533294678,0.20492539313188518,-0.5302296469415925,0.018622079024466533,-0.016089540348888137,-0.25316281499069626,0.0,0.0,-0.6,0.0,0.0026276111602783203,0.004977226257324219,0.009708881378173828,0
1.4980835914611816,-0.0742674246430397,-0.10967352241277695,-0.5362050533294678,0.20492539313188518,-0.5302107346305027,0.023447069417415655,-0.013582030609710813,-0.2540609929179559,0.0,0.0,-0.6,0.0,0.002046346664428711,0.004160165786743164,0.009411811828613281,0
1.5116946697235107,-0.07341190427541733,-0.10984440892934799,-0.5390866994857788,0.20598381088348142,-0.5302492069774444,0.025201383439982752,-0.011848840465666663,-0.2550866241238736,0.0,0.0,-0.6,0.0,0.0018846988677978516,0.004083156585693359,0.008858442306518555,0
1.5234010219573975,-0.07341190427541733,-0.10984440892934799,-0.5390866994857788,0.20598381088348142,-0.5302805267918875,0.026387756326353172,-0.010656816272805236,-0.2558045659680164,0.0,0.0,-0.6,0.0,0.0017116069793701172,0.0037174224853515625,0.009002447128295898,0
1.537201166152954,-0.07231782376766205,-0.11003357172012329,-0.5428358912467957,0.2073995223114328,-0.5303472879397158,0.025209736748982182,-0.009903536789201018,-0.25683801704439774,0.0,0.0,-0.6,0.0,0.0018963813781738281,0.0037512779235839844,0.009259939193725586,0
1.5495383739471436,-0.07231782376766205,-0.11003357172012329,-0.5428358912467957,0.2073995223114328,-0.5303990940106421,0.024383877193124945,-0.009376326463106332,-0.25756143279785493,0.0,0.0,-0.6,0.0,0.001976490020751953,0.004056453704833984,0.009451150894165039,0
1.5626583099365234,-0.07129745185375214,-0.11019115895032883,-0.5463985800743103,0.2085571296828635,-0.5305475794321441,0.027055989725680473,-0.0073205814519941,-0.2585019265895844,0.0,0.0,-0.6,0.0,0.002412557601928711,0.0037813186645507812,0.00882863998413086,0
1.5741095542907715,-0.07129745185375214,-0.11019115895032883,-0.5463985800743103,0.2085571296828635,-0.5306674223660569,0.02883766976880762,-0.005887093336015385,-0.25916027224378224,0.0,0.0,-0.6,0.0,0.002352476119995117,0.003827810287475586,0.008388757705688477,0
1.5860631465911865,-0.07060053944587708,-0.11022794991731644,-0.548851728439331,0.20913517563794562,-0.5307665209270603,0.025317337865340357,-0.0044538138522799775,-0.2598378814348765,0.0,0.0,-0.6,0.0,0.0015172958374023438,0.002855539321899414,0.0077724456787109375,0
1.5965781211853027,-0.07060053944587708,-0.11022794991731644,-0.548851728439331,0.20913517563794562,-0.5308414496757009,0.02287988619159899,-0.003456079974192213,-0.2603122078686427,0.0,0.0,-0.6,0.0,0.0020415782928466797,0.004686117172241211,0.00885462760925293,0
1.6093051433563232,-0.0696408823132515,-0.11025979369878769,-0.5520942807197571,0.2098330792189932,-0.5309240554449596,0.024726460445750567,0.0006924549247429683,-0.2609059502151717,0.0,0.0,-0.6,0.0,0.0028264522552490234,0.004944801330566406,0.010385274887084961,0
1.6240766048431396,-0.0696408823132515,-0.11025979369878769,-0.5520942807197571,0.2098330792189932,-0.5309892811135551,0.025961761786511453,0.0035421958597300434,-0.26132156985774224,0.0,0.0,-0.6,0.0,0.002054929733276367,0.004360675811767578,0.009093523025512695,0
1.6380465030670166,-0.06901129335165024,-0.11023608595132828,-0.5543378591537476,0.2100181361702375,-0.5310934292105516,0.02597595886637297,0.005675589856561245,-0.2616818999642583,0.0,0.0,-0.6,0.0,0.0024411678314208984,0.004222869873046875,0.00901484489440918,0
1.6504411697387695,-0.06838753074407578,-0.11019705981016159,-0.556506335735321,0.21027384100053426,-0.5312010921055699,0.02782655775105214,0.00398270016224486,-0.2620300203501808,0.0,0.0,-0.6,0.0,0.0018575191497802734,0.0035991668701171875,0.009047985076904297,0
1.663163185119629,-0.06838753074407578,-0.11019705981016159,-0.556506335735321,0.21027384100053426,-0.5312896024811707,0.02906121756445815,0.0028430837434638783,-0.2622737046203267,0.0,0.0,-0.6,0.0,0.001967906951904297,0.0036051273345947266,0.0089263916015625,0
1.6746294498443604,-0.06777576357126236,-0.11008797585964203,-0.5585584044456482,0.21042136053605656,-0.5314472717922851,0.026690445831489846,-0.0024252190637043375,-0.26249960343524964,0.0,0.0,-0.6,0.0,0.0021562576293945312,0.004377126693725586,0.00917363166809082,0
1.688481330871582,-0.06747133284807205,-0.11003245413303375,-0.559556782245636,0.21039472799887105,-0.5315902732612834,0.023476506844275626,-0.007245561630382582,-0.26264774540425123,0.0,0.0,-0.6,0.0,0.0025849342346191406,0.00484919548034668,0.010097742080688477,0
1.7028858661651611,-0.06688370555639267,-0.10985329002141953,-0.5614823698997498,0.21040350782030826,-0.5317784238940532,0.019384442070506675,-0.004345577324839303,-0.26275473721558984,0.0,0.0,-0.6,0.0,0.003420591354370117,0.0057642459869384766,0.011425018310546875,0
1.7189478874206543,-0.06688370555639267,-0.10985329002141953,-0.5614823698997498,0.21040350782030826,-0.5319232079544743,0.01652988993975522,-0.002330180929001236,-0.26282963148352945,0.0,0.0,-0.6,0.0,0.0026175975799560547,0.004900932312011719,0.01040792465209961,0
1.7327930927276611,-0.0660453587770462,-0.10948257148265839,-0.5641384720802307,0.2101930505681422,-0.5321535214890901,0.01278329584356975,0.0005196664565968105,-0.2628031360015236,0.0,0.0,-0.6,0.0,0.002450704574584961,0.004187107086181641,0.009393930435180664,0
1.7453291416168213,-0.0660453587770462,-0.10948257148265839,-0.5641384720802307,0.2101930505681422,-0.5323325278912139,0.010152880570199991,0.0025075211263692466,-0.26278458916411984,0.0,0.0,-0.6,0.0,0.0023190975189208984,0.004492282867431641,0.009406089782714844,0
1.758375883102417,-0.06525123119354248,-0.1090310588479042,-0.5665164589881897,0.20977513304425646,-0.5325827648221579,0.008214968873083614,0.0024264791924643245,-0.26261488730648025,0.0,0.0,-0.6,0.0,0.0018126964569091797,0.0038399696350097656,0.0081939697265625,0
1.7698967456817627,-0.06525123119354248,-0.1090310588479042,-0.5665164589881897,0.20977513304425646,-0.5327810471595164,0.0068174921763879135,0.0024132490778843146,-0.2624960960061341,0.0,0.0,-0.6,0.0,0.0026900768280029297,0.00473332405090332,0.009363174438476562,0
1.7834150791168213,-0.06470126658678055,-0.10866127163171768,-0.5679575800895691,0.2096060300789947,-0.5330492521651371,0.0019036985698062852,0.0015127438888531668,-0.262349528483915,0.0,0.0,-0.6,0.0,0.0027098655700683594,0.0050618648529052734,0.01084589958190918,0
1.7972614765167236,-0.06470126658678055,-0.10866127163171768,-0.5679575800895691,0.2096060300789947,-0.5332596575842734,-0.0015329063801370036,0.0009452852958151313,-0.2622469312183636,0.0,0.0,-0.6,0.0,0.003965616226196289,0.0051479339599609375,0.011426210403442383,0
1.8120286464691162,-0.06377727538347244,-0.10802854597568512,-0.5700446963310242,0.20891984800361013,-0.5335548971381147,-0.00816928579805279,0.004606565673416226,-0.26191779485420863,0.0,0.0,-0.6,0.0,0.0017833709716796875,0.003316164016723633,0.006465911865234375,0
1.8216123580932617,-0.06377727538347244,-0.10802854597568512,-0.5700446963310242,0.20891984800361013,-0.5337830082263809,-0.012790813417508347,0.007164252878343104,-0.2616873993993001,0.0,0.0,-0.6,0.0,0.0016849040985107422,0.0032384395599365234,0.006618976593017578,0
1.8309156894683838,-0.0632980540394783,-0.10759730637073517,-0.5712208151817322,0.20843699868141047,-0.5340234738447285,-0.012147816680049077,0.0078412825278226,-0.26134505408503933,0.0,0.0,-0.6,0.0,0.001253366470336914,0.002247333526611328,0.004922628402709961,0
1.840437889099121,-0.0632980540394783,-0.10759730637073517,-0.5712208151817322,0.20843699868141047,-0.5342156071693076,-0.011770712742442055,0.008343807311288502,-0.2611054123650567,0.0,0.0,-0.6,0.0,0.0016133785247802734,0.0028955936431884766,0.006878376007080078,0
1.8517000675201416,-0.06301675736904144,-0.10727177560329437,-0.5718963742256165,0.20810275872477257,-0.5343929049651782,-0.01412869758612537,0.007460496508338523,-0.2608123231773297,0.0,0.0,-0.6,0.0,0.0012481212615966797,0.0022535324096679688,0.005947113037109375,0
1.860318899154663,-0.0628005787730217,-0.10701649636030197,-0.5724214315414429,0.20788198463998783,-0.5346103327561157,-0.016755917402420648,0.009282848580557699,-0.2605243704641225,0.0,0.0,-0.6,0.0,0.001760244369506836,0.003247976303100586,0.0070378780364990234,0
1.872164011001587,-0.0625748336315155,-0.10676632076501846,-0.5729144215583801,0.20758111656110773,-0.5347440527200734,-0.01807464270759822,0.012214869377497736,-0.2602099780353015,0.0,0.0,-0.6,0.0,0.0015974044799804688,0.0031578540802001953,0.006502389907836914,0
1.8815333843231201,-0.06217607483267784,-0.10629916936159134,-0.5737518668174744,0.20667626348944818,-0.5349092175270401,-0.01896579205161262,0.014367442803514211,-0.25965058343325464,0.0,0.0,-0.6,0.0,0.0016665458679199219,0.003262042999267578,0.007136344909667969,0
1.890479564666748,-0.06217607483267784,-0.10629916936159134,-0.5737518668174744,0.20667626348944818,-0.5350394785836616,-0.01961706867740198,0.015865669400719568,-0.2592590072118217,0.0,0.0,-0.6,0.0,0.0012972354888916016,0.002393007278442383,0.005887031555175781,0
1.9003620147705078,-0.06198469176888466,-0.10604085773229599,-0.5742052793502808,0.20625240689376512,-0.5350934138844833,-0.02088150428790219,0.015718150297669608,-0.2588259576334376,0.0,0.0,-0.6,0.0,0.0014030933380126953,0.002878427505493164,0.006293296813964844,0
1.9122328758239746,-0.06180724501609802,-0.10576733201742172,-0.5746320486068726,0.20591521797479448,-0.535239925000056,-0.02506274183371315,0.01509102831919117,-0.2583963770839547,0.0,0.0,-0.6,0.0,0.001489400863647461,0.002901792526245117,0.00648045539855957,0
1.920870065689087,-0.06180724501609802,-0.10576733201742172,-0.5746320486068726,0.20591521797479448,-0.5353544138938525,-0.027957516957748424,0.014686790785067808,-0.2580956706993165,0.0,0.0,-0.6,0.0,0.0015540122985839844,0.003198385238647461,0.006990909576416016,0
1.929938793182373,-0.06124970689415932,-0.1049848198890686,-0.5757721066474915,0.20453668634453884,-0.5354405592357864,-0.023907269687533435,0.017998789980224254,-0.25736822686872435,0.0,0.0,-0.6,0.0,0.001194000244140625,0.0024759769439697266,0.005725383758544922,0
1.9400019645690918,-0.06124970689415932,-0.1049848198890686,-0.5757721066474915,0.20453668634453884,-0.5355098344230297,-0.021157812371874498,0.02027296494721448,-0.2568590161873096,0.0,0.0,-0.6,0.0,0.0014789104461669922,0.0027785301208496094,0.006739377975463867,0
1.9516472816467285,-0.060860149562358856,-0.10440637916326523,-0.576561689376831,0.20367528300713097,-0.5356279416590981,-0.01997058138646813,0.019985047707482988,-0.2561795424587915,0.0,0.0,-0.6,0.0,0.0015368461608886719,0.0027437210083007812,0.006249666213989258,0
1.9616398811340332,-0.060721252113580704,-0.1041201502084732,-0.576854407787323,0.20321126510418486,-0.535684941062381,-0.021519928023479924,0.018006458497238215,-0.25552990413522403,0.0,0.0,-0.6,0.0,0.0012278556823730469,0.0024673938751220703,0.006108999252319336,0
1.9718053340911865,-0.06054526939988136,-0.10379357635974884,-0.5772268772125244,0.20275957894845112,-0.5357234452526921,-0.021110788220819084,0.017618657486856537,-0.25490577500032663,0.0,0.0,-0.6,0.0,0.001650094985961914,0.0031807422637939453,0.006442070007324219,0
1.981339454650879,-0.06054526939988136,-0.10379357635974884,-0.5772268772125244,0.20275957894845112,-0.53575455951919,-0.02083987566865606,0.017359093145028072,-0.2544688846058982,0.0,0.0,-0.6,0.0,0.0018663406372070312,0.0030012130737304688,0.0065288543701171875,0
1.9912049770355225,-0.06015574932098389,-0.10308371484279633,-0.5779213905334473,0.2018879369749079,-0.5359009501525455,-0.017105278949092608,0.017744491279763682,-0.25383619558971987,0.0,0.0,-0.6,0.0,0.001493215560913086,0.0030481815338134766,0.006802797317504883,0
2.002236843109131,-0.06001060828566551,-0.10279302299022675,-0.5781775712966919,0.20140497749673889,-0.5359759670783558,-0.014009869336481299,0.02174648080655405,-0.25321220347409024,0.0,0.0,-0.6,0.0,0.0012426376342773438,0.002220630645751953,0.0056934356689453125,0
2.012247085571289,-0.05982380360364914,-0.1024300828576088,-0.5784742832183838,0.2009481209825426,-0.5360838280844955,-0.009161822929240202,0.022715550311923724,-0.25260408780031723,0.0,0.0,-0.6,0.0,0.0012688636779785156,0.0025670528411865234,0.006483554840087891,0
2.0207197666168213,-0.05982380360364914,-0.1024300828576088,-0.5784742832183838,0.2009481209825426,-0.536172035786358,-0.005870919346356092,0.023391679232110545,-0.252178406828676,0.0,0.0,-0.6,0.0,0.0020759105682373047,0.0035457611083984375,0.0072460174560546875,0
2.0317513942718506,-0.05949706211686134,-0.10168632119894028,-0.5790203213691711,0.2000314291808779,-0.5363032785107085,4.36847404511418e-06,0.022988888905089107,-0.25153667072289415,0.0,0.0,-0.6,0.0,0.0016138553619384766,0.003209352493286133,0.006731510162353516,0
2.0415234565734863,-0.05926598981022835,-0.10102660953998566,-0.5794448852539062,0.19918448899912858,-0.5365635302125555,0.00023221652787752504,0.018977070576924666,-0.25076985288069986,0.0,0.0,-0.6,0.0,0.0016126632690429688,0.0032112598419189453,0.006521940231323242,0
2.0507586002349854,-0.05926598981022835,-0.10102660953998566,-0.5794448852539062,0.19918448899912858,-0.5367727484076428,0.0003303866484092231,0.01627390943232533,-0.25023308039116365,0.0,0.0,-0.6,0.0,0.0011017322540283203,0.0020475387573242188,0.004888296127319336,0
2.0604088306427,-0.059110723435878754,-0.10065283626317978,-0.5796523690223694,0.1986906046097332,-0.5368794209119031,0.0034966131487439494,0.015202160258932803,-0.24967213300246507,0.0,0.0,-0.6,0.0,0.0013175010681152344,0.0027594566345214844,0.0064771175384521484,0
2.0710554122924805,-0.058972105383872986,-0.10026158392429352,-0.5798438191413879,0.19827613653618395,-0.5370346070396338,0.004126309107108972,0.016133168246290883,-0.24912404430279508,0.0,0.0,-0.6,0.0,0.0014896392822265625,0.003599882125854492,0.006899118423461914,0
2.0813324451446533,-0.05872063338756561,-0.09946038573980331,-0.5801715850830078,0.19717422414701405,-0.5371681261998005,0.004558122954694888,0.019910854709181282,-0.24832716506708763,0.0,0.0,-0.6,0.0,0.0011372566223144531,0.0020971298217773438,0.0050258636474609375,0
2.0905380249023438,-0.05872063338756561,-0.09946038573980331,-0.5801715850830078,0.19717422414701405,-0.5372731657345919,0.004824592148948075,0.022514246621962088,-0.24776934960209215,0.0,0.0,-0.6,0.0,0.0019805431365966797,0.003309488296508789,0.006813764572143555,0
2.101186752319336,-0.058531735092401505,-0.0986410602927208,-0.58043372631073,0.19588803266379204,-0.5373893552475707,0.003659607447785056,0.022442130833305513,-0.2468965569703874,0.0,0.0,-0.6,0.0,0.001340627670288086,0.002821207046508789,0.006417274475097656,0
2.1125648021698,-0.058531735092401505,-0.0986410602927208,-0.58043372631073,0.19588803266379204,-0.5374813320636019,0.002837528249356729,0.02241077707794589,-0.2462856021281938,0.0,0.0,-0.6,0.0,0.0015516281127929688,0.0029430389404296875,0.005883932113647461,0
2.1215052604675293,-0.05846526101231575,-0.09819139540195465,-0.580525279045105,0.19522437896621855,-0.537653698359064,0.0018554526579057738,0.021761111737930623,-0.2456090636020683,0.0,0.0,-0.6,0.0,0.001756906509399414,0.003364086151123047,0.007250785827636719,0
2.1314163208007812,-0.058312419801950455,-0.0972931832075119,-0.5806944966316223,0.19402846698836573,-0.5377855125059109,0.001193768376714481,0.01679927467246816,-0.2446870196420859,0.0,0.0,-0.6,0.0,0.0015461444854736328,0.00290679931640625,0.005838155746459961,0
2.140392303466797,-0.058312419801950455,-0.0972931832075119,-0.5806944966316223,0.19402846698836573,-0.5378918430145516,0.0007108203973773335,0.013426616942317325,-0.24404158887009791,0.0,0.0,-0.6,0.0,0.001325845718383789,0.002478361129760742,0.006500244140625,0
2.1510396003723145,-0.05825645849108696,-0.09684131294488907,-0.580769956111908,0.19339123365892194,-0.5380677090010398,-0.0020886524455107167,0.00861287612215068,-0.24335082483116496,0.0,0.0,-0.6,0.0,0.0016481876373291016,0.002810239791870117,0.006572246551513672,0
2.1607606410980225,-0.05813577398657799,-0.09587633609771729,-0.5808818936347961,0.1920661285196117,-0.5381827074764439,-0.005758892574778062,0.006479266782499124,-0.24237037557667082,0.0,0.0,-0.6,0.0,0.0014216899871826172,0.002782583236694336,0.006796360015869141,0
2.171541213989258,-0.05805904045701027,-0.09540215134620667,-0.5809376835823059,0.1912688361861662,-0.5382824324663708,-0.007489761406516707,0.006066348331646698,-0.24138507647348287,0.0,0.0,-0.6,0.0,0.0011272430419921875,0.0022127628326416016,0.005150318145751953,0
2.1802525520324707,-0.05805904045701027,-0.09540215134620667,-0.5809376835823059,0.1912688361861662,-0.5383611828832214,-0.008693829545111902,0.0058008360995853775,-0.240695367101251,0.0,0.0,-0.6,0.0,0.0018336772918701172,0.003309488296508789,0.007705211639404297,0
2.192201852798462,-0.05788910388946533,-0.09443435817956924,-0.5809741616249084,0.18981815520423034,-0.5384619142728112,-0.008679442938251729,0.00996167120229215,-0.2396685651724631,0.0,0.0,-0.6,0.0,0.0017650127410888672,0.003146648406982422,0.006168842315673828,0
2.200904607772827,-0.05788910388946533,-0.09443435817956924,-0.5809741616249084,0.18981815520423034,-0.5385402109037406,-0.008688879114226535,0.012821336479956485,-0.23894980382231126,0.0,0.0,-0.6,0.0,0.001451253890991211,0.002834320068359375,0.006121158599853516,0
2.211299180984497,-0.05782531201839447,-0.09394101053476334,-0.5809746384620667,0.1890576030770125,-0.5386420160341009,-0.008028289635022837,0.014500142978469702,-0.23816146382949838,0.0,0.0,-0.6,0.0,0.0012497901916503906,0.002297639846801758,0.005506753921508789,0
2.2201790809631348,-0.057753294706344604,-0.09343548119068146,-0.5809503793716431,0.18830507759108098,-0.5387879671512246,-0.00919020237744409,0.015359973417147213,-0.23732742877730506,0.0,0.0,-0.6,0.0,0.0013165473937988281,0.0028336048126220703,0.006341218948364258,0
2.2311806678771973,-0.05759197846055031,-0.0924186259508133,-0.5808822512626648,0.1867217786162668,-0.5389297360214311,-0.007703932242934492,0.011513010246738672,-0.23614986712521477,0.0,0.0,-0.6,0.0,0.0016264915466308594,0.0031807422637939453,0.0067348480224609375,0
2.2420451641082764,-0.05752547085285187,-0.09191222488880157,-0.5808144211769104,0.18590528368329404,-0.5391081653949688,-0.007807173517988683,0.009217297936119327,-0.23501938836888672,0.0,0.0,-0.6,0.0,0.0012276172637939453,0.002193927764892578,0.004954814910888672,0
2.2504262924194336,-0.05752547085285187,-0.09191222488880157,-0.5808144211769104,0.18590528368329404,-0.5392512815873292,-0.00791482651889423,0.007672748277691686,-0.23422805323945675,0.0,0.0,-0.6,0.0,0.0016324520111083984,0.0027434825897216797,0.0061931610107421875,0
2.260688066482544,-0.05744326114654541,-0.09140372276306152,-0.5807312726974487,0.18522758142613122,-0.5393376612585711,-0.007489241219226881,0.007079881812767295,-0.23341998030241976,0.0,0.0,-0.6,0.0,0.00183868408203125,0.0032486915588378906,0.0070650577545166016,0
2.2718448638916016,-0.05735721066594124,-0.09091499447822571,-0.5806517004966736,0.18440655707304565,-0.53947390075233,-0.010043119554625078,0.005536945330881856,-0.2325464451140868,0.0,0.0,-0.6,0.0,0.0012133121490478516,0.0027267932891845703,0.0057735443115234375,0
2.2809462547302246,-0.05728290602564812,-0.09043530374765396,-0.5805580615997314,0.18354140700436333,-0.539571284127021,-0.013543234827545872,0.0051504366003626584,-0.23161053920649793,0.0,0.0,-0.6,0.0,0.0017421245574951172,0.003175497055053711,0.00634002685546875,0
2.2903478145599365,-0.05728290602564812,-0.09043530374765396,-0.5805580615997314,0.18354140700436333,-0.539647231094784,-0.0159553506918219,0.00490341924234989,-0.23095540507118545,0.0,0.0,-0.6,0.0,0.0015211105346679688,0.0025756359100341797,0.005545854568481445,0
2.3000805377960205,-0.057138584554195404,-0.08942251652479172,-0.5803166627883911,0.18192723558305599,-0.5398045938419378,-0.01755489039261437,0.00796668847614915,-0.22989149689347688,0.0,0.0,-0.6,0.0,0.0021610260009765625,0.0032465457916259766,0.006493806838989258,0
2.31210994720459,-0.057002417743206024,-0.08881331235170364,-0.5801164507865906,0.18087616671821558,-0.5399383366054326,-0.01685891642117041,0.007361159144330038,-0.2287526103447658,0.0,0.0,-0.6,0.0,0.0012357234954833984,0.002745389938354492,0.0055370330810546875,0
2.3201167583465576,-0.057002417743206024,-0.08881331235170364,-0.5801164507865906,0.18087616671821558,-0.5400455387095596,-0.01640606677788227,0.006967564052826384,-0.22795538976066768,0.0,0.0,-0.6,0.0,0.0011315345764160156,0.002376079559326172,0.005210161209106445,0
2.3308043479919434,-0.05691033974289894,-0.08771317452192307,-0.5798004865646362,0.17942540329830206,-0.5402097630809586,-0.015341082912170905,0.008875398331954923,-0.22685329906933174,0.0,0.0,-0.6,0.0,0.0015692710876464844,0.0030477046966552734,0.006258726119995117,0
2.341174840927124,-0.05680637061595917,-0.08704632520675659,-0.579578161239624,0.17814495351442058,-0.5403143341981307,-0.017390243350935315,0.013735479053277226,-0.22560166691644118,0.0,0.0,-0.6,0.0,0.0016498565673828125,0.0027112960815429688,0.006132364273071289,0
2.3514208793640137,-0.05679774284362793,-0.08643494546413422,-0.5793833136558533,0.17740583876224592,-0.5403611036839518,-0.017724725996553434,0.01868231746814989,-0.2244483563773522,0.0,0.0,-0.6,0.0,0.0017397403717041016,0.0031175613403320312,0.006219625473022461,0
2.3618364334106445,-0.05679774284362793,-0.08643494546413422,-0.5793833136558533,0.17740583876224592,-0.5403957634598229,-0.017959021134272626,0.022072303103558597,-0.22364103899998955,0.0,0.0,-0.6,0.0,0.002794981002807617,0.005063056945800781,0.011831521987915039,0
2.3778390884399414,-0.056764520704746246,-0.0847221165895462,-0.5789102911949158,0.17519758783806347,-0.5404732475821962,-0.0157506036652232,0.027349647092776222,-0.22224782273926788,0.0,0.0,-0.6,0.0,0.002755403518676758,0.004749298095703125,0.010527849197387695,0
2.3914871215820312,-0.056764520704746246,-0.0847221165895462,-0.5789102911949158,0.17519758783806347,-0.5405334126202083,-0.014249691166203601,0.03096784434760303,-0.2212725713567623,0.0,0.0,-0.6,0.0,0.0025472640991210938,0.005246400833129883,0.01194620132446289,0
2.408092975616455,-0.0567166842520237,-0.08285143971443176,-0.5782774686813354,0.1730913339825326,-0.5406576982327848,-0.010611802113606551,0.033444868475424425,-0.2198000501931848,0.0,0.0,-0.6,0.0,0.0023865699768066406,0.004933357238769531,0.01127004623413086,0
2.423196792602539,-0.0567166842520237,-0.08285143971443176,-0.5782774686813354,0.1730913339825326,-0.5407572138390409,-0.008142835444968362,0.0351534351512434,-0.2187692853786801,0.0,0.0,-0.6,0.0,0.0021200180053710938,0.004418373107910156,0.008710145950317383,0
