time,x,y,z,yaw,throttle,roll_rate,pitch_rate,yaw_rate,x_ref,y_ref,z_ref,yaw_ref,pred_time,nr_time,metadata
2.6226043701171875e-06,-0.08729485422372818,-0.09200415015220642,-0.23865589499473572,-0.08884754605558422,-0.5484987099736182,0.06007005314767578,-0.025154002460356425,0.033317829770868564,0.0,0.0,-0.6,0.0,0.002112865447998047,0.0039713382720947266,Hardware
0.010596275329589844,-0.08729485422372818,-0.09200415015220642,-0.23865589499473572,-0.08884754605558422,-0.557595689269378,0.1015920087110154,-0.042377771493299306,0.056640310610469216,0.0,0.0,-0.6,0.0,0.001603841781616211,0.003097057342529297,Nonlinear
0.02008533477783203,-0.08728724718093872,-0.09200409799814224,-0.23865142464637756,-0.08882816109935208,-0.5647951001442403,0.12959270236067733,-0.053180459541536745,0.07295877783959748,0.0,0.0,-0.6,0.0,0.001991748809814453,0.003438234329223633,1x Speed
0.030972957611083984,-0.08728724718093872,-0.09200409799814224,-0.23865142464637756,-0.08882816109935208,-0.5705083963355003,0.14789938968828634,-0.059602463740188225,0.08438170489996384,0.0,0.0,-0.6,0.0,0.0019910335540771484,0.003699064254760742,0OrderHold
0.04159045219421387,-0.08726438134908676,-0.09200210869312286,-0.23864565789699554,-0.0888254159314942,-0.5750299752591778,0.15919647699675277,-0.06259960695296533,0.09237672440427702,0.0,0.0,-0.6,0.0,0.0015261173248291016,0.0033135414123535156,QuatYawError
0.05199265480041504,-0.08726438134908676,-0.09200210869312286,-0.23864565789699554,-0.0888254159314942,-0.5786208421823243,0.16606662657927723,-0.06379166582935643,0.09797323805729864,0.0,0.0,-0.6,0.0,0.004836082458496094,0.0074481964111328125,NoPyJoules
0.07034921646118164,-0.08725262433290482,-0.09200659394264221,-0.23866386711597443,-0.08878255307442076,-0.5814901388577841,0.1702605627125747,-0.06424920064932284,0.10187472404302646,0.0,0.0,-0.6,0.0,0.0027561187744140625,0.005443572998046875,0
0.08622193336486816,-0.08725262433290482,-0.09200659394264221,-0.23866386711597443,-0.08878255307442076,-0.5837653220748666,0.1724990053292064,-0.06397087884250799,0.10460576423303304,0.0,0.0,-0.6,0.0,0.004120588302612305,0.00641942024230957,0
0.1043996810913086,-0.08727259933948517,-0.092044398188591,-0.23873679339885712,-0.08850462281742304,-0.585498141673381,0.1743378753581672,-0.06194439541547032,0.10641326851965809,0.0,0.0,-0.6,0.0,0.003815889358520508,0.0069103240966796875,0
0.12009334564208984,-0.08714938163757324,-0.0921083316206932,-0.23880635201931,-0.08800146557111503,-0.5868389835322112,0.17582196706882736,-0.056872674269933914,0.10748983755292958,0.0,0.0,-0.6,0.0,0.001963376998901367,0.004702329635620117,0
0.13309168815612793,-0.08714938163757324,-0.0921083316206932,-0.23880635201931,-0.08800146557111503,-0.5878960677161242,0.1765259304317463,-0.053097434754651826,0.1082434358762194,0.0,0.0,-0.6,0.0,0.0031697750091552734,0.005588054656982422,0
0.15100836753845215,-0.08687852323055267,-0.09221243858337402,-0.23897123336791992,-0.08866181965990928,-0.5887292345082532,0.1780410026567875,-0.047995781166298455,0.10901858748581879,0.0,0.0,-0.6,0.0,0.0033609867095947266,0.004743099212646484,0
0.16730332374572754,-0.08687852323055267,-0.09221243858337402,-0.23897123336791992,-0.08866181965990928,-0.5893852328058613,0.1788854939521859,-0.04431519958989704,0.10956119361253953,0.0,0.0,-0.6,0.0,0.0026493072509765625,0.004385232925415039,0
0.18323159217834473,-0.08646969497203827,-0.09235087782144547,-0.23928838968276978,-0.08814389041649169,-0.5897057720514823,0.18058634151273362,-0.03414206409597378,0.10974679443496219,0.0,0.0,-0.6,0.0,0.004985809326171875,0.007419109344482422,0
0.20197772979736328,-0.0860113576054573,-0.09245878458023071,-0.23968945443630219,-0.08685413820695093,-0.5898051547696674,0.18109658670415882,-0.016988954087304088,0.10939305793207925,0.0,0.0,-0.6,0.0,0.003537416458129883,0.0053136348724365234,0
0.21566081047058105,-0.0860113576054573,-0.09245878458023071,-0.23968945443630219,-0.08685413820695093,-0.5898661970577243,0.18140819064214808,-0.005171594731718267,0.10914544238006188,0.0,0.0,-0.6,0.0,0.003025054931640625,0.005029439926147461,0
0.22903108596801758,-0.08489932864904404,-0.092513807117939,-0.2408648282289505,-0.0841193205446213,-0.5895611107827913,0.18179741848646394,0.016469419825162264,0.10794655487027334,0.0,0.0,-0.6,0.0,0.0019507408142089844,0.005085945129394531,0
0.24424338340759277,-0.08489932864904404,-0.092513807117939,-0.2408648282289505,-0.0841193205446213,-0.5892992643446882,0.18211647107355955,0.03128461307473599,0.1071073336134237,0.0,0.0,-0.6,0.0,0.0026493072509765625,0.0043828487396240234,0
0.259380578994751,-0.08365199714899063,-0.09267129749059677,-0.24275986850261688,-0.08052733128365304,-0.5886470505141258,0.17312242236695677,0.05401550409580473,0.10517288276076842,0.0,0.0,-0.6,0.0,0.0012750625610351562,0.0045588016510009766,0
0.2734560966491699,-0.08365199714899063,-0.09267129749059677,-0.24275986850261688,-0.08052733128365304,-0.5880931199147115,0.16708719176590467,0.06948350792338842,0.10381876716390913,0.0,0.0,-0.6,0.0,0.0029191970825195312,0.00406646728515625,0
0.29041361808776855,-0.08223798125982285,-0.09276793897151947,-0.24544110894203186,-0.0758929783129163,-0.5870986623191373,0.14943246922394957,0.09186251752272015,0.10113300388207336,0.0,0.0,-0.6,0.0,0.0018122196197509766,0.0053806304931640625,0
0.30269956588745117,-0.0812336653470993,-0.09275735914707184,-0.24775061011314392,-0.0721863856777716,-0.5858055000069832,0.12924768037086679,0.11467641885494258,0.09786299734661898,0.0,0.0,-0.6,0.0,0.0038728713989257812,0.005297183990478516,0
0.3190464973449707,-0.0812336653470993,-0.09275735914707184,-0.24775061011314392,-0.0721863856777716,-0.5847261766456261,0.11573510792120059,0.13001312081282013,0.09557399277179594,0.0,0.0,-0.6,0.0,0.0012426376342773438,0.002493143081665039,0
0.33168530464172363,-0.08014820516109467,-0.09270485490560532,-0.2505732774734497,-0.06807663965396758,-0.5832876319554078,0.09942613728260463,0.14654486393053912,0.0924305348104927,0.0,0.0,-0.6,0.0,0.003919363021850586,0.0057909488677978516,0
0.3474881649017334,-0.07907862216234207,-0.0926065742969513,-0.2538246512413025,-0.06371409981125335,-0.58165120255036,0.08207649711801498,0.16378026142325475,0.08859416179656873,0.0,0.0,-0.6,0.0,0.0015959739685058594,0.00345611572265625,0
0.36108875274658203,-0.07907862216234207,-0.0926065742969513,-0.2538246512413025,-0.06371409981125335,-0.5803219108975067,0.07061166415963811,0.1752530987410579,0.0859087006868208,0.0,0.0,-0.6,0.0,0.0027437210083007812,0.005221366882324219,0
0.3782622814178467,-0.07733815163373947,-0.09245435893535614,-0.2596427798271179,-0.05646262431329782,-0.578514456372985,0.05180871564167431,0.1974144682204805,0.08130957459826585,0.0,0.0,-0.6,0.0,0.003206491470336914,0.0061719417572021484,0
0.3919820785522461,-0.07733815163373947,-0.09245435893535614,-0.2596427798271179,-0.05646262431329782,-0.5770507150954166,0.03939372749363625,0.21223598633318255,0.078090186336276,0.0,0.0,-0.6,0.0,0.004547834396362305,0.0061495304107666016,0
0.4090156555175781,-0.07539509981870651,-0.092391736805439,-0.26615968346595764,-0.04830461739296901,-0.5752131868183702,0.021177435829469994,0.23639025024519758,0.07277736195774345,0.0,0.0,-0.6,0.0,0.0018279552459716797,0.0051937103271484375,0
0.4245927333831787,-0.07401841133832932,-0.09227673709392548,-0.2710393965244293,-0.042623511690518166,-0.5729920991290943,0.000563481944256497,0.26121264266070665,0.06692797025437057,0.0,0.0,-0.6,0.0,0.0023469924926757812,0.0038673877716064453,0
0.4404921531677246,-0.07401841133832932,-0.09227673709392548,-0.2710393965244293,-0.042623511690518166,-0.5712109100915284,-0.012967287555573102,0.277859953653369,0.06283339606200425,0.0,0.0,-0.6,0.0,0.0043218135833740234,0.006155490875244141,0
0.4579010009765625,-0.07151976972818375,-0.09215156733989716,-0.2794606387615204,-0.03409100834256627,-0.5692059009252555,-0.025300360683500958,0.2969052084188048,0.05676750537186613,0.0,0.0,-0.6,0.0,0.003054380416870117,0.00562286376953125,0
0.47055506706237793,-0.07151976972818375,-0.09215156733989716,-0.2794606387615204,-0.03409100834256627,-0.5676162599344531,-0.033261021038392506,0.30973703144534925,0.05252138188876552,0.0,0.0,-0.6,0.0,0.004126310348510742,0.005568027496337891,0
0.4891176223754883,-0.06913475692272186,-0.09217959642410278,-0.28828945755958557,-0.025204555526500954,-0.5659295450143934,-0.040236056664097006,0.31340180637117354,0.04621667564457456,0.0,0.0,-0.6,0.0,0.004196882247924805,0.007460832595825195,0
0.506659984588623,-0.06735938787460327,-0.09211502224206924,-0.2946142554283142,-0.0194097091071457,-0.5641235828763242,-0.04769982320091972,0.31811965378449447,0.0396303138663827,0.0,0.0,-0.6,0.0,0.0038449764251708984,0.006165504455566406,0
0.5223472118377686,-0.06735938787460327,-0.09211502224206924,-0.2946142554283142,-0.0194097091071457,-0.5626901828920251,-0.05243654889459068,0.3212751696776923,0.03501986062165214,0.0,0.0,-0.6,0.0,0.002017498016357422,0.004270076751708984,0
0.537818431854248,-0.06440771371126175,-0.09180279076099396,-0.30424368381500244,-0.010544937627644682,-0.5612023462925882,-0.055049156917122706,0.3247614118715314,0.028468254045518435,0.0,0.0,-0.6,0.0,0.003118753433227539,0.005845308303833008,0
0.554110050201416,-0.062403012067079544,-0.09161517769098282,-0.3107711970806122,-0.0044858500906921,-0.5596271011916265,-0.05165711328699343,0.3288203136138915,0.021609971615870374,0.0,0.0,-0.6,0.0,0.0017414093017578125,0.0026407241821289062,0
0.5678131580352783,-0.062403012067079544,-0.09161517769098282,-0.3107711970806122,-0.0044858500906921,-0.5583816272482246,-0.04910701500763767,0.33165867604064064,0.016809173915119435,0.0,0.0,-0.6,0.0,0.0028977394104003906,0.0050504207611083984,0
0.5830457210540771,-0.059451665729284286,-0.09118302911520004,-0.32064148783683777,0.004795023575414792,-0.5572640382506966,-0.037859752934146874,0.3290608712853226,0.009968287899803963,0.0,0.0,-0.6,0.0,0.0029022693634033203,0.00484013557434082,0
0.599437952041626,-0.059451665729284286,-0.09118302911520004,-0.32064148783683777,0.004795023575414792,-0.5563732682540107,-0.02998746514507467,0.32742191209518795,0.005179667689080784,0.0,0.0,-0.6,0.0,0.0037245750427246094,0.006012439727783203,0
0.6166861057281494,-0.05624781921505928,-0.09053820371627808,-0.33074837923049927,0.014392579385819346,-0.5553161975886324,-0.021770486141837186,0.329276805879924,-0.0017714498873247844,0.0,0.0,-0.6,0.0,0.003192901611328125,0.005493879318237305,0
0.6317107677459717,-0.05404554307460785,-0.09018617868423462,-0.3375706672668457,0.020736470217529914,-0.5545081306897116,-0.014852235181477259,0.32270726672598593,-0.009016191252700107,0.0,0.0,-0.6,0.0,0.0030198097229003906,0.005585193634033203,0
0.64609694480896,-0.05404554307460785,-0.09018617868423462,-0.3375706672668457,0.020736470217529914,-0.5538553291925035,-0.009951296957866566,0.31837828953638175,-0.014087510208463121,0.0,0.0,-0.6,0.0,0.002691030502319336,0.005028963088989258,0
0.6626965999603271,-0.05087568238377571,-0.08976342529058456,-0.3474285304546356,0.030365061175963194,-0.5531278421655864,-0.011204966890046155,0.3019310411269106,-0.021248155086909432,0.0,0.0,-0.6,0.0,0.0030961036682128906,0.005436897277832031,0
0.6771888732910156,-0.05087568238377571,-0.08976342529058456,-0.3474285304546356,0.030365061175963194,-0.5525125772535978,-0.011879103928573054,0.2908297257080675,-0.026260606501822135,0.0,0.0,-0.6,0.0,0.0026099681854248047,0.004518032073974609,0
0.6933588981628418,-0.047431472688913345,-0.0893375501036644,-0.35720255970954895,0.039929716917580856,-0.5517556127726052,-0.006006570454854934,0.2741363287111691,-0.033356068395370454,0.0,0.0,-0.6,0.0,0.0034186840057373047,0.005520820617675781,0
0.7093157768249512,-0.047431472688913345,-0.0893375501036644,-0.35720255970954895,0.039929716917580856,-0.5511201716713804,-0.001814594504625019,0.2629209046574121,-0.03832289172084932,0.0,0.0,-0.6,0.0,0.002290010452270508,0.0049228668212890625,0
0.7251863479614258,-0.043933987617492676,-0.0889129713177681,-0.3666951656341553,0.04919578168902619,-0.5508137609348829,0.005666498616760311,0.240777192759073,-0.04527444233797541,0.0,0.0,-0.6,0.0,0.002359628677368164,0.004380941390991211,0
0.7402129173278809,-0.0416288897395134,-0.08854532241821289,-0.3729611337184906,0.05532577975471549,-0.5504181966584388,0.009599729096926458,0.2225498399867546,-0.05243927704459393,0.0,0.0,-0.6,0.0,0.0024290084838867188,0.004835367202758789,0
0.7558836936950684,-0.0416288897395134,-0.08854532241821289,-0.3729611337184906,0.05532577975471549,-0.5500693957972578,0.012410909496375515,0.21019366109244766,-0.057454661339233395,0.0,0.0,-0.6,0.0,0.002959012985229492,0.00467371940612793,0
0.771385669708252,-0.038116779178380966,-0.08799926936626434,-0.3822985291481018,0.06396375451926725,-0.54961651551839,0.014420946284054235,0.19602663307594453,-0.0642046708821877,0.0,0.0,-0.6,0.0,0.0015382766723632812,0.004090070724487305,0
0.7865796089172363,-0.03701901063323021,-0.08779700845479965,-0.38537466526031494,0.06683414082900574,-0.5492334259707063,0.01350411402967023,0.18327743266541688,-0.07000607242840777,0.0,0.0,-0.6,0.0,0.002811431884765625,0.0057947635650634766,0
0.8024203777313232,-0.0348137803375721,-0.08741137385368347,-0.3914693593978882,0.07240755674786002,-0.5487195120144611,0.013669003929330101,0.167169055157451,-0.07615708448032679,0.0,0.0,-0.6,0.0,0.0033779144287109375,0.00610804557800293,0
0.8171432018280029,-0.0348137803375721,-0.08741137385368347,-0.3914693593978882,0.07240755674786002,-0.5482825029842011,0.013915356022288449,0.15628401962446603,-0.08046279291667569,0.0,0.0,-0.6,0.0,0.003657817840576172,0.005046367645263672,0
0.832040548324585,-0.03149829059839249,-0.08700144290924072,-0.4005250334739685,0.08050543261309044,-0.5479553620518939,0.021347338569981014,0.13487919120222755,-0.08651349227158635,0.0,0.0,-0.6,0.0,0.0014147758483886719,0.005170345306396484,0
0.8465993404388428,-0.02944071777164936,-0.08676541596651077,-0.40639728307724,0.08585762093630071,-0.547631251109073,0.028777044278368445,0.11672731079260938,-0.0927560524412278,0.0,0.0,-0.6,0.0,0.0033473968505859375,0.0050814151763916016,0
0.8635187149047852,-0.02944071777164936,-0.08676541596651077,-0.40639728307724,0.08585762093630071,-0.5473498614832307,0.03396462383132722,0.1044191270063325,-0.09712584455996785,0.0,0.0,-0.6,0.0,0.003598928451538086,0.006531238555908203,0
0.8788776397705078,-0.026478078216314316,-0.08636250346899033,-0.4150364398956299,0.09350117811498228,-0.547212332660021,0.03357945116744021,0.08921030929702821,-0.10305103298510021,0.0,0.0,-0.6,0.0,0.0017516613006591797,0.003258228302001953,0
0.8929052352905273,-0.026478078216314316,-0.08636250346899033,-0.4150364398956299,0.09350117811498228,-0.5470827343859809,0.033381593541234364,0.07883605223772755,-0.10719866488269875,0.0,0.0,-0.6,0.0,0.003696441650390625,0.005560636520385742,0
0.9104969501495361,-0.023883163928985596,-0.08603885769844055,-0.42345088720321655,0.10089630108039087,-0.5466337261647619,0.032882127976849654,0.061703905207741876,-0.11287517832303987,0.0,0.0,-0.6,0.0,0.0030307769775390625,0.005321979522705078,0
0.9276909828186035,-0.022177230566740036,-0.0856923758983612,-0.42899930477142334,0.10584838335840915,-0.5463585652058868,0.03712256853655738,0.0427184941049422,-0.11870576858553562,0.0,0.0,-0.6,0.0,0.0025823116302490234,0.00441431999206543,0
0.9411804676055908,-0.022177230566740036,-0.0856923758983612,-0.42899930477142334,0.10584838335840915,-0.5461208478360305,0.040126150841687594,0.02981113552637217,-0.12278718176928845,0.0,0.0,-0.6,0.0,0.0032181739807128906,0.00587010383605957,0
0.9587087631225586,-0.02001163177192211,-0.08537556976079941,-0.4371697008609772,0.11284069735576785,-0.5458141773566556,0.040986590631363236,0.007928960700007686,-0.1282662887469284,0.0,0.0,-0.6,0.0,0.0025403499603271484,0.0048351287841796875,0
0.9714009761810303,-0.02001163177192211,-0.08537556976079941,-0.4371697008609772,0.11284069735576785,-0.5455499662960628,0.04169471471972776,-0.006968684842000876,-0.13210166363125897,0.0,0.0,-0.6,0.0,0.003269195556640625,0.0064504146575927734,0
0.9877262115478516,-0.01810109242796898,-0.08512015640735626,-0.4450899362564087,0.11952623440340536,-0.5455049033681857,0.039533052187380006,-0.01881948513596225,-0.13729350244315308,0.0,0.0,-0.6,0.0,0.0016732215881347656,0.0029077529907226562,0
1.0023267269134521,-0.01810109242796898,-0.08512015640735626,-0.4450899362564087,0.11952623440340536,-0.5454604900979917,0.03809516325373469,-0.026922462062847777,-0.14092778961148053,0.0,0.0,-0.6,0.0,0.003302335739135742,0.005254268646240234,0
1.0179507732391357,-0.016612717881798744,-0.08500710129737854,-0.45266449451446533,0.1259688110256871,-0.5452308002439771,0.03636044350214684,-0.04207570231085485,-0.1458877568626641,0.0,0.0,-0.6,0.0,0.0034728050231933594,0.006891012191772461,0
1.034348964691162,-0.016612717881798744,-0.08500710129737854,-0.45266449451446533,0.1259688110256871,-0.5450394454057785,0.035258923902288415,-0.05240718183040242,-0.14935973393849405,0.0,0.0,-0.6,0.0,0.0023262500762939453,0.0035445690155029297,0
1.0490131378173828,-0.015568315982818604,-0.08481474220752716,-0.45966610312461853,0.13205934200376043,-0.545209323051083,0.04302511922961779,-0.07099510128067102,-0.1540740670083513,0.0,0.0,-0.6,0.0,0.0034720897674560547,0.005630970001220703,0
1.0630311965942383,-0.015568315982818604,-0.08481474220752716,-0.45966610312461853,0.13205934200376043,-0.5453442115527732,0.04835647408648054,-0.08370818327855292,-0.15737410015725278,0.0,0.0,-0.6,0.0,0.0031592845916748047,0.00495457649230957,0
1.0787405967712402,-0.014802245423197746,-0.08469631522893906,-0.46641987562179565,0.13796823454108953,-0.5455216581111665,0.043869046596637415,-0.10220015423024655,-0.161899958062981,0.0,0.0,-0.6,0.0,0.0030243396759033203,0.006582975387573242,0
1.0967023372650146,-0.014443296939134598,-0.08453787863254547,-0.4707118272781372,0.14181107306386573,-0.545814482010618,0.03882140604726398,-0.11422895940672095,-0.16650912304303173,0.0,0.0,-0.6,0.0,0.0028374195098876953,0.004072666168212891,0
1.1107001304626465,-0.014325127005577087,-0.08452409505844116,-0.4727499485015869,0.14361795009280073,-0.546125863320675,0.037096758531428936,-0.1233218672426588,-0.17041311741491857,0.0,0.0,-0.6,0.0,0.004111528396606445,0.006208181381225586,0
1.123671293258667,-0.014325127005577087,-0.08452409505844116,-0.4727499485015869,0.14361795009280073,-0.5463753370810479,0.035875372854625234,-0.129551769785687,-0.17314591347524055,0.0,0.0,-0.6,0.0,0.003945350646972656,0.006784677505493164,0
1.139674425125122,-0.014286900870501995,-0.0844273716211319,-0.4806360900402069,0.15034934699907876,-0.546311730510757,0.03650310913369727,-0.13000082105742655,-0.1775831445573185,0.0,0.0,-0.6,0.0,0.0031909942626953125,0.005377054214477539,0
1.1569008827209473,-0.014286900870501995,-0.0844273716211319,-0.4806360900402069,0.15034934699907876,-0.5462618323621303,0.03694853313135878,-0.13030598109187186,-0.18068920631477436,0.0,0.0,-0.6,0.0,0.0030641555786132812,0.005410194396972656,0
1.1690475940704346,-0.01454458013176918,-0.084297776222229,-0.48614203929901123,0.1548953710123385,-0.5465286542090773,0.03667644135052806,-0.1427788485142397,-0.1845682085499651,0.0,0.0,-0.6,0.0,0.002995729446411133,0.006348609924316406,0
1.1860146522521973,-0.01454458013176918,-0.084297776222229,-0.48614203929901123,0.1548953710123385,-0.5467483126022529,0.03647078451893381,-0.15129964821379568,-0.1872835101145998,0.0,0.0,-0.6,0.0,0.0014753341674804688,0.004277467727661133,0
1.200810432434082,-0.014998492784798145,-0.08421248942613602,-0.4896787703037262,0.1577313230553716,-0.5469576996764159,0.03257731710433668,-0.1561571402656529,-0.19024770322598122,0.0,0.0,-0.6,0.0,0.004437923431396484,0.0060122013092041016,0
1.2179651260375977,-0.015405631624162197,-0.08401772379875183,-0.49328213930130005,0.1602491614091422,-0.5471789905716644,0.03045663946298732,-0.152737064304364,-0.19326682778661214,0.0,0.0,-0.6,0.0,0.013218164443969727,0.014713764190673828,0
1.2427010536193848,-0.01646955870091915,-0.0838078185915947,-0.49834051728248596,0.16368162698352376,-0.5472936273878491,0.025126594298906228,-0.14936104344458923,-0.1966673895694465,0.0,0.0,-0.6,0.0,0.002500295639038086,0.004803180694580078,0
1.2570922374725342,-0.01646955870091915,-0.0838078185915947,-0.49834051728248596,0.16368162698352376,-0.5473765890757256,0.021448672765238968,-0.14703915882934646,-0.19904778281743157,0.0,0.0,-0.6,0.0,0.002438783645629883,0.004821062088012695,0
1.271019458770752,-0.017705364152789116,-0.08354528248310089,-0.5033470988273621,0.16674914859306755,-0.5472533899388947,0.018416502019238463,-0.14274792938447126,-0.2018643786945996,0.0,0.0,-0.6,0.0,0.002218008041381836,0.004029750823974609,0
1.2843406200408936,-0.017705364152789116,-0.08354528248310089,-0.5033470988273621,0.16674914859306755,-0.5471475036321655,0.0163586713154856,-0.13983910907414648,-0.20383599580861808,0.0,0.0,-0.6,0.0,0.0029408931732177734,0.005224943161010742,0
1.2986304759979248,-0.01916731894016266,-0.0832003653049469,-0.5081700682640076,0.16953026673228244,-0.5472786675824586,0.010328230338110169,-0.13366182378692262,-0.20625904709063614,0.0,0.0,-0.6,0.0,0.0027289390563964844,0.005151987075805664,0
1.3130242824554443,-0.01916731894016266,-0.0832003653049469,-0.5081700682640076,0.16953026673228244,-0.5473701135387178,0.006163322077933315,-0.12940649665406584,-0.20795518298804952,0.0,0.0,-0.6,0.0,0.00293731689453125,0.00536799430847168,0
1.3274240493774414,-0.020849257707595825,-0.08285883814096451,-0.51291424036026,0.17219253664672013,-0.547571615290893,0.0021919086629736606,-0.12051116722998569,-0.21014082933415254,0.0,0.0,-0.6,0.0,0.002564668655395508,0.004763126373291016,0
1.3401212692260742,-0.020849257707595825,-0.08285883814096451,-0.51291424036026,0.17219253664672013,-0.5477165936912054,-0.0005807159591008294,-0.11436763929841158,-0.2116707817764253,0.0,0.0,-0.6,0.0,0.002344846725463867,0.004456281661987305,0
1.354477882385254,-0.022048164159059525,-0.0825216993689537,-0.5159884095191956,0.17378536275785833,-0.5476432088403325,-0.013300289387310158,-0.10462805759284097,-0.2133390582776929,0.0,0.0,-0.6,0.0,0.002506256103515625,0.004644632339477539,0
1.3659470081329346,-0.022048164159059525,-0.0825216993689537,-0.5159884095191956,0.17378536275785833,-0.5475620691511635,-0.022003401615371232,-0.09798947672282733,-0.21450685182858073,0.0,0.0,-0.6,0.0,0.0024917125701904297,0.004831790924072266,0
1.379911184310913,-0.023934606462717056,-0.08203627914190292,-0.5204240083694458,0.17585246026248924,-0.5475081690335594,-0.025252053919800198,-0.08788572868100959,-0.2160994688784384,0.0,0.0,-0.6,0.0,0.002357006072998047,0.004462003707885742,0
1.393674373626709,-0.023934606462717056,-0.08203627914190292,-0.5204240083694458,0.17585246026248924,-0.5474493151074208,-0.027479858924489075,-0.0809845569169223,-0.21721430081333923,0.0,0.0,-0.6,0.0,0.002718210220336914,0.005014181137084961,0
1.4072611331939697,-0.02598191611468792,-0.08137000352144241,-0.524695634841919,0.1777641025037234,-0.5475591908195934,-0.03437699919414206,-0.0708854938869294,-0.21871154900823223,0.0,0.0,-0.6,0.0,0.0027115345001220703,0.004904985427856445,0
1.4207463264465332,-0.02598191611468792,-0.08137000352144241,-0.524695634841919,0.1777641025037234,-0.5476293376540671,-0.03912852650288746,-0.06393807418625874,-0.21975962274465777,0.0,0.0,-0.6,0.0,0.002441883087158203,0.004776716232299805,0
1.4346284866333008,-0.027332009747624397,-0.08088339120149612,-0.5274785161018372,0.17881135181965432,-0.5478089770472555,-0.044668296133339024,-0.058522142108884755,-0.2208859928536297,0.0,0.0,-0.6,0.0,0.002615690231323242,0.0050029754638671875,0
1.4485187530517578,-0.02881796844303608,-0.08039137721061707,-0.5301604866981506,0.18007904203772615,-0.5478621169785058,-0.05218805703931692,-0.05050136411510927,-0.22214983576168684,0.0,0.0,-0.6,0.0,0.002861499786376953,0.005190372467041016,0
1.4629950523376465,-0.02881796844303608,-0.08039137721061707,-0.5301604866981506,0.18007904203772615,-0.5478913381964375,-0.05734963265819289,-0.04499471770399433,-0.22303452579732722,0.0,0.0,-0.6,0.0,0.002642393112182617,0.004934787750244141,0
1.4757614135742188,-0.030980097129940987,-0.079511858522892,-0.5340014100074768,0.18143078793846737,-0.5479056289765296,-0.06181825847175961,-0.035727257024841814,-0.22416071353505318,0.0,0.0,-0.6,0.0,0.0019576549530029297,0.004172801971435547,0
1.4879474639892578,-0.030980097129940987,-0.079511858522892,-0.5340014100074768,0.18143078793846737,-0.5479040637908427,-0.06488627206666947,-0.029377284398510724,-0.2249490449514617,0.0,0.0,-0.6,0.0,0.0017294883728027344,0.00284576416015625,0
1.498769760131836,-0.03241799399256706,-0.07894875854253769,-0.5363925099372864,0.18237825647698788,-0.5480207838976776,-0.06439234737702065,-0.023169400204627676,-0.22585617764489274,0.0,0.0,-0.6,0.0,0.001271963119506836,0.002526521682739258,0
1.508051872253418,-0.03312459588050842,-0.07859344035387039,-0.5375619530677795,0.1828633368117689,-0.5481558034056734,-0.06735334283853323,-0.016755868056887314,-0.22667307565583744,0.0,0.0,-0.6,0.0,0.0019364356994628906,0.003258228302001953,0
1.51841139793396,-0.03381192311644554,-0.07819709926843643,-0.5387078523635864,0.18330955543122662,-0.5484781349667687,-0.07108243275196155,-0.01022380896675516,-0.22741223624579546,0.0,0.0,-0.6,0.0,0.0014216899871826172,0.002497434616088867,0
1.5281212329864502,-0.034500446170568466,-0.0778019055724144,-0.5397681593894958,0.18378422742691752,-0.5488410778746825,-0.07168156495842767,-0.006382201977687371,-0.2281076506571502,0.0,0.0,-0.6,0.0,0.0014863014221191406,0.002657175064086914,0
1.5386137962341309,-0.03518874943256378,-0.07744187116622925,-0.5408138632774353,0.184300173630164,-0.5492056335964856,-0.07419901293812993,-0.003093225360351686,-0.22878792057131594,0.0,0.0,-0.6,0.0,0.0014188289642333984,0.0024843215942382812,0
1.5493977069854736,-0.03590671718120575,-0.07708922028541565,-0.5418452024459839,0.1848100888924448,-0.5494157580052393,-0.07151656006929287,-0.0005093707678073462,-0.2294553277345873,0.0,0.0,-0.6,0.0,0.0023598670959472656,0.00467681884765625,0
1.5622191429138184,-0.03590671718120575,-0.07708922028541565,-0.5418452024459839,0.1848100888924448,-0.5495800067895624,-0.06969858157493976,0.0013279483957660337,-0.22992251274887743,0.0,0.0,-0.6,0.0,0.0025031566619873047,0.0046694278717041016,0
1.5768303871154785,-0.03799605369567871,-0.0758841410279274,-0.5447428822517395,0.18591115046379428,-0.5497188584021483,-0.0687815463647716,0.012320845734409605,-0.23066244034813632,0.0,0.0,-0.6,0.0,0.0023593902587890625,0.0047152042388916016,0
1.5908560752868652,-0.03799605369567871,-0.0758841410279274,-0.5447428822517395,0.18591115046379428,-0.5498168625860734,-0.06817009562500752,0.019896676311979705,-0.23118038966761775,0.0,0.0,-0.6,0.0,0.0024614334106445312,0.0048711299896240234,0
1.6048972606658936,-0.03991055488586426,-0.0745902806520462,-0.5472930073738098,0.18712195104907356,-0.5499422677952236,-0.0661195919026197,0.023049927144158155,-0.2319970044107342,0.0,0.0,-0.6,0.0,0.0023555755615234375,0.004643440246582031,0
1.618945598602295,-0.03991055488586426,-0.0745902806520462,-0.5472930073738098,0.18712195104907356,-0.5500386369697043,-0.06472359915371541,0.025251050886460565,-0.23256863473091596,0.0,0.0,-0.6,0.0,0.002462625503540039,0.0047991275787353516,0
1.6327283382415771,-0.04186280816793442,-0.07321362942457199,-0.5496229529380798,0.1881131627424533,-0.5502581587672056,-0.05627322160021897,0.03287299216275367,-0.23334048034006039,0.0,0.0,-0.6,0.0,0.002439260482788086,0.004626750946044922,0
1.6465954780578613,-0.04186280816793442,-0.07321362942457199,-0.5496229529380798,0.1881131627424533,-0.5504227126884009,-0.0504993156608223,0.0381696049465196,-0.2338807722664617,0.0,0.0,-0.6,0.0,0.0023641586303710938,0.004442691802978516,0
1.6616263389587402,-0.04310759902000427,-0.07221825420856476,-0.551112711429596,0.18859022064652042,-0.5507552130000428,-0.04319595263414301,0.04241773124952949,-0.2344378733289678,0.0,0.0,-0.6,0.0,0.0026886463165283203,0.004964351654052734,0
1.6756782531738281,-0.04430176690220833,-0.07123769819736481,-0.552631139755249,0.18896863612251902,-0.5508565451289905,-0.04242711215572961,0.04510779694755905,-0.23496974987622155,0.0,0.0,-0.6,0.0,0.0021767616271972656,0.004279136657714844,0
1.689676284790039,-0.04430176690220833,-0.07123769819736481,-0.552631139755249,0.18896863612251902,-0.5509348883963312,-0.04190351471684759,0.046980756361490274,-0.23534206345929934,0.0,0.0,-0.6,0.0,0.00240325927734375,0.004708766937255859,0
1.702995777130127,-0.04596986249089241,-0.06960486620664597,-0.5547724962234497,0.18931213864731722,-0.550963604705512,-0.032347274300220955,0.05559857782659184,-0.23573149641425312,0.0,0.0,-0.6,0.0,0.0027005672454833984,0.005168437957763672,0
1.7175796031951904,-0.04596986249089241,-0.06960486620664597,-0.5547724962234497,0.18931213864731722,-0.5509764548162026,-0.02581055420386872,0.061511701195025054,-0.23600409948272086,0.0,0.0,-0.6,0.0,0.0028951168060302734,0.00500035285949707,0
1.7310400009155273,-0.04750952869653702,-0.06793147325515747,-0.5569218397140503,0.18939721340058024,-0.5510595486003593,-0.0208217439760199,0.06095356162138237,-0.23622682466312195,0.0,0.0,-0.6,0.0,0.002740621566772461,0.0050241947174072266,0
1.744166374206543,-0.04750952869653702,-0.06793147325515747,-0.5569218397140503,0.18939721340058024,-0.5511250735106129,-0.01740799072761276,0.06059518196779257,-0.23638273228940282,0.0,0.0,-0.6,0.0,0.002810955047607422,0.005031108856201172,0
1.758599042892456,-0.04850977286696434,-0.06667857617139816,-0.5582945942878723,0.18939197441890912,-0.551214465038574,-0.018460254623213056,0.06155110351445682,-0.2364899030096728,0.0,0.0,-0.6,0.0,0.002134561538696289,0.0041043758392333984,0
1.7702279090881348,-0.04850977286696434,-0.06667857617139816,-0.5582945942878723,0.18939197441890912,-0.5512850460817434,-0.019181632432971704,0.06222980934451082,-0.2365649225138618,0.0,0.0,-0.6,0.0,0.0024254322052001953,0.0041196346282958984,0
1.7881076335906982,-0.050259169191122055,-0.06421082466840744,-0.5610838532447815,0.189114605900462,-0.5512604067797838,-0.02309399205436713,0.06442726892892701,-0.23651342297237654,0.0,0.0,-0.6,0.0,0.02132272720336914,0.023022174835205078,0
1.819481372833252,-0.050259169191122055,-0.06421082466840744,-0.5610838532447815,0.189114605900462,-0.5512397590088819,-0.025770808726498326,0.06592525697224419,-0.23647737329333685,0.0,0.0,-0.6,0.0,0.0023505687713623047,0.004164457321166992,0
1.8310630321502686,-0.051881883293390274,-0.06166963651776314,-0.5637024641036987,0.1884585689437877,-0.5512144832053796,-0.023246010854693112,0.06169372158619826,-0.23620612465925644,0.0,0.0,-0.6,0.0,0.002635478973388672,0.004258632659912109,0
1.8443448543548584,-0.051881883293390274,-0.06166963651776314,-0.5637024641036987,0.1884585689437877,-0.5511957902408965,-0.021519145615734387,0.05879108377618482,-0.2360162506154001,0.0,0.0,-0.6,0.0,0.0021026134490966797,0.0033864974975585938,0
1.8577613830566406,-0.05263911932706833,-0.06037437543272972,-0.5649622678756714,0.1881748118187815,-0.5513613113740513,-0.027720588424380112,0.05320756369773914,-0.23577692986282336,0.0,0.0,-0.6,0.0,0.0029015541076660156,0.004938364028930664,0
1.8685343265533447,-0.05263911932706833,-0.06037437543272972,-0.5649622678756714,0.1881748118187815,-0.551495677547558,-0.03196738225633617,0.049423527450964296,-0.23560940533601957,0.0,0.0,-0.6,0.0,0.002356290817260742,0.004303932189941406,0
1.882002592086792,-0.053568627685308456,-0.05850682780146599,-0.5667806267738342,0.18774713838334806,-0.5515028846328047,-0.03064374714750852,0.050105939904360956,-0.2353317606289695,0.0,0.0,-0.6,0.0,0.0028717517852783203,0.004140138626098633,0
1.8943252563476562,-0.053568627685308456,-0.05850682780146599,-0.5667806267738342,0.18774713838334806,-0.5515079848421329,-0.029737899419208756,0.050574716771336854,-0.23513740933403435,0.0,0.0,-0.6,0.0,0.00238800048828125,0.0037064552307128906,0
1.9079053401947021,-0.05419623479247093,-0.05731279402971268,-0.5679925084114075,0.18744813943714675,-0.551365152143944,-0.027840621118831656,0.052719789420788477,-0.2348892388227543,0.0,0.0,-0.6,0.0,0.0033419132232666016,0.005107402801513672,0
1.9218413829803467,-0.054728180170059204,-0.056057002395391464,-0.5691471099853516,0.1870173665237736,-0.5511983144736591,-0.027185251522964516,0.047504000597439006,-0.23455397962234345,0.0,0.0,-0.6,0.0,0.0022656917572021484,0.004319667816162109,0
1.9348413944244385,-0.054728180170059204,-0.056057002395391464,-0.5691471099853516,0.1870173665237736,-0.5510674218386887,-0.026739375348439225,0.04390096520665195,-0.23431929818205574,0.0,0.0,-0.6,0.0,0.0015804767608642578,0.003979206085205078,0
1.948146104812622,-0.05518685281276703,-0.0548565611243248,-0.570280134677887,0.18662066455475804,-0.55104113773143,-0.022422285949668264,0.0376503760543624,-0.23400625793547358,0.0,0.0,-0.6,0.0,0.002256155014038086,0.0047740936279296875,0
1.96217679977417,-0.05563172698020935,-0.0536285825073719,-0.571349024772644,0.18638763974574485,-0.5511068014409679,-0.020439730764794425,0.0349686235874546,-0.23369974545948613,0.0,0.0,-0.6,0.0,0.0014815330505371094,0.0037169456481933594,0
1.9737038612365723,-0.05563172698020935,-0.0536285825073719,-0.571349024772644,0.18638763974574485,-0.5511599465680163,-0.01908270048267739,0.033146340524418616,-0.23348518672629484,0.0,0.0,-0.6,0.0,0.0023987293243408203,0.00449061393737793,0
1.9856441020965576,-0.056164324283599854,-0.05179896578192711,-0.5728530883789062,0.18550921888159244,-0.5512622254341808,-0.0185636936489093,0.03520038204657783,-0.23300558778900402,0.0,0.0,-0.6,0.0,0.001359701156616211,0.003531217575073242,0
1.9957995414733887,-0.056164324283599854,-0.05179896578192711,-0.5728530883789062,0.18550921888159244,-0.5513424062388067,-0.018206259675599322,0.03662739099498577,-0.2326698685329003,0.0,0.0,-0.6,0.0,0.002315044403076172,0.004216194152832031,0
2.0086958408355713,-0.05648946389555931,-0.05059215798974037,-0.5738559365272522,0.18484836949189196,-0.5513100068763784,-0.018902667474182164,0.03549098045229534,-0.23218704653249017,0.0,0.0,-0.6,0.0,0.002240896224975586,0.005387783050537109,0
2.02294921875,-0.05648946389555931,-0.05059215798974037,-0.5738559365272522,0.18484836949189196,-0.5512848794379089,-0.019380514392347704,0.03470695090167155,-0.23184907113220293,0.0,0.0,-0.6,0.0,0.0014758110046386719,0.0036153793334960938,0
2.0347774028778076,-0.05675058811903,-0.04925496131181717,-0.5747897624969482,0.18423075072959597,-0.5513230168860533,-0.01534016172315237,0.037416852685499935,-0.231380881316141,0.0,0.0,-0.6,0.0,0.0018100738525390625,0.003331422805786133,0
2.045374870300293,-0.05684199929237366,-0.048646632581949234,-0.575233519077301,0.18388378464499072,-0.5513388068428214,-0.005741349242895155,0.03793772322537881,-0.23092303616317067,0.0,0.0,-0.6,0.0,0.0028705596923828125,0.004478931427001953,0
2.0594727993011475,-0.0570538267493248,-0.047412462532520294,-0.5762356519699097,0.1831317962860477,-0.5512978367928417,-0.0001651367218907301,0.036149033752645256,-0.23032054892148796,0.0,0.0,-0.6,0.0,0.0018932819366455078,0.003145933151245117,0
2.070286989212036,-0.0570538267493248,-0.047412462532520294,-0.5762356519699097,0.1831317962860477,-0.5512649416880984,0.0036482606853182643,0.03491514534674576,-0.22989880785230987,0.0,0.0,-0.6,0.0,0.0017170906066894531,0.0027153491973876953,0
2.080690860748291,-0.05725952237844467,-0.046110089868307114,-0.5771512985229492,0.18229620016218717,-0.5513986491484425,0.004243033024209661,0.035665146413574086,-0.2292902405574377,0.0,0.0,-0.6,0.0,0.0019457340240478516,0.0038285255432128906,0
2.0918469429016113,-0.05725952237844467,-0.046110089868307114,-0.5771512985229492,0.18229620016218717,-0.5515045677336207,0.004652747097498076,0.03620553159759751,-0.22886424345102702,0.0,0.0,-0.6,0.0,0.0011563301086425781,0.0023336410522460938,0
2.1030995845794678,-0.05744241178035736,-0.044821664690971375,-0.5780209302902222,0.18147544729350903,-0.5515354553440754,0.005115264790731105,0.03985595408386849,-0.2282582631507854,0.0,0.0,-0.6,0.0,0.0026082992553710938,0.004242897033691406,0
2.1135222911834717,-0.05744241178035736,-0.044821664690971375,-0.5780209302902222,0.18147544729350903,-0.5515581417781271,0.005433772536838646,0.042360783643207674,-0.22783407694061608,0.0,0.0,-0.6,0.0,0.001856088638305664,0.0035905838012695312,0
2.126373767852783,-0.0576217919588089,-0.043669965118169785,-0.5788819789886475,0.18050888080421612,-0.5515431920586614,0.0022119842671561437,0.043293603558365576,-0.22717468416001296,0.0,0.0,-0.6,0.0,0.002180814743041992,0.003774404525756836,0
2.1374151706695557,-0.0578802190721035,-0.042431920766830444,-0.5796012282371521,0.17949489107459876,-0.5516661161539854,0.004432030835350514,0.03799019176750912,-0.22633286306498443,0.0,0.0,-0.6,0.0,0.0020618438720703125,0.004199504852294922,0
2.1472723484039307,-0.0578802190721035,-0.042431920766830444,-0.5796012282371521,0.17949489107459876,-0.551765443129007,0.00595179091007038,0.03438128091460279,-0.22574358829846422,0.0,0.0,-0.6,0.0,0.0026702880859375,0.0039441585540771484,0
2.1612472534179688,-0.05808154493570328,-0.0412370003759861,-0.5802531838417053,0.17843373795886142,-0.5518044064952873,0.013273110101625189,0.03386562851163454,-0.2249331635434988,0.0,0.0,-0.6,0.0,0.0016465187072753906,0.003305196762084961,0
2.1719157695770264,-0.05815047770738602,-0.04072100296616554,-0.5805994868278503,0.1779749602081576,-0.5518966597920661,0.017369667445947666,0.030084369174816813,-0.22419382455850898,0.0,0.0,-0.6,0.0,0.0027251243591308594,0.004674673080444336,0
2.182847738265991,-0.05815047770738602,-0.04072100296616554,-0.5805994868278503,0.1779749602081576,-0.5519714345990224,0.02017238858480135,0.027511399838690158,-0.2236762872690159,0.0,0.0,-0.6,0.0,0.0013701915740966797,0.003587007522583008,0
2.1936275959014893,-0.058379482477903366,-0.03956526890397072,-0.5811747312545776,0.17688618732877076,-0.5521622569789055,0.01063444874539234,0.02444348496865304,-0.22290572133660091,0.0,0.0,-0.6,0.0,0.0030095577239990234,0.00413966178894043,0
2.2062172889709473,-0.05851755663752556,-0.03852099925279617,-0.5816415548324585,0.17583465877071622,-0.5522535608384448,0.007996858951932282,0.026589077590371622,-0.22197200197464015,0.0,0.0,-0.6,0.0,0.0026183128356933594,0.0035429000854492188,0
2.2171666622161865,-0.05851755663752556,-0.03852099925279617,-0.5816415548324585,0.17583465877071622,-0.552325046303107,0.006193760513086773,0.028076774784030534,-0.22131839842126733,0.0,0.0,-0.6,0.0,0.0013928413391113281,0.0032308101654052734,0
2.228342294692993,-0.05866935849189758,-0.03754507377743721,-0.5821802020072937,0.17481162216332546,-0.5522785046167208,0.00911792977776683,0.029197790346717618,-0.22047723720613502,0.0,0.0,-0.6,0.0,0.0026292800903320312,0.004431486129760742,0
2.2394416332244873,-0.05866935849189758,-0.03754507377743721,-0.5821802020072937,0.17481162216332546,-0.5522407368611214,0.011118455706911135,0.029955434119307383,-0.21988842435554215,0.0,0.0,-0.6,0.0,0.0015075206756591797,0.0025539398193359375,0
2.25154447555542,-0.05893549695611,-0.036548417061567307,-0.5825670957565308,0.17372018101620296,-0.5522840436653306,0.012611164323765172,0.024846521303048055,-0.21906696492995642,0.0,0.0,-0.6,0.0,0.0024726390838623047,0.004238605499267578,0
2.2615575790405273,-0.05893549695611,-0.036548417061567307,-0.5825670957565308,0.17372018101620296,-0.5523202892784684,0.013630160821673723,0.02135569832500794,-0.21849194333204616,0.0,0.0,-0.6,0.0,0.002151966094970703,0.0045545101165771484,0
2.274513006210327,-0.05917631462216377,-0.035178620368242264,-0.5831948518753052,0.17202216594925437,-0.5524067181029877,0.013742808781966346,0.009230600196928014,-0.21745267256340373,0.0,0.0,-0.6,0.0,0.003222942352294922,0.0042264461517333984,0
2.286249876022339,-0.05917631462216377,-0.035178620368242264,-0.5831948518753052,0.17202216594925437,-0.5524795050612373,0.013812235422588389,0.0009439889570588174,-0.2167251830253537,0.0,0.0,-0.6,0.0,0.0021257400512695312,0.0033648014068603516,0
2.2995455265045166,-0.059424784034490585,-0.03424974903464317,-0.5835444927215576,0.17106107564469653,-0.552663266660138,0.009948865579649361,-0.001366366695534129,-0.21585553148450964,0.0,0.0,-0.6,0.0,0.001417398452758789,0.00373077392578125,0
2.3094851970672607,-0.059424784034490585,-0.03424974903464317,-0.5835444927215576,0.17106107564469653,-0.5528103658935788,0.007302196592250346,-0.002911767831486749,-0.21524677540591855,0.0,0.0,-0.6,0.0,0.002050161361694336,0.00415349006652832,0
2.3214104175567627,-0.059780023992061615,-0.03290209546685219,-0.583966076374054,0.16947971318702942,-0.5528298059138186,0.005220656795726839,-0.005145016186219323,-0.21422763522928004,0.0,0.0,-0.6,0.0,0.002287149429321289,0.004038810729980469,0
2.332152843475342,-0.059780023992061615,-0.03290209546685219,-0.583966076374054,0.16947971318702942,-0.552846407348731,0.003794352489105805,-0.006669341736845118,-0.21351423710563278,0.0,0.0,-0.6,0.0,0.003126859664916992,0.005109071731567383,0
2.346116542816162,-0.06005490571260452,-0.03199924901127815,-0.584193766117096,0.1682458501221937,-0.552854917924989,-0.00014104182961780952,-0.011339292052928048,-0.21255215976976655,0.0,0.0,-0.6,0.0,0.0022301673889160156,0.00393366813659668,0
2.35835599899292,-0.06005490571260452,-0.03199924901127815,-0.584193766117096,0.1682458501221937,-0.5528639726670075,-0.0028373879376322113,-0.014532907168214476,-0.21187870563465988,0.0,0.0,-0.6,0.0,0.0018012523651123047,0.0037801265716552734,0
2.370373487472534,-0.06025401130318642,-0.03095976635813713,-0.5843093991279602,0.16717147833686896,-0.5530293287825526,-0.0021413505088647374,-0.020013674687633355,-0.21100439832058865,0.0,0.0,-0.6,0.0,0.0021653175354003906,0.003900289535522461,0
2.383058547973633,-0.060511514544487,-0.030117996037006378,-0.5843281745910645,0.16616098401820348,-0.553278198355482,-0.000810739888210336,-0.03038711417643019,-0.21001344783123935,0.0,0.0,-0.6,0.0,0.0026993751525878906,0.0038661956787109375,0
2.3949496746063232,-0.060511514544487,-0.030117996037006378,-0.5843281745910645,0.16616098401820348,-0.5534817304480771,9.488921931200803e-05,-0.037448593746775054,-0.20931978248869454,0.0,0.0,-0.6,0.0,0.0018053054809570312,0.0028879642486572266,0
2.4057421684265137,-0.06082724407315254,-0.029155811294913292,-0.5843503475189209,0.16495205995756523,-0.55373460752541,-0.002604643231917479,-0.04279181440034554,-0.20838087022617408,0.0,0.0,-0.6,0.0,0.0020227432250976562,0.0036656856536865234,0
2.417692184448242,-0.06082724407315254,-0.029155811294913292,-0.5843503475189209,0.16495205995756523,-0.5539395452589869,-0.004456507612378938,-0.046400477928563194,-0.20772363164240948,0.0,0.0,-0.6,0.0,0.0014753341674804688,0.0036542415618896484,0
2.431161880493164,-0.06101347506046295,-0.028175577521324158,-0.5844221115112305,0.16373078341709862,-0.5541103235963676,-0.0037457558254085925,-0.04342415815830756,-0.20680558593109954,0.0,0.0,-0.6,0.0,0.002616405487060547,0.003983259201049805,0
2.442171812057495,-0.061274539679288864,-0.027300052344799042,-0.5843970775604248,0.16259601630415546,-0.5542736528514608,-0.00833677773878861,-0.04806164656973384,-0.20573741626582903,0.0,0.0,-0.6,0.0,0.002610445022583008,0.004553079605102539,0
2.4552714824676514,-0.061274539679288864,-0.027300052344799042,-0.5843970775604248,0.16259601630415546,-0.5544069911258827,-0.011484197184823698,-0.05120264137442384,-0.20498969750013937,0.0,0.0,-0.6,0.0,0.0013930797576904297,0.0035207271575927734,0
2.4679007530212402,-0.061612457036972046,-0.026388226076960564,-0.5843330025672913,0.16145470281533203,-0.554325465588886,-0.015075246575255573,-0.053042555083015905,-0.204038301805848,0.0,0.0,-0.6,0.0,0.0015568733215332031,0.0037903785705566406,0
2.4801511764526367,-0.061847422271966934,-0.025553898885846138,-0.5842839479446411,0.16022819107649378,-0.5541991924843624,-0.013022095090633089,-0.04901045628188435,-0.20291238291777988,0.0,0.0,-0.6,0.0,0.0026674270629882812,0.004742622375488281,0
2.4916906356811523,-0.061847422271966934,-0.025553898885846138,-0.5842839479446411,0.16022819107649378,-0.5540946603342644,-0.011615970647605127,-0.0462781297090553,-0.20212423969613186,0.0,0.0,-0.6,0.0,0.0018324851989746094,0.003932476043701172,0
2.5037038326263428,-0.06215621158480644,-0.024736491963267326,-0.5841971039772034,0.1588524227289656,-0.5542145402807482,-0.010284012545896375,-0.04605421447849668,-0.20105662631065546,0.0,0.0,-0.6,0.0,0.0019023418426513672,0.0029807090759277344,0
2.516589879989624,-0.06215621158480644,-0.024736491963267326,-0.5841971039772034,0.1588524227289656,-0.5543095467299995,-0.009372484275655773,-0.04587566713176517,-0.20030929694082167,0.0,0.0,-0.6,0.0,0.0020723342895507812,0.004134178161621094,0
2.5288820266723633,-0.06260498613119125,-0.023459337651729584,-0.5840131640434265,0.15699477837397466,-0.5544538239381872,-0.011312334916476206,-0.04465628501750899,-0.19908954974881687,0.0,0.0,-0.6,0.0,0.0022563934326171875,0.005122661590576172,0
2.542797088623047,-0.06260498613119125,-0.023459337651729584,-0.5840131640434265,0.15699477837397466,-0.5545674104927116,-0.012640917398896402,-0.043785938371315794,-0.19823572671441317,0.0,0.0,-0.6,0.0,0.002427816390991211,0.0034942626953125,0
2.557544469833374,-0.06286689639091492,-0.022635294124484062,-0.5839423537254333,0.155720753356099,-0.5547521604878937,-0.013665785716255832,-0.0437826234373322,-0.1971602912086274,0.0,0.0,-0.6,0.0,0.0024595260620117188,0.004458904266357422,0
2.570094108581543,-0.06286689639091492,-0.022635294124484062,-0.5839423537254333,0.155720753356099,-0.5548991007619071,-0.014367465212539962,-0.04373446551049311,-0.19640748635457705,0.0,0.0,-0.6,0.0,0.0014033317565917969,0.0033299922943115234,0
2.580728054046631,-0.0633649006485939,-0.02137667126953602,-0.5836338400840759,0.1536878822908282,-0.5549569970784615,-0.017438940833079706,-0.0372365976563683,-0.19511819630726582,0.0,0.0,-0.6,0.0,0.002641916275024414,0.004351615905761719,0
2.593187093734741,-0.0633649006485939,-0.02137667126953602,-0.5836338400840759,0.1536878822908282,-0.5549961945695994,-0.01953692846627082,-0.032766901171149436,-0.19421569327414756,0.0,0.0,-0.6,0.0,0.0014178752899169922,0.003086566925048828,0
2.6053407192230225,-0.06365412473678589,-0.02058454230427742,-0.5834833979606628,0.1522255297850055,-0.5549358446047445,-0.01946823967901946,-0.025238598511905234,-0.19303555896128152,0.0,0.0,-0.6,0.0,0.0024650096893310547,0.004555463790893555,0
2.6179330348968506,-0.06405873596668243,-0.019825851544737816,-0.583195686340332,0.15072582523397865,-0.5550353865287232,-0.02162424555254751,-0.019200443509679966,-0.19164707573564044,0.0,0.0,-0.6,0.0,0.0022296905517578125,0.004844188690185547,0
2.630154609680176,-0.06405873596668243,-0.019825851544737816,-0.583195686340332,0.15072582523397865,-0.5551086981785759,-0.023094989761096738,-0.015035271318314695,-0.19067513747769127,0.0,0.0,-0.6,0.0,0.002889871597290039,0.004570484161376953,0
2.643690347671509,-0.06447149813175201,-0.019085464999079704,-0.582857072353363,0.14927246733935415,-0.5552025251514462,-0.019465775921557887,-0.01018384586971273,-0.1894497714866429,0.0,0.0,-0.6,0.0,0.0013937950134277344,0.0026619434356689453,0
2.6567606925964355,-0.06464909762144089,-0.018740473315119743,-0.5827447772026062,0.14845878800236204,-0.5553113848320496,-0.02013738900512055,-0.007316410292618929,-0.18828688554153697,0.0,0.0,-0.6,0.0,0.0023772716522216797,0.0035581588745117188,0
2.6664271354675293,-0.06498844921588898,-0.017954671755433083,-0.5824683308601379,0.14688328902845746,-0.5555244461926186,-0.019345336174404974,-0.0067308567650368675,-0.18688205326474883,0.0,0.0,-0.6,0.0,0.002911806106567383,0.004703521728515625,0
2.678417205810547,-0.06498844921588898,-0.017954671755433083,-0.5824683308601379,0.14688328902845746,-0.5556931606221467,-0.018800624097391094,-0.006274405385182864,-0.1858986706709967,0.0,0.0,-0.6,0.0,0.0020132064819335938,0.0037631988525390625,0
2.689936399459839,-0.06535715609788895,-0.017212508246302605,-0.5820586085319519,0.1452441395252264,-0.5557551605397921,-0.01436725660874442,-0.001173643069764467,-0.1845956217916589,0.0,0.0,-0.6,0.0,0.0020780563354492188,0.0031321048736572266,0
2.700652837753296,-0.06535715609788895,-0.017212508246302605,-0.5820586085319519,0.1452441395252264,-0.5557989203723771,-0.011328010066805264,0.0023347550389955945,-0.18368348757612205,0.0,0.0,-0.6,0.0,0.0021448135375976562,0.0035028457641601562,0
2.7127163410186768,-0.06566333025693893,-0.016495799645781517,-0.5817079544067383,0.14368642829306663,-0.5557625136444675,-0.012750534264936745,0.008205800057888867,-0.18246085191318664,0.0,0.0,-0.6,0.0,0.001743316650390625,0.004000663757324219,0
2.725376605987549,-0.06584935635328293,-0.016124693676829338,-0.581524670124054,0.14284656510036872,-0.55576867580675,-0.01724073856107619,0.01045909770190222,-0.18129005825187008,0.0,0.0,-0.6,0.0,0.0025942325592041016,0.004579067230224609,0
2.737367630004883,-0.06618877500295639,-0.015348020941019058,-0.5810878872871399,0.1412044690038117,-0.5559081376026754,-0.020656722342877156,0.013383524529140782,-0.1798547166527399,0.0,0.0,-0.6,0.0,0.002251863479614258,0.004233837127685547,0
2.7514584064483643,-0.06618877500295639,-0.015348020941019058,-0.5810878872871399,0.1412044690038117,-0.5560170138441115,-0.02299204616856473,0.015424938689735773,-0.1788499775333483,0.0,0.0,-0.6,0.0,0.0018336772918701172,0.004099845886230469,0
2.76364803314209,-0.06648889929056168,-0.01471191830933094,-0.5806363821029663,0.13961194639904811,-0.556115821774582,-0.018271415286652815,0.016361321254377413,-0.17754946417298817,0.0,0.0,-0.6,0.0,0.0019505023956298828,0.0041353702545166016,0
2.7754909992218018,-0.06666168570518494,-0.01434625405818224,-0.5804456472396851,0.13882380567175145,-0.5561764528313206,-0.014194844371194169,0.01625853356211052,-0.17634355204799973,0.0,0.0,-0.6,0.0,0.0027916431427001953,0.004527091979980469,0
2.788782835006714,-0.06699443608522415,-0.013562391512095928,-0.5800418853759766,0.13728192313958396,-0.5563534435962327,-0.010857636096267895,0.01579053110860067,-0.1749212076109452,0.0,0.0,-0.6,0.0,0.0013108253479003906,0.002307891845703125,0
2.799177408218384,-0.06699443608522415,-0.013562391512095928,-0.5800418853759766,0.13728192313958396,-0.556493909992846,-0.008571445995441454,0.015509099670939809,-0.17392556650500662,0.0,0.0,-0.6,0.0,0.00154876708984375,0.0038535594940185547,0
2.8120968341827393,-0.06726092100143433,-0.012912607751786709,-0.5795997977256775,0.13577550454711684,-0.5564477686185721,-0.012340867573415066,0.01314430613208074,-0.17266371075867473,0.0,0.0,-0.6,0.0,0.002144336700439453,0.003939628601074219,0
2.824411630630493,-0.06754070520401001,-0.012278790585696697,-0.5792456269264221,0.13421756926121445,-0.5562826857559946,-0.016607241776477093,0.01082328721688225,-0.1711961860040292,0.0,0.0,-0.6,0.0,0.002455472946166992,0.004365444183349609,0
2.8355934619903564,-0.06754070520401001,-0.012278790585696697,-0.5792456269264221,0.13421756926121445,-0.5561533929583803,-0.019532946586546952,0.009198687229087336,-0.17016891867577688,0.0,0.0,-0.6,0.0,0.0028035640716552734,0.003990650177001953,0
2.849357843399048,-0.0678538978099823,-0.01162061095237732,-0.5788520574569702,0.13269170839606387,-0.5561571915537625,-0.017911219662273384,0.012250413962185373,-0.16887763372156905,0.0,0.0,-0.6,0.0,0.0022742748260498047,0.004503488540649414,0
2.860410213470459,-0.0678538978099823,-0.01162061095237732,-0.5788520574569702,0.13269170839606387,-0.5561576317083067,-0.016798868652747986,0.014340825965402707,-0.1679737342536232,0.0,0.0,-0.6,0.0,0.001497030258178711,0.0026731491088867188,0
2.871704339981079,-0.06811148673295975,-0.011056882329285145,-0.5784594416618347,0.13131880813724095,-0.5561707305530188,-0.01037282716781736,0.013281631865469759,-0.16682616702900274,0.0,0.0,-0.6,0.0,0.003013134002685547,0.004548072814941406,0
2.8845908641815186,-0.0683908462524414,-0.010460387915372849,-0.5781542062759399,0.1299269081000918,-0.5562257052639412,-0.007783678390678065,0.007589952398505588,-0.1655009074578377,0.0,0.0,-0.6,0.0,0.001965761184692383,0.0038182735443115234,0
2.8959286212921143,-0.0683908462524414,-0.010460387915372849,-0.5781542062759399,0.1299269081000918,-0.5562723297547693,-0.006015103530336506,0.0037009847468243338,-0.16457322575802175,0.0,0.0,-0.6,0.0,0.0023047924041748047,0.003941535949707031,0
2.90706729888916,-0.06861204653978348,-0.009863178245723248,-0.5777684450149536,0.1284247408410041,-0.5563481148972332,-0.004476668388291994,-0.0007068377696535263,-0.16336053584599297,0.0,0.0,-0.6,0.0,0.0017638206481933594,0.00304412841796875,0
2.918827533721924,-0.06861204653978348,-0.009863178245723248,-0.5777684450149536,0.1284247408410041,-0.5564111200360458,-0.003426177019257552,-0.0037106944536473346,-0.16251165290757247,0.0,0.0,-0.6,0.0,0.0011990070343017578,0.003283977508544922,0
2.9301953315734863,-0.06878118216991425,-0.009288662113249302,-0.5773485898971558,0.12721109804390193,-0.5564255281658367,-0.00286258182484254,-0.005053540860689319,-0.161462318801765,0.0,0.0,-0.6,0.0,0.00208282470703125,0.0036382675170898438,0
2.941364049911499,-0.06878118216991425,-0.009288662113249302,-0.5773485898971558,0.12721109804390193,-0.5564379372900873,-0.002477862833898308,-0.005970501123903831,-0.16072778492769946,0.0,0.0,-0.6,0.0,0.0026526451110839844,0.004637956619262695,0
2.9549224376678467,-0.06911563128232956,-0.008506870828568935,-0.5766949653625488,0.12536371903304752,-0.5563390023103805,-0.006960064511992435,-0.003996679133820123,-0.15952084408678366,0.0,0.0,-0.6,0.0,0.002745389938354492,0.004515409469604492,0
2.965928792953491,-0.06911563128232956,-0.008506870828568935,-0.5766949653625488,0.12536371903304752,-0.5562589318880646,-0.01002851632913563,-0.0026641746699140826,-0.1586759854981422,0.0,0.0,-0.6,0.0,0.001468658447265625,0.003262758255004883,0
2.978208541870117,-0.06926651298999786,-0.007980878464877605,-0.5762233138084412,0.12396979410259208,-0.5562715510776909,-0.00509138096093927,0.00044538771037395085,-0.1575618626371727,0.0,0.0,-0.6,0.0,0.002281665802001953,0.003908872604370117,0
2.9884443283081055,-0.06926651298999786,-0.007980878464877605,-0.5762233138084412,0.12396979410259208,-0.5562783277422311,-0.0017092163351109507,0.0025754254741568007,-0.1567819766344937,0.0,0.0,-0.6,0.0,0.0019049644470214844,0.0036840438842773438,0
3.0000321865081787,-0.06943081319332123,-0.007526441942900419,-0.5757710933685303,0.12273678653824109,-0.5564741776117584,0.002504899558571759,0.0030252305025700458,-0.155773678595987,0.0,0.0,-0.6,0.0,0.002875089645385742,0.004779338836669922,0
3.011535406112671,-0.06958609074354172,-0.0070634037256240845,-0.5752577781677246,0.12152047518299076,-0.5566893858893359,0.0023121697243117926,-0.0028808157398315234,-0.1546117532108136,0.0,0.0,-0.6,0.0,0.002620220184326172,0.005095958709716797,0
3.023209810256958,-0.06958609074354172,-0.0070634037256240845,-0.5752577781677246,0.12152047518299076,-0.5568641137080054,0.0021770486095916627,-0.006880844892123723,-0.15379840544119186,0.0,0.0,-0.6,0.0,0.002764463424682617,0.005227088928222656,0
3.037067174911499,-0.0697089433670044,-0.006556079722940922,-0.5747436881065369,0.12030882636410284,-0.5570338598379193,0.003003161418173375,-0.011647989047728726,-0.1527746936953739,0.0,0.0,-0.6,0.0,0.002126455307006836,0.0037670135498046875,0
3.0502257347106934,-0.0697089433670044,-0.006556079722940922,-0.5747436881065369,0.12030882636410284,-0.557172237346892,0.003567545297039144,-0.014875337079186613,-0.152058095473301,0.0,0.0,-0.6,0.0,0.0019812583923339844,0.003909111022949219,0
3.059911012649536,-0.06988586485385895,-0.0060694520361721516,-0.5738297700881958,0.11834685604698558,-0.557221330863361,0.004872170151064378,-0.008349219449451287,-0.15082073784893155,0.0,0.0,-0.6,0.0,0.0023860931396484375,0.0046613216400146484,0
3.071645498275757,-0.06988586485385895,-0.0060694520361721516,-0.5738297700881958,0.11834685604698558,-0.5572541899321071,0.0057706943663332995,-0.0038658742977102055,-0.14995458751187254,0.0,0.0,-0.6,0.0,0.002830982208251953,0.004879474639892578,0
3.084878444671631,-0.07005331665277481,-0.0056380098685622215,-0.5731978416442871,0.11690109966854823,-0.5573211827125694,0.004510010610405496,0.002603308037525027,-0.14880612363401752,0.0,0.0,-0.6,0.0,0.0025594234466552734,0.004364728927612305,0
3.0973429679870605,-0.07005331665277481,-0.0056380098685622215,-0.5731978416442871,0.11690109966854823,-0.5573690216885824,0.003651254732952273,0.007052442914106213,-0.14800219891951866,0.0,0.0,-0.6,0.0,0.00228118896484375,0.004678010940551758,0
3.108535051345825,-0.07026031613349915,-0.005141520407050848,-0.5721287727355957,0.11467823046362403,-0.5575505754140958,0.005613920861345495,0.005480424696191565,-0.14660587566752348,0.0,0.0,-0.6,0.0,0.0022039413452148438,0.004023313522338867,0
3.1208581924438477,-0.07026031613349915,-0.005141520407050848,-0.5721287727355957,0.11467823046362403,-0.5576958110531659,0.006957058122070351,0.004442515677498203,-0.14562844939112643,0.0,0.0,-0.6,0.0,0.0020058155059814453,0.004391908645629883,0
3.134483814239502,-0.07044913619756699,-0.0048477244563400745,-0.5714542865753174,0.11321856012639621,-0.5577966364745356,0.005645612750097342,0.0033168680112332055,-0.1443968746211883,0.0,0.0,-0.6,0.0,0.0023775100708007812,0.004109621047973633,0
3.146592617034912,-0.07044913619756699,-0.0048477244563400745,-0.5714542865753174,0.11321856012639621,-0.5578775093892414,0.0047459182336452525,0.0025699599564369484,-0.14353477228223124,0.0,0.0,-0.6,0.0,0.0013396739959716797,0.003757953643798828,0
3.1600141525268555,-0.07051046937704086,-0.004484761040657759,-0.5707454085350037,0.11167889966365185,-0.5581046970334006,0.007252398300882303,0.004922178264969757,-0.1423539279714325,0.0,0.0,-0.6,0.0,0.002357959747314453,0.004212141036987305,0
3.173522472381592,-0.07061561197042465,-0.004263557493686676,-0.5700845718383789,0.11005441447948172,-0.5581327993325065,0.002325006962889904,0.006702119956208671,-0.14091815500980984,0.0,0.0,-0.6,0.0,0.0017185211181640625,0.0036363601684570312,0
3.184553623199463,-0.07061561197042465,-0.004263557493686676,-0.5700845718383789,0.11005441447948172,-0.5581532093547568,-0.0010487728268743983,0.007932753658854819,-0.13991311393667352,0.0,0.0,-0.6,0.0,0.001956939697265625,0.003994464874267578,0
3.196951389312744,-0.07084295153617859,-0.0038953216280788183,-0.5690113306045532,0.10744083053440533,-0.5581041813404191,-0.009540076519089636,0.014481886046550395,-0.13822949120607514,0.0,0.0,-0.6,0.0,0.0015201568603515625,0.003675222396850586,0
3.207963228225708,-0.07084295153617859,-0.0038953216280788183,-0.5690113306045532,0.10744083053440533,-0.5580591237999806,-0.015347661824285614,0.01896588347171969,-0.13705095529465577,0.0,0.0,-0.6,0.0,0.0022771358489990234,0.0038557052612304688,0
3.218248128890991,-0.0709422379732132,-0.003676526714116335,-0.568348228931427,0.10578642963736268,-0.5580549393506915,-0.014359220275113948,0.02043698913431301,-0.1356055798202715,0.0,0.0,-0.6,0.0,0.002891063690185547,0.005707979202270508,0
3.2312886714935303,-0.0709422379732132,-0.003676526714116335,-0.568348228931427,0.10578642963736268,-0.5580505655823013,-0.013681624829183918,0.021443176865470145,-0.13459381698820205,0.0,0.0,-0.6,0.0,0.00222015380859375,0.003268718719482422,0
3.2465555667877197,-0.0711093544960022,-0.003542715683579445,-0.5676531195640564,0.10413444229704776,-0.5581315850908865,-0.012801553854521476,0.019133535912533563,-0.13326608775313567,0.0,0.0,-0.6,0.0,0.004090309143066406,0.007308483123779297,0
3.2663285732269287,-0.0711093544960022,-0.003542715683579445,-0.5676531195640564,0.10413444229704776,-0.5581972541467944,-0.012201838579218435,0.017567817745048356,-0.1323366772885888,0.0,0.0,-0.6,0.0,0.003996372222900391,0.0073244571685791016,0
