time,x,y,z,yaw,throttle,roll_rate,pitch_rate,yaw_rate,x_ref,y_ref,z_ref,yaw_ref,pred_time,nr_time,ctrl_callback_time,metadata
5.9604644775390625e-06,-0.12689025700092316,-0.03410791978240013,-0.2409442663192749,-0.07336381255817649,-0.5323930683140722,0.014140249233533082,-0.06355762363589018,0.0275114297093364,0.0,0.0,-0.6,0.0,0.007921934127807617,0.009139776229858398,0.012364864349365234,Hardware
0.01493072509765625,-0.12689025700092316,-0.03410791978240013,-0.2409442663192749,-0.07336381255817649,-0.5412499634288631,0.022118508540067975,-0.10725903312055365,0.046769430505865815,0.0,0.0,-0.6,0.0,0.0009467601776123047,0.0017561912536621094,0.003999233245849609,Nonlinear
0.020325899124145508,-0.12689025700092316,-0.03410791978240013,-0.2409442663192749,-0.07336381255817649,-0.5482882748103662,0.026325355239254538,-0.13619169583756552,0.06025003106343216,0.0,0.0,-0.6,0.0,0.0014698505401611328,0.0025055408477783203,0.0047779083251953125,2x Speed
0.029558897018432617,-0.12684431672096252,-0.03417196497321129,-0.24092720448970795,-0.07332317215372532,-0.5538773198029423,0.028667206548887565,-0.15424365997425887,0.06967121130205642,0.0,0.0,-0.6,0.0,0.0011925697326660156,0.0021219253540039062,0.004613399505615234,0OrderHold
0.03997445106506348,-0.12679387629032135,-0.03424247354269028,-0.24091453850269318,-0.07332798663815623,-0.5582744633162127,0.029985580499340005,-0.16584926956446128,0.07626784290074148,0.0,0.0,-0.6,0.0,0.001522064208984375,0.002445220947265625,0.0048868656158447266,QuatYawError
0.04949665069580078,-0.12679387629032135,-0.03424247354269028,-0.24091453850269318,-0.07332798663815623,-0.5617789237089189,0.03035907353186422,-0.17254967693762427,0.08088548501982701,0.0,0.0,-0.6,0.0,0.0011289119720458984,0.0020241737365722656,0.004572629928588867,NoPyJoules
0.06000852584838867,-0.12676312029361725,-0.034310996532440186,-0.24092070758342743,-0.0733542041154962,-0.5645579235987624,0.030153544343728758,-0.17576352562018543,0.08412766605719237,0.0,0.0,-0.6,0.0,0.0015192031860351562,0.0025568008422851562,0.00571751594543457,0
0.07007622718811035,-0.12676312029361725,-0.034310996532440186,-0.24092070758342743,-0.0733542041154962,-0.56676706748489,0.029692519269041654,-0.17707769612559257,0.08639719278335133,0.0,0.0,-0.6,0.0,0.001560211181640625,0.0027294158935546875,0.00558018684387207,0
0.0797584056854248,-0.12675884366035461,-0.03436187654733658,-0.2409355640411377,-0.07327073255841207,-0.5685108390537373,0.029922209925720724,-0.17809193245055485,0.0879545596577543,0.0,0.0,-0.6,0.0,0.0016651153564453125,0.0030243396759033203,0.0059201717376708984,0
0.0898430347442627,-0.12675228714942932,-0.034403055906295776,-0.24096381664276123,-0.07308335748004799,-0.5699002876233069,0.0294741878915234,-0.1774635795068797,0.08897445081544852,0.0,0.0,-0.6,0.0,0.0014224052429199219,0.0025987625122070312,0.005311250686645508,0
0.09984636306762695,-0.12671905755996704,-0.03452436998486519,-0.2410624474287033,-0.07245471691011847,-0.5709472263493253,0.0312449201505238,-0.1760598172498078,0.08945263441210874,0.0,0.0,-0.6,0.0,0.001253366470336914,0.0026683807373046875,0.00549769401550293,0
0.1114358901977539,-0.12671905755996704,-0.03452436998486519,-0.2410624474287033,-0.07245471691011847,-0.5717755645518695,0.032347560093885154,-0.1747505290264451,0.08978736292977021,0.0,0.0,-0.6,0.0,0.0013742446899414062,0.002404928207397461,0.005321025848388672,0
0.11949539184570312,-0.12667439877986908,-0.03461148589849472,-0.24112966656684875,-0.07236726020968147,-0.5724285343014638,0.034047235768833554,-0.17129688281621575,0.0899888766294695,0.0,0.0,-0.6,0.0,0.0011348724365234375,0.0021736621856689453,0.004977703094482422,0
0.12992262840270996,-0.12662166357040405,-0.03469797596335411,-0.24118559062480927,-0.07243327806726445,-0.5729766793224051,0.03456640830055906,-0.16698981065679874,0.09015469291585265,0.0,0.0,-0.6,0.0,0.0014338493347167969,0.0027854442596435547,0.005890607833862305,0
0.13994193077087402,-0.12653939425945282,-0.03478313982486725,-0.24124662578105927,-0.07243762187219145,-0.5733718896615644,0.03559682821578757,-0.16323327647387154,0.09027239324316853,0.0,0.0,-0.6,0.0,0.0016062259674072266,0.003134012222290039,0.006398439407348633,0
0.15000367164611816,-0.12628893554210663,-0.03492754325270653,-0.2414206564426422,-0.07206612813689252,-0.5736613662804956,0.037879588187197395,-0.15615971176238014,0.09021547332155253,0.0,0.0,-0.6,0.0,0.001684427261352539,0.0030586719512939453,0.006098508834838867,0
0.16006779670715332,-0.12611569464206696,-0.035000499337911606,-0.24154417216777802,-0.07154135446142237,-0.5738029062579532,0.039897344193814,-0.14828191433639842,0.08997883924811999,0.0,0.0,-0.6,0.0,0.0012047290802001953,0.0022270679473876953,0.005231380462646484,0
0.16988348960876465,-0.12611569464206696,-0.035000499337911606,-0.24154417216777802,-0.07154135446142237,-0.5739018388846139,0.041260160123951055,-0.14282314211226052,0.08981319539671696,0.0,0.0,-0.6,0.0,0.0018265247344970703,0.0031502246856689453,0.006472110748291016,0
0.1802656650543213,-0.12591813504695892,-0.03507073596119881,-0.24173718690872192,-0.07097806386906155,-0.5738326096224372,0.042313821699983996,-0.13497390469553075,0.08948601072860028,0.0,0.0,-0.6,0.0,0.0014908313751220703,0.0026748180389404297,0.005772590637207031,0
0.19042396545410156,-0.12544883787631989,-0.035247478634119034,-0.24229221045970917,-0.06923508026435785,-0.5734762543536219,0.04351337566295156,-0.1210281148658813,0.0886033626091522,0.0,0.0,-0.6,0.0,0.001390695571899414,0.0024509429931640625,0.005580902099609375,0
0.20020651817321777,-0.12544883787631989,-0.035247478634119034,-0.24229221045970917,-0.06923508026435785,-0.57316948752282,0.04436890012959548,-0.11156106800816885,0.0879855089255392,0.0,0.0,-0.6,0.0,0.001573801040649414,0.00299835205078125,0.006193637847900391,0
0.2112736701965332,-0.12493040412664413,-0.03549148887395859,-0.24314139783382416,-0.06682712999035305,-0.5726949663713793,0.04211710778211281,-0.09725046414028683,0.08665002999426118,0.0,0.0,-0.6,0.0,0.0015249252319335938,0.0027167797088623047,0.005999565124511719,0
0.220534086227417,-0.12464508414268494,-0.03563706576824188,-0.24371911585330963,-0.06534080139074863,-0.5721404074045497,0.03938394379097944,-0.08367752223724911,0.08515782151751246,0.0,0.0,-0.6,0.0,0.0014510154724121094,0.0025157928466796875,0.0055735111236572266,0
0.2298870086669922,-0.12464508414268494,-0.03563706576824188,-0.24371911585330963,-0.06534080139074863,-0.5716769485136695,0.03757139786971732,-0.07453172777270053,0.08411327558378687,0.0,0.0,-0.6,0.0,0.0018038749694824219,0.003133535385131836,0.006357669830322266,0
0.24021315574645996,-0.12426331639289856,-0.035860899835824966,-0.24458551406860352,-0.06315526784045127,-0.5709746440271032,0.03581577408350372,-0.06805558525664732,0.08256251834881889,0.0,0.0,-0.6,0.0,0.0015878677368164062,0.0027008056640625,0.005898475646972656,0
0.24998688697814941,-0.12399936467409134,-0.0360470712184906,-0.24543218314647675,-0.0616335505328907,-0.5701947568647782,0.0350352786786067,-0.06011629948084739,0.08090634429400889,0.0,0.0,-0.6,0.0,0.0013129711151123047,0.002751588821411133,0.005913496017456055,0
0.260714054107666,-0.12375445663928986,-0.036230266094207764,-0.24640001356601715,-0.060165104891833805,-0.5693004967427542,0.03533907165773801,-0.05158185899808807,0.07919635534024265,0.0,0.0,-0.6,0.0,0.0017724037170410156,0.0029273033142089844,0.006560087203979492,0
0.2705059051513672,-0.1235220804810524,-0.03642534837126732,-0.2477886974811554,-0.057334856878375834,-0.5683760662717623,0.03329542255841396,-0.0462685446585156,0.07693802006755913,0.0,0.0,-0.6,0.0,0.0018377304077148438,0.0029408931732177734,0.006293296813964844,0
0.2797262668609619,-0.12327951937913895,-0.03659110516309738,-0.24904964864253998,-0.055598865013511814,-0.5673919414149541,0.030625978980404325,-0.04136797505133471,0.07470618842735861,0.0,0.0,-0.6,0.0,0.00146484375,0.002644777297973633,0.005645275115966797,0
0.290851354598999,-0.12304645776748657,-0.036739885807037354,-0.25044307112693787,-0.05375391640834462,-0.566312963533094,0.027455665269696537,-0.03713409418500274,0.07245205055227273,0.0,0.0,-0.6,0.0,0.016187191009521484,0.01859116554260254,0.02237391471862793,0
0.317004919052124,-0.12304645776748657,-0.036739885807037354,-0.25044307112693787,-0.05375391640834462,-0.5654486436919605,0.02541997855242426,-0.03457767403220245,0.07087415403972036,0.0,0.0,-0.6,0.0,0.0035219192504882812,0.005392313003540039,0.008684873580932617,0
0.3282632827758789,-0.12213224172592163,-0.03732093796133995,-0.2569180727005005,-0.04532584305512857,-0.5636626345347315,0.023572995831817635,-0.01811935159594729,0.06660909897347803,0.0,0.0,-0.6,0.0,0.002579212188720703,0.004536867141723633,0.009335756301879883,0
0.34092116355895996,-0.12213224172592163,-0.03732093796133995,-0.2569180727005005,-0.04532584305512857,-0.5622169228038018,0.022519936651082803,-0.007494050115202853,0.06362356042710823,0.0,0.0,-0.6,0.0,0.002244234085083008,0.0038607120513916016,0.00881648063659668,0
0.35300326347351074,-0.12146365642547607,-0.037711575627326965,-0.26283836364746094,-0.038242444260764646,-0.5603863340779479,0.018864384589171758,0.012305361230433451,0.058877408896763135,0.0,0.0,-0.6,0.0,0.0012760162353515625,0.003290891647338867,0.008481979370117188,0
0.363696813583374,-0.12146365642547607,-0.037711575627326965,-0.26283836364746094,-0.038242444260764646,-0.5589008159799915,0.016588088800502776,0.025205849766270376,0.055555102825521376,0.0,0.0,-0.6,0.0,0.0024309158325195312,0.0045146942138671875,0.007974386215209961,0
0.3751246929168701,-0.12146365642547607,-0.037711575627326965,-0.26283836364746094,-0.038242444260764646,-0.5577036422516412,0.015226568152970939,0.03355740751785383,0.05322948857565403,0.0,0.0,-0.6,0.0,0.002468585968017578,0.0035910606384277344,0.008355140686035156,0
0.38674283027648926,-0.12075535207986832,-0.03806322067975998,-0.2695866525173187,-0.03078149551767734,-0.5561112984451858,0.005548021826424771,0.044550949103244364,0.04880370282209125,0.0,0.0,-0.6,0.0,0.001476287841796875,0.002380847930908203,0.005694150924682617,0
0.3945610523223877,-0.12075535207986832,-0.03806322067975998,-0.2695866525173187,-0.03078149551767734,-0.5548270801857119,-0.000834697278209888,0.051564204819882366,0.04570565279459597,0.0,0.0,-0.6,0.0,0.0020112991333007812,0.0037994384765625,0.007847309112548828,0
0.40648889541625977,-0.12021687626838684,-0.03833574056625366,-0.2749781012535095,-0.02579165361882525,-0.5532927026515194,-0.005483338226346475,0.05468584454681942,0.041665827063277185,0.0,0.0,-0.6,0.0,0.0013148784637451172,0.003645658493041992,0.008275508880615234,0
0.41940999031066895,-0.12021687626838684,-0.03833574056625366,-0.2749781012535095,-0.02579165361882525,-0.5520665394869092,-0.008440115296896296,0.05637366083962589,0.03883794905135142,0.0,0.0,-0.6,0.0,0.0030672550201416016,0.004017829895019531,0.008347511291503906,0
0.4294300079345703,-0.11938603222370148,-0.038696903735399246,-0.2829867899417877,-0.01708374256377045,-0.5504872571123475,-0.009767031755298727,0.06642785982182943,0.033592967797365154,0.0,0.0,-0.6,0.0,0.0027315616607666016,0.00475621223449707,0.007861614227294922,0
0.44125866889953613,-0.11938603222370148,-0.038696903735399246,-0.2829867899417877,-0.01708374256377045,-0.549220890889177,-0.010481367455957544,0.07283349831148135,0.029921480919571603,0.0,0.0,-0.6,0.0,0.0024602413177490234,0.004275798797607422,0.008994102478027344,0
0.45328688621520996,-0.11828739196062088,-0.039204973727464676,-0.29157546162605286,-0.008199201612002917,-0.547644902502383,-0.0024626623014159486,0.087546052461735,0.024019737248201996,0.0,0.0,-0.6,0.0,0.002496957778930664,0.004186153411865234,0.009204387664794922,0
0.46532654762268066,-0.11828739196062088,-0.039204973727464676,-0.29157546162605286,-0.008199201612002917,-0.546381338388094,0.0031794555024591857,0.09718988100350491,0.019888516678241246,0.0,0.0,-0.6,0.0,0.0014455318450927734,0.003605365753173828,0.007780790328979492,0
0.47751545906066895,-0.11789724230766296,-0.03938475251197815,-0.2948330044746399,-0.005451140024369122,-0.5451728164784803,0.008414881558634776,0.10170254713295628,0.01596613918390441,0.0,0.0,-0.6,0.0,0.002903461456298828,0.0047206878662109375,0.008617162704467773,0
0.48995471000671387,-0.11711105704307556,-0.03965609893202782,-0.30155467987060547,0.00040115628811823566,-0.5438544138104486,0.010768631878235332,0.10373176828807062,0.011025863820690476,0.0,0.0,-0.6,0.0,0.0014796257019042969,0.00327301025390625,0.008014440536499023,0
0.5004289150238037,-0.11711105704307556,-0.03965609893202782,-0.30155467987060547,0.00040115628811823566,-0.5428038268414684,0.012595697200961903,0.10483780140184659,0.007567671066438703,0.0,0.0,-0.6,0.0,0.002064228057861328,0.003926753997802734,0.007200002670288086,0
0.514070987701416,-0.11578616499900818,-0.0401526503264904,-0.311093270778656,0.01047852379896377,-0.5414993330470582,0.006328143890762512,0.10078465791389904,0.0013679233218965,0.0,0.0,-0.6,0.0,0.0013375282287597656,0.00347137451171875,0.006850242614746094,0
0.5256128311157227,-0.11578616499900818,-0.0401526503264904,-0.311093270778656,0.01047852379896377,-0.5404552829697075,0.0022877225793908286,0.09773886582268779,-0.0029719000992842306,0.0,0.0,-0.6,0.0,0.0026788711547851562,0.004039764404296875,0.008876323699951172,0
0.5378668308258057,-0.11476702988147736,-0.040452662855386734,-0.31826362013816833,0.017022760683012676,-0.5393736086240403,4.586974318174534e-05,0.09645772547439843,-0.008463865325629177,0.0,0.0,-0.6,0.0,0.0012590885162353516,0.0024950504302978516,0.006569862365722656,0
0.5465826988220215,-0.11476702988147736,-0.040452662855386734,-0.31826362013816833,0.017022760683012676,-0.538509550822866,-0.0013125528630110299,0.09536081614270633,-0.0123082409840705,0.0,0.0,-0.6,0.0,0.002448558807373047,0.004444122314453125,0.007674217224121094,0
0.5578880310058594,-0.11369863897562027,-0.04078494384884834,-0.3255542814731598,0.0235302836231607,-0.5375032279755919,-0.0021158174420999407,0.09738358484262888,-0.017439625047535046,0.0,0.0,-0.6,0.0,0.0022864341735839844,0.0040357112884521484,0.007919073104858398,0
0.5697357654571533,-0.11369863897562027,-0.04078494384884834,-0.3255542814731598,0.0235302836231607,-0.5366990659515043,-0.00252087266749395,0.09856459480401661,-0.021031593891960874,0.0,0.0,-0.6,0.0,0.0018246173858642578,0.0037174224853515625,0.008091449737548828,0
0.5823514461517334,-0.11256816238164902,-0.0411032997071743,-0.33299410343170166,0.030617353867724725,-0.5356604672933837,-0.0033677791789106597,0.10017632681948163,-0.026203623424768698,0.0,0.0,-0.6,0.0,0.0013043880462646484,0.003560781478881836,0.007512807846069336,0
0.5926826000213623,-0.11256816238164902,-0.0411032997071743,-0.33299410343170166,0.030617353867724725,-0.5348304188635074,-0.00379677705074025,0.10109416556631245,-0.02982404409773281,0.0,0.0,-0.6,0.0,0.0014586448669433594,0.003622770309448242,0.008601665496826172,0
0.6045100688934326,-0.11140254884958267,-0.041425421833992004,-0.34056198596954346,0.03711682145526495,-0.53400030185086,-0.0060768800684879295,0.09912161628098894,-0.03479563891413666,0.0,0.0,-0.6,0.0,0.0011906623840332031,0.002907991409301758,0.006601095199584961,0
0.6181633472442627,-0.11079283803701401,-0.041588857769966125,-0.3443666994571686,0.04063175785009508,-0.5331209606214324,-0.006784283454870353,0.09639208470417687,-0.039593856433678604,0.0,0.0,-0.6,0.0,0.0017485618591308594,0.0035533905029296875,0.0083770751953125,0
0.6300959587097168,-0.10945796966552734,-0.04198320209980011,-0.35205721855163574,0.047225552644538864,-0.5322805514787279,-0.007269750433402459,0.0925727079265154,-0.045425281745271266,0.0,0.0,-0.6,0.0,0.0010497570037841797,0.0020263195037841797,0.005612611770629883,0
0.6416122913360596,-0.10876299440860748,-0.04218718409538269,-0.35592472553253174,0.05075230987866376,-0.5315009724343204,-0.006430663567161012,0.09033429450268843,-0.050829813426183396,0.0,0.0,-0.6,0.0,0.0014824867248535156,0.003535032272338867,0.00834202766418457,0
0.6519293785095215,-0.10876299440860748,-0.04218718409538269,-0.35592472553253174,0.05075230987866376,-0.5308783463011139,-0.00574671366620014,0.08868284235058117,-0.0546129856028235,0.0,0.0,-0.6,0.0,0.002512693405151367,0.004595756530761719,0.008441925048828125,0
0.6637821197509766,-0.1066766306757927,-0.0428631454706192,-0.367521196603775,0.060672538272567925,-0.5300928314155154,-0.0026053112101634564,0.08974573401508724,-0.06098129177418858,0.0,0.0,-0.6,0.0,0.0011658668518066406,0.0032401084899902344,0.006676912307739258,0
0.6751480102539062,-0.1066766306757927,-0.0428631454706192,-0.367521196603775,0.060672538272567925,-0.5294655642264909,-0.00036656041637462503,0.09035482669846613,-0.06543910609414438,0.0,0.0,-0.6,0.0,0.002978086471557617,0.004406929016113281,0.010262727737426758,0
0.6884167194366455,-0.10526535660028458,-0.043329741805791855,-0.3752880394458771,0.0670425967098054,-0.5287252056638336,0.003976749826648799,0.09243642589373421,-0.0709483480320917,0.0,0.0,-0.6,0.0,0.0018718242645263672,0.0032587051391601562,0.007414102554321289,0
0.6987192630767822,-0.10526535660028458,-0.043329741805791855,-0.3752880394458771,0.0670425967098054,-0.5281341753192336,0.007026822101382252,0.09375714691444302,-0.07480481738863735,0.0,0.0,-0.6,0.0,0.002603292465209961,0.004437685012817383,0.008816242218017578,0
0.7115256786346436,-0.10384204983711243,-0.04380997270345688,-0.3830021023750305,0.07352454825958948,-0.5275103093221128,0.01214074412210303,0.09437218023134825,-0.07993507776939152,0.0,0.0,-0.6,0.0,0.001986265182495117,0.0038471221923828125,0.007803678512573242,0
0.7229397296905518,-0.10384204983711243,-0.04380997270345688,-0.3830021023750305,0.07352454825958948,-0.5270129380631859,0.015709882042416943,0.09472186137801328,-0.08352626003592899,0.0,0.0,-0.6,0.0,0.0012826919555664062,0.00234222412109375,0.006693840026855469,0
0.7331247329711914,-0.10239537060260773,-0.04427129402756691,-0.39068397879600525,0.08039117239557465,-0.5264912139056593,0.025986570447579068,0.09357649459028271,-0.08861507167349453,0.0,0.0,-0.6,0.0,0.001623392105102539,0.002682209014892578,0.0059413909912109375,0
0.7432608604431152,-0.10239537060260773,-0.04427129402756691,-0.39068397879600525,0.08039117239557465,-0.5260772835887401,0.033075351873309906,0.09275988767678582,-0.09217723981979546,0.0,0.0,-0.6,0.0,0.0018208026885986328,0.003350973129272461,0.008562326431274414,0
0.7549521923065186,-0.10071475058794022,-0.0448482520878315,-0.3993661105632782,0.08827699964283658,-0.5255576432989943,0.038062255450886345,0.09167837223909464,-0.09762794273991508,0.0,0.0,-0.6,0.0,0.001245260238647461,0.002218008041381836,0.006200313568115234,0
0.7673892974853516,-0.09997665137052536,-0.04516562446951866,-0.40318217873573303,0.0912462626852431,-0.525104229118089,0.04348200480963468,0.09286157703479776,-0.10255690842491035,0.0,0.0,-0.6,0.0,0.0025997161865234375,0.004676342010498047,0.008826494216918945,0
0.7785694599151611,-0.09997665137052536,-0.04516562446951866,-0.40318217873573303,0.0912462626852431,-0.5247443419768169,0.04725485296587764,0.09363227946292584,-0.10600718440439996,0.0,0.0,-0.6,0.0,0.0011773109436035156,0.0029206275939941406,0.007416486740112305,0
0.7926478385925293,-0.09789323806762695,-0.04605959355831146,-0.4136054515838623,0.10024269104887618,-0.5242985001375167,0.049936601423251833,0.08880676576843403,-0.11179603822641279,0.0,0.0,-0.6,0.0,0.0011589527130126953,0.0021104812622070312,0.005980253219604492,0
0.8030462265014648,-0.09714924544095993,-0.04642408713698387,-0.4172822833061218,0.10299242583805689,-0.5238311755955409,0.05374152935081224,0.0848234233672528,-0.11687938644776402,0.0,0.0,-0.6,0.0,0.001268148422241211,0.0022509098052978516,0.006635427474975586,0
0.8131940364837646,-0.09714924544095993,-0.04642408713698387,-0.4172822833061218,0.10299242583805689,-0.5234589675152663,0.05643413224110087,0.08207452242360207,-0.12043773020270876,0.0,0.0,-0.6,0.0,0.0013861656188964844,0.0035414695739746094,0.008524417877197266,0
0.825340747833252,-0.09564992785453796,-0.047154638916254044,-0.42464035749435425,0.1084667635544564,-0.5230295868359331,0.06170287716760341,0.07796822692659261,-0.12498144747482062,0.0,0.0,-0.6,0.0,0.002157449722290039,0.003430604934692383,0.008661031723022461,0
0.8372201919555664,-0.09432954341173172,-0.04782787710428238,-0.431039959192276,0.11414077861059133,-0.5225147399170788,0.06934222266068467,0.07589093279755957,-0.13028980521135008,0.0,0.0,-0.6,0.0,0.0025000572204589844,0.0036203861236572266,0.007912397384643555,0
0.8478231430053711,-0.09432954341173172,-0.04782787710428238,-0.431039959192276,0.11414077861059133,-0.5221072717047439,0.07465857911711461,0.07445488019970967,-0.1340056556269131,0.0,0.0,-0.6,0.0,0.001277923583984375,0.0032958984375,0.00763249397277832,0
0.8594164848327637,-0.09278534352779388,-0.04864026606082916,-0.4384397268295288,0.11901202486808078,-0.5216564942643196,0.08207961452089571,0.06989654010726769,-0.13843346826436503,0.0,0.0,-0.6,0.0,0.002268552780151367,0.003684520721435547,0.007941007614135742,0
0.8700733184814453,-0.09221591800451279,-0.04897845536470413,-0.4411775767803192,0.12191034077878898,-0.5212211730796031,0.08305002402709787,0.06613795953580397,-0.1426198055770972,0.0,0.0,-0.6,0.0,0.001216888427734375,0.0022706985473632812,0.005155801773071289,0
0.8811936378479004,-0.09144089370965958,-0.04940271005034447,-0.4448854923248291,0.12428748045257938,-0.5207929934614622,0.08451223159465604,0.05948288731841678,-0.14644166907368147,0.0,0.0,-0.6,0.0,0.002286672592163086,0.003706216812133789,0.007115602493286133,0
0.8919155597686768,-0.08987405896186829,-0.05027969181537628,-0.4522818624973297,0.12896802885045125,-0.5203318041369529,0.08896493238290074,0.05406383322505601,-0.1508721791704918,0.0,0.0,-0.6,0.0,0.0017881393432617188,0.0027184486389160156,0.007266998291015625,0
0.9026215076446533,-0.08987405896186829,-0.05027969181537628,-0.4522818624973297,0.12896802885045125,-0.5199658147285076,0.09212437551183357,0.05034316004272449,-0.15397353623826038,0.0,0.0,-0.6,0.0,0.001033782958984375,0.001867532730102539,0.00598597526550293,0
0.9130055904388428,-0.08850178122520447,-0.051181893795728683,-0.458677738904953,0.13394500485698937,-0.5195924982254634,0.09678644539959634,0.04904613810061193,-0.15801085218814925,0.0,0.0,-0.6,0.0,0.0010824203491210938,0.0019686222076416016,0.005553722381591797,0
0.9220156669616699,-0.08850178122520447,-0.051181893795728683,-0.458677738904953,0.13394500485698937,-0.5192978023110679,0.10006776417124538,0.04814291207291556,-0.16083697335307265,0.0,0.0,-0.6,0.0,0.0019087791442871094,0.003699779510498047,0.007800102233886719,0
0.9341344833374023,-0.08692067861557007,-0.05217740684747696,-0.4659072458744049,0.13884320005723752,-0.5189830270712654,0.0986559425100322,0.04726338945691278,-0.16465208136861112,0.0,0.0,-0.6,0.0,0.001947641372680664,0.0028619766235351562,0.00604701042175293,0
0.9414205551147461,-0.08692067861557007,-0.05217740684747696,-0.4659072458744049,0.13884320005723752,-0.5187289933011975,0.0977803781732114,0.04663939223966702,-0.1673226569794892,0.0,0.0,-0.6,0.0,0.0020685195922851562,0.00446772575378418,0.008000373840332031,0
0.952794075012207,-0.08535393327474594,-0.05322595685720444,-0.4730527102947235,0.14371715545663608,-0.5183920412658402,0.09594735139709225,0.04554313422405468,-0.17101979318187727,0.0,0.0,-0.6,0.0,0.0018002986907958984,0.0029897689819335938,0.007615327835083008,0
0.9643115997314453,-0.08535393327474594,-0.05322595685720444,-0.4730527102947235,0.14371715545663608,-0.5181196873127445,0.09479209420618896,0.04477027049841098,-0.17360778852355002,0.0,0.0,-0.6,0.0,0.0021448135375976562,0.0038285255432128906,0.007687568664550781,0
0.9736266136169434,-0.08323182910680771,-0.0546359159052372,-0.4826739728450775,0.15092035160285916,-0.5178773371491556,0.09633063757033507,0.0433292985518102,-0.1781205838175527,0.0,0.0,-0.6,0.0,0.002202272415161133,0.00384521484375,0.0070116519927978516,0
0.9837396144866943,-0.08323182910680771,-0.0546359159052372,-0.4826739728450775,0.15092035160285916,-0.517684585711519,0.09745383731211124,0.042338511326104215,-0.1812795405233559,0.0,0.0,-0.6,0.0,0.0018072128295898438,0.0035619735717773438,0.006917238235473633,0
0.9943277835845947,-0.08247489482164383,-0.05517489090561867,-0.48613646626472473,0.15338180947481364,-0.5175037777219631,0.09924346922448878,0.04058470094202926,-0.1844138569194011,0.0,0.0,-0.6,0.0,0.0021944046020507812,0.0036211013793945312,0.006914615631103516,0
1.0030763149261475,-0.08247489482164383,-0.05517489090561867,-0.48613646626472473,0.15338180947481364,-0.517360750864753,0.10052267506900926,0.03938226053849932,-0.18660787839663368,0.0,0.0,-0.6,0.0,0.002072572708129883,0.0034432411193847656,0.006679058074951172,0
1.0158107280731201,-0.080258809030056,-0.05684702470898628,-0.49635744094848633,0.16062521450797004,-0.5172299698611325,0.09939517869375143,0.030921414868917228,-0.1908599703181281,0.0,0.0,-0.6,0.0,0.001054525375366211,0.0025815963745117188,0.006267547607421875,0
1.0249662399291992,-0.080258809030056,-0.05684702470898628,-0.49635744094848633,0.16062521450797004,-0.517122926194439,0.0986874728782349,0.02514492345861951,-0.19383643466317546,0.0,0.0,-0.6,0.0,0.0018646717071533203,0.0035619735717773438,0.007233142852783203,0
1.0370173454284668,-0.07882438600063324,-0.0580180361866951,-0.503029465675354,0.16500141394235127,-0.5170243106368815,0.095558576446644,0.01602241769610538,-0.19756103449260082,0.0,0.0,-0.6,0.0,0.0013127326965332031,0.003000974655151367,0.00722193717956543,0
1.0456407070159912,-0.07882438600063324,-0.0580180361866951,-0.503029465675354,0.16500141394235127,-0.5169412817681371,0.093473614237114,0.009791005155999746,-0.20016825437319968,0.0,0.0,-0.6,0.0,0.0009982585906982422,0.00182342529296875,0.004703044891357422,0
1.0544085502624512,-0.07811399549245834,-0.05860533192753792,-0.5063109993934631,0.16718082371426599,-0.5168043388565559,0.09273610938934987,0.007036826782134124,-0.20281058695408688,0.0,0.0,-0.6,0.0,0.0023512840270996094,0.003312826156616211,0.007135868072509766,0
1.0645904541015625,-0.07811399549245834,-0.05860533192753792,-0.5063109993934631,0.16718082371426599,-0.5166940046295015,0.0922818058569368,0.005147932856427345,-0.2046602197607087,0.0,0.0,-0.6,0.0,0.0011761188507080078,0.002928495407104492,0.007042884826660156,0
1.076721429824829,-0.07673906534910202,-0.05986356735229492,-0.5127996802330017,0.17103584487491263,-0.5165952153987208,0.08889624033143427,0.005452752530625841,-0.20740059566058558,0.0,0.0,-0.6,0.0,0.0017952919006347656,0.003499269485473633,0.007351398468017578,0
1.0875134468078613,-0.07542684674263,-0.0611749142408371,-0.5191558003425598,0.17460554639887196,-0.5164313756181612,0.08534482020514472,0.0037655918665746102,-0.21065749686198362,0.0,0.0,-0.6,0.0,0.0018894672393798828,0.0031630992889404297,0.007014274597167969,0
1.0963444709777832,-0.07542684674263,-0.0611749142408371,-0.5191558003425598,0.17460554639887196,-0.5162955403050576,0.08298045309240634,0.0025990057622248515,-0.21293732770296322,0.0,0.0,-0.6,0.0,0.002025127410888672,0.004172325134277344,0.007865667343139648,0
1.1065547466278076,-0.07419285178184509,-0.062471337616443634,-0.5253663063049316,0.17823045313325592,-0.5162051034953178,0.08025015663728433,-0.0016501194930971042,-0.21589254931704227,0.0,0.0,-0.6,0.0,0.0012385845184326172,0.0030002593994140625,0.0056569576263427734,0
1.1173758506774902,-0.07419285178184509,-0.062471337616443634,-0.5253663063049316,0.17823045313325592,-0.5161297046231529,0.07842597934549837,-0.004556776583966197,-0.21796120444689848,0.0,0.0,-0.6,0.0,0.0019292831420898438,0.004497528076171875,0.008482694625854492,0
1.1290252208709717,-0.07298772782087326,-0.0638270378112793,-0.5314483046531677,0.18148787021223126,-0.5161414180386843,0.07266881752003151,-0.012001645913444596,-0.220630794442413,0.0,0.0,-0.6,0.0,0.0016853809356689453,0.0028285980224609375,0.00634765625,0
1.1368358135223389,-0.07298772782087326,-0.0638270378112793,-0.5314483046531677,0.18148787021223126,-0.5161448119645322,0.0687446262521168,-0.017083672269414565,-0.22249950743927394,0.0,0.0,-0.6,0.0,0.0017142295837402344,0.0035352706909179688,0.006689548492431641,0
1.1491284370422363,-0.07237141579389572,-0.06448706984519958,-0.5344034433364868,0.1831686706226458,-0.5160950481646314,0.06527894987370711,-0.015894813517305803,-0.224437906690982,0.0,0.0,-0.6,0.0,0.0021779537200927734,0.004106044769287109,0.008473396301269531,0
1.1609115600585938,-0.0709177702665329,-0.06606830656528473,-0.5410508513450623,0.18673574362246048,-0.5160841562558863,0.061912234161005636,-0.012591321525583711,-0.22713243854210738,0.0,0.0,-0.6,0.0,0.0024781227111816406,0.0036759376525878906,0.008577346801757812,0
1.170274257659912,-0.0709177702665329,-0.06606830656528473,-0.5410508513450623,0.18673574362246048,-0.5160698155239348,0.05961023595033615,-0.010341013885550775,-0.22901861083789596,0.0,0.0,-0.6,0.0,0.0026092529296875,0.00417780876159668,0.007153749465942383,0
1.1806280612945557,-0.06959890574216843,-0.0675920695066452,-0.5473528504371643,0.19076296752651356,-0.5161954179650898,0.05791123640215605,-0.010857519025855624,-0.23184914040896692,0.0,0.0,-0.6,0.0,0.0012249946594238281,0.0033888816833496094,0.006574869155883789,0
1.1900050640106201,-0.06959890574216843,-0.0675920695066452,-0.5473528504371643,0.19076296752651356,-0.5162943707207207,0.056706232713521446,-0.011195339211069272,-0.23383051110871744,0.0,0.0,-0.6,0.0,0.0012900829315185547,0.0028257369995117188,0.00733494758605957,0
1.2006487846374512,-0.06903152912855148,-0.06829100102186203,-0.5500484108924866,0.19207300894774015,-0.5164219779082267,0.05573457655271167,-0.008622237172348566,-0.2357087361315029,0.0,0.0,-0.6,0.0,0.001352548599243164,0.0031480789184570312,0.006990671157836914,0
1.2140941619873047,-0.06846091151237488,-0.06898452341556549,-0.5526918172836304,0.19340300213637196,-0.5165767504339551,0.05397008242358362,-0.004966105186604195,-0.23752224109318967,0.0,0.0,-0.6,0.0,0.0017957687377929688,0.0029027462005615234,0.0072689056396484375,0
1.2252178192138672,-0.06754041463136673,-0.07022979855537415,-0.5571156740188599,0.19607755474841282,-0.5167809125531727,0.05038291095087085,-0.004451737960700612,-0.2397946517958853,0.0,0.0,-0.6,0.0,0.0018987655639648438,0.002844572067260742,0.006374835968017578,0
1.2353920936584473,-0.06703294813632965,-0.07091639935970306,-0.5595948100090027,0.19722940173326745,-0.5169404639736553,0.04521908757386074,-0.004400975109119406,-0.24181728190709298,0.0,0.0,-0.6,0.0,0.0011076927185058594,0.002860546112060547,0.0067386627197265625,0
1.2448198795318604,-0.06703294813632965,-0.07091639935970306,-0.5595948100090027,0.19722940173326745,-0.5170620405581277,0.0416296173031744,-0.004349748070648735,-0.24323312298493896,0.0,0.0,-0.6,0.0,0.0015764236450195312,0.003023862838745117,0.007340192794799805,0
1.256063461303711,-0.0660826787352562,-0.0722232535481453,-0.5643771290779114,0.199699685748796,-0.5172829358971058,0.0363382361212413,-0.001945405523160798,-0.24515056824525386,0.0,0.0,-0.6,0.0,0.0019903182983398438,0.00429224967956543,0.0077533721923828125,0
1.267075538635254,-0.06525351852178574,-0.0733087956905365,-0.568358302116394,0.20203003104362313,-0.5175321335592274,0.031495711738077,0.0012525607307238163,-0.24736665941303415,0.0,0.0,-0.6,0.0,0.001369476318359375,0.003552675247192383,0.00710606575012207,0
1.2776010036468506,-0.06525351852178574,-0.0733087956905365,-0.568358302116394,0.20203003104362313,-0.517724987368858,0.028085084680127284,0.003462175179534522,-0.24891792323048104,0.0,0.0,-0.6,0.0,0.0019140243530273438,0.0037741661071777344,0.00751948356628418,0
1.2899200916290283,-0.06440433114767075,-0.07451101392507553,-0.5727697610855103,0.20401574630644495,-0.5179755501502765,0.02072938777451542,0.000299468518039647,-0.2507484511262517,0.0,0.0,-0.6,0.0,0.0010993480682373047,0.002993345260620117,0.0072782039642333984,0
1.2993860244750977,-0.06440433114767075,-0.07451101392507553,-0.5727697610855103,0.20401574630644495,-0.5181686915746062,0.015610132294350777,-0.0018342065253787163,-0.25202982065329177,0.0,0.0,-0.6,0.0,0.002374410629272461,0.0038831233978271484,0.00652313232421875,0
1.309011459350586,-0.06371567398309708,-0.07550731301307678,-0.5764463543891907,0.20599333539805748,-0.5183317020094157,0.013195009216923247,-0.0014515781920277674,-0.25366837523157415,0.0,0.0,-0.6,0.0,0.0019278526306152344,0.003930568695068359,0.007910013198852539,0
1.3209331035614014,-0.06371567398309708,-0.07550731301307678,-0.5764463543891907,0.20599333539805748,-0.5184597208080265,0.011484005660268498,-0.00117032431763792,-0.25481536343637234,0.0,0.0,-0.6,0.0,0.0022013187408447266,0.0037841796875,0.00874185562133789,0
1.332568883895874,-0.06297460943460464,-0.07661499828100204,-0.5805379748344421,0.20765354699570776,-0.5186238242308356,0.009267924833327425,-0.00385345122483129,-0.25624083452884966,0.0,0.0,-0.6,0.0,0.0018017292022705078,0.003526449203491211,0.007776498794555664,0
1.342353343963623,-0.06236059591174126,-0.07758291810750961,-0.5839868187904358,0.20930793875634776,-0.5188663815986435,0.002772339248850811,-0.008349126297171269,-0.25785906120382357,0.0,0.0,-0.6,0.0,0.0011296272277832031,0.0028209686279296875,0.005539894104003906,0
1.351184368133545,-0.06236059591174126,-0.07758291810750961,-0.5839868187904358,0.20930793875634776,-0.5190552769229378,-0.001753497593621708,-0.011389426571304633,-0.25899181987630576,0.0,0.0,-0.6,0.0,0.0012960433959960938,0.003088712692260742,0.006800413131713867,0
1.3600449562072754,-0.06236059591174126,-0.07758291810750961,-0.5839868187904358,0.20930793875634776,-0.5192032948956126,-0.00491261629420559,-0.013439701751936066,-0.2597847509470436,0.0,0.0,-0.6,0.0,0.0020766258239746094,0.0041086673736572266,0.0077724456787109375,0
1.3733868598937988,-0.061670564115047455,-0.07861257344484329,-0.5878261923789978,0.21082970158337988,-0.5193800019512927,-0.005431504545393873,-0.01444509827881904,-0.26091046375669685,0.0,0.0,-0.6,0.0,0.0019049644470214844,0.0038819313049316406,0.00762939453125,0
1.3832626342773438,-0.06109171360731125,-0.0795610323548317,-0.5910781621932983,0.21231383159569484,-0.5195311369712358,-0.005011649942414249,-0.017535387963101584,-0.262255011478072,0.0,0.0,-0.6,0.0,0.0020682811737060547,0.004669189453125,0.008608579635620117,0
1.39570951461792,-0.06109171360731125,-0.0795610323548317,-0.5910781621932983,0.21231383159569484,-0.5196541918032392,-0.004775959074727128,-0.019621519976629358,-0.26319619488303503,0.0,0.0,-0.6,0.0,0.0014178752899169922,0.0038106441497802734,0.008451700210571289,0
1.4080355167388916,-0.06054185703396797,-0.0805816724896431,-0.5946568250656128,0.21362384753822805,-0.5198387485609675,-0.006789739934939235,-0.02167026049782912,-0.2643462792449589,0.0,0.0,-0.6,0.0,0.002889394760131836,0.00489044189453125,0.009681940078735352,0
1.4236390590667725,-0.06012088060379028,-0.08150036633014679,-0.5976783037185669,0.21496465830010747,-0.5200592466564624,-0.006157924195803549,-0.023355914288702845,-0.26565414233401025,0.0,0.0,-0.6,0.0,0.0010426044464111328,0.0020389556884765625,0.00585484504699707,0
1.432008981704712,-0.06012088060379028,-0.08150036633014679,-0.5976783037185669,0.21496465830010747,-0.5202375584610623,-0.005803169414915093,-0.02446964921858293,-0.26656964649634657,0.0,0.0,-0.6,0.0,0.002897500991821289,0.003865957260131836,0.008226871490478516,0
1.4441978931427002,-0.059665482491254807,-0.08246440440416336,-0.6010193228721619,0.21618191897761638,-0.5204411169881745,-0.007864120012621824,-0.023695752326275504,-0.26766697216404767,0.0,0.0,-0.6,0.0,0.0023491382598876953,0.004207611083984375,0.008118152618408203,0
1.45556640625,-0.059665482491254807,-0.08246440440416336,-0.6010193228721619,0.21618191897761638,-0.5206018399488715,-0.009346503572205504,-0.02313275288197546,-0.26843510013143873,0.0,0.0,-0.6,0.0,0.0010709762573242188,0.0024831295013427734,0.006792783737182617,0
1.4665889739990234,-0.0592343844473362,-0.08337963372468948,-0.6042205095291138,0.21737973713255618,-0.5207352280237998,-0.014812477880668903,-0.02373042163603326,-0.26942197151670094,0.0,0.0,-0.6,0.0,0.0023682117462158203,0.004205226898193359,0.008544683456420898,0
1.4781043529510498,-0.0592343844473362,-0.08337963372468948,-0.6042205095291138,0.21737973713255618,-0.5208372408089507,-0.01859319615677093,-0.024116670324552975,-0.27011278148639856,0.0,0.0,-0.6,0.0,0.002343416213989258,0.003906726837158203,0.007767438888549805,0
1.4874515533447266,-0.058677565306425095,-0.08460406959056854,-0.6088088750839233,0.21872979722340485,-0.5209596365252033,-0.018035821702002994,-0.0238891846871591,-0.2711026209992548,0.0,0.0,-0.6,0.0,0.0013878345489501953,0.0032820701599121094,0.005837440490722656,0
1.4959721565246582,-0.058677565306425095,-0.08460406959056854,-0.6088088750839233,0.21872979722340485,-0.5210580516364339,-0.01769526391016331,-0.02371218522240693,-0.27179550865825447,0.0,0.0,-0.6,0.0,0.0018799304962158203,0.003412961959838867,0.007609367370605469,0
1.5058355331420898,-0.058677565306425095,-0.08460406959056854,-0.6088088750839233,0.21872979722340485,-0.5211371026455988,-0.017495052715351084,-0.023574092970037413,-0.2722805300195477,0.0,0.0,-0.6,0.0,0.0016238689422607422,0.0031414031982421875,0.006704092025756836,0
1.5170340538024902,-0.05834710970520973,-0.08529526740312576,-0.6117157936096191,0.21953538394008254,-0.5213785195767004,-0.018520914428631335,-0.025475808698425122,-0.27292213999121373,0.0,0.0,-0.6,0.0,0.0018117427825927734,0.0038788318634033203,0.00713801383972168,0
1.5281627178192139,-0.0581900030374527,-0.08560383319854736,-0.6131421327590942,0.21986229695744663,-0.521533935158333,-0.01922846097177359,-0.02714183149935465,-0.2734938593528915,0.0,0.0,-0.6,0.0,0.0021195411682128906,0.0033822059631347656,0.007242679595947266,0
1.540346622467041,-0.05793667584657669,-0.08615276217460632,-0.6159120798110962,0.2202381844758809,-0.5217171658422628,-0.02339706315242759,-0.027507692314968173,-0.27403502072547886,0.0,0.0,-0.6,0.0,0.0018167495727539062,0.0029137134552001953,0.007343292236328125,0
1.5514318943023682,-0.05779983103275299,-0.08639112859964371,-0.6172619462013245,0.2203798056331432,-0.5218244944429207,-0.02895763594548273,-0.02808716554305473,-0.27446694162026347,0.0,0.0,-0.6,0.0,0.0020492076873779297,0.0037627220153808594,0.007459402084350586,0
1.5616283416748047,-0.05779983103275299,-0.08639112859964371,-0.6172619462013245,0.2203798056331432,-0.5219062114359717,-0.03279057069442034,-0.028462816948628854,-0.2747692862466128,0.0,0.0,-0.6,0.0,0.0021867752075195312,0.0034003257751464844,0.008221626281738281,0
1.5732951164245605,-0.05757014825940132,-0.08682847768068314,-0.6198742389678955,0.22058599287978065,-0.5220371015396348,-0.039047360245306924,-0.02725548861361234,-0.2750582477025464,0.0,0.0,-0.6,0.0,0.0019664764404296875,0.0029191970825195312,0.006132841110229492,0
1.5816607475280762,-0.05757014825940132,-0.08682847768068314,-0.6198742389678955,0.22058599287978065,-0.5221364335937975,-0.043361839534995186,-0.02640529568746691,-0.2752605207217,0.0,0.0,-0.6,0.0,0.002393007278442383,0.004194974899291992,0.008110761642456055,0
1.5931148529052734,-0.05733218416571617,-0.08718304336071014,-0.6223924160003662,0.22076285230446654,-0.5222310656226085,-0.04241114683804059,-0.022824731338606283,-0.27546843411936184,0.0,0.0,-0.6,0.0,0.0015583038330078125,0.0031223297119140625,0.007076740264892578,0
1.603621244430542,-0.05733218416571617,-0.08718304336071014,-0.6223924160003662,0.22076285230446654,-0.5223048992167008,-0.041791193663897566,-0.020361329711018904,-0.2756139734977281,0.0,0.0,-0.6,0.0,0.0014219284057617188,0.003076791763305664,0.006277799606323242,0
1.6132533550262451,-0.057192362844944,-0.0874117985367775,-0.6247323751449585,0.22094328403436272,-0.5225482266109196,-0.04060904251262913,-0.02096254050766943,-0.2757835129612955,0.0,0.0,-0.6,0.0,0.0017008781433105469,0.00298309326171875,0.007051944732666016,0
1.6237742900848389,-0.057192362844944,-0.0874117985367775,-0.6247323751449585,0.22094328403436272,-0.5227442427315249,-0.03987179257838,-0.02132617029600909,-0.2759021905857911,0.0,0.0,-0.6,0.0,0.0017733573913574219,0.002813577651977539,0.006075382232666016,0
1.634354591369629,-0.057104308158159256,-0.08758123964071274,-0.626960039138794,0.22082691790094533,-0.5230139595668937,-0.04548538550719594,-0.020596703823282433,-0.2759416276229082,0.0,0.0,-0.6,0.0,0.0017659664154052734,0.0026369094848632812,0.006111860275268555,0
1.6423242092132568,-0.057104308158159256,-0.08758123964071274,-0.626960039138794,0.22082691790094533,-0.523225671343009,-0.049398649282712766,-0.020041803722204293,-0.2759692335488902,0.0,0.0,-0.6,0.0,0.002228975296020508,0.0032281875610351562,0.007535696029663086,0
1.653644323348999,-0.056978024542331696,-0.08772646635770798,-0.6292864084243774,0.22076108932301616,-0.5234229523843908,-0.05198046381281753,-0.015453381712736448,-0.2759638719803542,0.0,0.0,-0.6,0.0,0.0021386146545410156,0.002994060516357422,0.00691676139831543,0
1.661315679550171,-0.056978024542331696,-0.08772646635770798,-0.6292864084243774,0.22076108932301616,-0.5235759719854111,-0.0537998290650209,-0.012275513891441773,-0.27596011888237904,0.0,0.0,-0.6,0.0,0.002336740493774414,0.003915548324584961,0.008655071258544922,0
1.6743817329406738,-0.056905120611190796,-0.0877450704574585,-0.6312601566314697,0.22077723434892846,-0.5237453567248721,-0.05575426962180956,-0.01009637047161755,-0.2759635460985135,0.0,0.0,-0.6,0.0,0.0024585723876953125,0.003769397735595703,0.008651494979858398,0
1.6853351593017578,-0.056905120611190796,-0.0877450704574585,-0.6312601566314697,0.22077723434892846,-0.523878428566212,-0.05713440179292401,-0.008570426710835018,-0.2759659451498076,0.0,0.0,-0.6,0.0,0.002424478530883789,0.004406929016113281,0.008414745330810547,0
1.6973226070404053,-0.056855104863643646,-0.08764157444238663,-0.6337839961051941,0.22070989888766962,-0.5241042889955912,-0.05594909145158797,-0.0022259081079613477,-0.27594237368774144,0.0,0.0,-0.6,0.0,0.002755403518676758,0.003877878189086914,0.008285760879516602,0
1.708092212677002,-0.056855104863643646,-0.08764157444238663,-0.6337839961051941,0.22070989888766962,-0.5242807423089929,-0.05519970242224762,0.0021601246464395037,-0.2759258736642951,0.0,0.0,-0.6,0.0,0.0012068748474121094,0.0037043094635009766,0.0067822933197021484,0
1.7209978103637695,-0.056837569922208786,-0.08757051825523376,-0.6346405744552612,0.22056121070347054,-0.5244992266362559,-0.05608983144569727,0.004314843008890465,-0.27585856557880717,0.0,0.0,-0.6,0.0,0.0025022029876708984,0.00360870361328125,0.008218526840209961,0
1.7312884330749512,-0.05680490657687187,-0.08735617250204086,-0.6365107893943787,0.2203858344013624,-0.5246767701229302,-0.0598009242299898,0.012394708155223614,-0.2757456838056745,0.0,0.0,-0.6,0.0,0.0021195411682128906,0.004166841506958008,0.007786750793457031,0
1.7431113719940186,-0.05680490657687187,-0.08735617250204086,-0.6365107893943787,0.2203858344013624,-0.5248112216776746,-0.06238261686057149,0.01795511317809515,-0.27566666656448313,0.0,0.0,-0.6,0.0,0.002262115478515625,0.003346681594848633,0.008817911148071289,0
1.7551672458648682,-0.05678554251790047,-0.08712071925401688,-0.6380727887153625,0.22012266767383765,-0.5249628995095382,-0.06706561350542285,0.021413824094124696,-0.27551266697282534,0.0,0.0,-0.6,0.0,0.001329183578491211,0.003303050994873047,0.0072021484375,0
1.7675285339355469,-0.056767381727695465,-0.08698376268148422,-0.6386526823043823,0.2199321944444798,-0.5251587807824796,-0.06908770053235869,0.025438870289112497,-0.27533343979765784,0.0,0.0,-0.6,0.0,0.001965045928955078,0.004065275192260742,0.008014917373657227,0
1.7783424854278564,-0.05672384798526764,-0.08666455745697021,-0.6401271224021912,0.21950460317965845,-0.5252528867390581,-0.06607615802436304,0.03201807137776189,-0.2750476340507327,0.0,0.0,-0.6,0.0,0.002680540084838867,0.004654884338378906,0.00845479965209961,0
1.7915863990783691,-0.05672384798526764,-0.08666455745697021,-0.6401271224021912,0.21950460317965845,-0.5253250743875671,-0.06404047111395708,0.03653051576098639,-0.274847570027885,0.0,0.0,-0.6,0.0,0.0015530586242675781,0.0036597251892089844,0.008219242095947266,0
1.8036065101623535,-0.05668697878718376,-0.08630718290805817,-0.6414012312889099,0.21898282997856083,-0.5254254737188678,-0.06730494000938717,0.03547752253005483,-0.2745118602614848,0.0,0.0,-0.6,0.0,0.0012326240539550781,0.002258777618408203,0.006349325180053711,0
1.8153026103973389,-0.05666019022464752,-0.0860777497291565,-0.6420925259590149,0.21862063777553323,-0.5255736631469826,-0.0682225759234808,0.0354618798806466,-0.27414104134886463,0.0,0.0,-0.6,0.0,0.0011932849884033203,0.002329587936401367,0.00632023811340332,0
1.825620174407959,-0.05666019022464752,-0.0860777497291565,-0.6420925259590149,0.21862063777553323,-0.5256919939285755,-0.06887856426664556,0.035481254024311105,-0.27388146811003045,0.0,0.0,-0.6,0.0,0.002287149429321289,0.004632472991943359,0.008668661117553711,0
1.8389382362365723,-0.05657139793038368,-0.08544005453586578,-0.6439380645751953,0.21756219318496314,-0.5257673036394851,-0.06372194481651379,0.039687025559755916,-0.27330285012138306,0.0,0.0,-0.6,0.0,0.0024018287658691406,0.003343343734741211,0.00657963752746582,0
1.8480052947998047,-0.05657139793038368,-0.08544005453586578,-0.6439380645751953,0.21756219318496314,-0.525826131566007,-0.06021413013973736,0.0425728404995043,-0.27289781752932973,0.0,0.0,-0.6,0.0,0.002548694610595703,0.0036215782165527344,0.008738279342651367,0
1.8596889972686768,-0.05647629499435425,-0.08491037040948868,-0.6451456546783447,0.2166841233345839,-0.52601538271318,-0.05693433199952075,0.044501809604018394,-0.2722850185210004,0.0,0.0,-0.6,0.0,0.0022628307342529297,0.004117488861083984,0.0076520442962646484,0
1.8710284233093262,-0.05647629499435425,-0.08491037040948868,-0.6451456546783447,0.2166841233345839,-0.5261665827285427,-0.05472805565961585,0.045855770818223444,-0.27185605921516964,0.0,0.0,-0.6,0.0,0.0030858516693115234,0.004598140716552734,0.010004043579101562,0
1.8822946548461914,-0.05633345618844032,-0.08413634449243546,-0.6468358635902405,0.2156350171529397,-0.5262254901404101,-0.051329328954925514,0.047820409541826196,-0.2711623728829718,0.0,0.0,-0.6,0.0,0.0024635791778564453,0.004088878631591797,0.007534980773925781,0
1.8945930004119873,-0.05633345618844032,-0.08413634449243546,-0.6468358635902405,0.2156350171529397,-0.5262724120050126,-0.04901835026688042,0.04917232099727465,-0.27067679245043313,0.0,0.0,-0.6,0.0,0.0014641284942626953,0.003732919692993164,0.008860349655151367,0
1.9071757793426514,-0.056235071271657944,-0.08346706628799438,-0.6479487419128418,0.21485586246123597,-0.5263898144599751,-0.045683020278563885,0.05384693510694721,-0.27004470313827605,0.0,0.0,-0.6,0.0,0.0012128353118896484,0.002414226531982422,0.005769491195678711,0
1.918133020401001,-0.05618279427289963,-0.08313269168138504,-0.6484478712081909,0.21425792620495987,-0.5265358065575511,-0.045020637090324354,0.05814426709424427,-0.26937801452365384,0.0,0.0,-0.6,0.0,0.002270936965942383,0.003857135772705078,0.008521080017089844,0
1.9281127452850342,-0.05618279427289963,-0.08313269168138504,-0.6484478712081909,0.21425792620495987,-0.5266510656056503,-0.044592234724792054,0.0611065876327327,-0.2689113324934181,0.0,0.0,-0.6,0.0,0.0025207996368408203,0.0047414302825927734,0.008836746215820312,0
1.9402954578399658,-0.056060999631881714,-0.08202330023050308,-0.6498210430145264,0.2129425427597691,-0.5268235281585983,-0.04580864677877213,0.0583316427059413,-0.2680913862803069,0.0,0.0,-0.6,0.0,0.0011250972747802734,0.0023224353790283203,0.0053043365478515625,0
1.9504516124725342,-0.056060999631881714,-0.08202330023050308,-0.6498210430145264,0.2129425427597691,-0.5269618175094942,-0.046668155268499135,0.05646630500608931,-0.2675174239311288,0.0,0.0,-0.6,0.0,0.002689838409423828,0.0044252872467041016,0.008427858352661133,0
1.9609286785125732,-0.056060999631881714,-0.08202330023050308,-0.6498210430145264,0.2129425427597691,-0.5270727197259188,-0.04727744834027871,0.05521677409553582,-0.2671156502867095,0.0,0.0,-0.6,0.0,0.002199411392211914,0.00433349609375,0.008571386337280273,0
1.9754059314727783,-0.05589045584201813,-0.08075837045907974,-0.6510583758354187,0.21152255951305837,-0.5272375844049565,-0.04274429736987336,0.0528021978538949,-0.26630191501809436,0.0,0.0,-0.6,0.0,0.002414703369140625,0.0039899349212646484,0.007384538650512695,0
1.9840021133422852,-0.05589045584201813,-0.08075837045907974,-0.6510583758354187,0.21152255951305837,-0.527370747472682,-0.03967316868585214,0.05117857029603812,-0.2657323003300714,0.0,0.0,-0.6,0.0,0.0021746158599853516,0.004294633865356445,0.008272409439086914,0
1.997910737991333,-0.055799346417188644,-0.07986866682767868,-0.6518262624740601,0.21053024275653348,-0.5275506034453182,-0.038824011470425246,0.051923822112253756,-0.26496145126476145,0.0,0.0,-0.6,0.0,0.001561880111694336,0.003721475601196289,0.008983373641967773,0
2.0090999603271484,-0.055799346417188644,-0.07986866682767868,-0.6518262624740601,0.21053024275653348,-0.5276943902823013,-0.038270976476482595,0.052462087833955076,-0.26442185691902614,0.0,0.0,-0.6,0.0,0.001135110855102539,0.0021059513092041016,0.006196022033691406,0
2.0218048095703125,-0.05571440979838371,-0.07895249128341675,-0.6525117754936218,0.20931547639958295,-0.5278025673058646,-0.0403564164265919,0.049707905703700074,-0.2635886034931627,0.0,0.0,-0.6,0.0,0.0027112960815429688,0.0044209957122802734,0.009646415710449219,0
2.034083366394043,-0.05571440979838371,-0.07895249128341675,-0.6525117754936218,0.20931547639958295,-0.5278891478116106,-0.04179808310743321,0.04784473508863196,-0.26300532609505806,0.0,0.0,-0.6,0.0,0.0035347938537597656,0.004529476165771484,0.009656429290771484,0
2.0478525161743164,-0.05558887869119644,-0.07755318284034729,-0.6534421443939209,0.20744125598384636,-0.5280001373054699,-0.04030099412468423,0.04078774792829432,-0.2618941992604995,0.0,0.0,-0.6,0.0,0.002034425735473633,0.004167318344116211,0.008693933486938477,0
2.060253143310547,-0.05558887869119644,-0.07755318284034729,-0.6534421443939209,0.20744125598384636,-0.5280903842697129,-0.03929800316704162,0.035982744338024106,-0.2611164104762928,0.0,0.0,-0.6,0.0,0.0020704269409179688,0.004582643508911133,0.008886098861694336,0
2.0728378295898438,-0.05549529194831848,-0.07607503980398178,-0.6541801691055298,0.2056472530529968,-0.5282630775808406,-0.0378861946753065,0.02852836793523299,-0.25989920722827997,0.0,0.0,-0.6,0.0,0.001203775405883789,0.0035130977630615234,0.006661415100097656,0
2.083542585372925,-0.05549529194831848,-0.07607503980398178,-0.6541801691055298,0.2056472530529968,-0.5284030724374185,-0.03694948436755406,0.023460479392931173,-0.2590471649546706,0.0,0.0,-0.6,0.0,0.002799510955810547,0.004686594009399414,0.009694576263427734,0
2.096888780593872,-0.055426254868507385,-0.07504548132419586,-0.6546096205711365,0.20433740177813195,-0.528527055124706,-0.03462639396933658,0.022102609567016058,-0.2579595411350549,0.0,0.0,-0.6,0.0,0.0012390613555908203,0.0024683475494384766,0.006266593933105469,0
2.106276273727417,-0.055426254868507385,-0.07504548132419586,-0.6546096205711365,0.20433740177813195,-0.5286270614609017,-0.03305691518986475,0.021191901158053868,-0.2571982044613387,0.0,0.0,-0.6,0.0,0.0025293827056884766,0.0044825077056884766,0.00855875015258789,0
2.11984920501709,-0.05537884682416916,-0.07406957447528839,-0.6549833416938782,0.2028595153611778,-0.5287791999996131,-0.031904353324102255,0.02062152989307368,-0.25611106138336476,0.0,0.0,-0.6,0.0,0.002543210983276367,0.004414081573486328,0.007977724075317383,0
2.1323604583740234,-0.05537884682416916,-0.07406957447528839,-0.6549833416938782,0.2028595153611778,-0.5289012500081974,-0.03113721715619653,0.020253369552244143,-0.2553500612287978,0.0,0.0,-0.6,0.0,0.0022192001342773438,0.0039234161376953125,0.008334159851074219,0
2.1437201499938965,-0.05524560064077377,-0.0725957378745079,-0.6554540991783142,0.20100857194905383,-0.5290830961941267,-0.029038979341102302,0.011044659888896167,-0.25412325734105484,0.0,0.0,-0.6,0.0,0.0012764930725097656,0.0022563934326171875,0.006528139114379883,0
2.1546995639801025,-0.05524560064077377,-0.0725957378745079,-0.6554540991783142,0.20100857194905383,-0.5292311161304158,-0.027632217254474168,0.004777703612238931,-0.25326449461963446,0.0,0.0,-0.6,0.0,0.001543283462524414,0.0032148361206054688,0.008242607116699219,0
2.1644129753112793,-0.05513322725892067,-0.07161611318588257,-0.6556943655014038,0.19985253280156104,-0.5293434866586723,-0.02216820662896023,0.00039845169057777224,-0.2522298460343306,0.0,0.0,-0.6,0.0,0.002346515655517578,0.0038712024688720703,0.0075397491455078125,0
2.175764322280884,-0.05513322725892067,-0.07161611318588257,-0.6556943655014038,0.19985253280156104,-0.5294358324451217,-0.018450673045180634,-0.002578838127374692,-0.25150559202461753,0.0,0.0,-0.6,0.0,0.0017437934875488281,0.00415349006652832,0.008495807647705078,0
2.18831729888916,-0.055035967379808426,-0.07050615549087524,-0.6558812260627747,0.1983427283973429,-0.5295615270975184,-0.016702405937892587,-0.0017419950440617292,-0.25043243756623695,0.0,0.0,-0.6,0.0,0.002311229705810547,0.0034089088439941406,0.0074803829193115234,0
2.1983754634857178,-0.055035967379808426,-0.07050615549087524,-0.6558812260627747,0.1983427283973429,-0.5296619071627106,-0.015521694304191336,-0.0011504354885131405,-0.2496812294453702,0.0,0.0,-0.6,0.0,0.0022792816162109375,0.004128932952880859,0.007865667343139648,0
2.2096917629241943,-0.05495690926909447,-0.06949639320373535,-0.6560003161430359,0.19728219499733868,-0.5297462578071093,-0.010278982820522843,-0.0008281652156606753,-0.24875768373576207,0.0,0.0,-0.6,0.0,0.0017192363739013672,0.0035560131072998047,0.008619546890258789,0
2.222576379776001,-0.05495690926909447,-0.06949639320373535,-0.6560003161430359,0.19728219499733868,-0.5298143924528623,-0.006707064622782305,-0.0005975892985967066,-0.24811120173903609,0.0,0.0,-0.6,0.0,0.0018906593322753906,0.003615856170654297,0.0074689388275146484,0
2.2331392765045166,-0.054897893220186234,-0.06799500435590744,-0.6561757922172546,0.19563339397443136,-0.5299359285487281,-0.0034911410591853278,-0.001640467619178161,-0.2470403639577381,0.0,0.0,-0.6,0.0,0.0022249221801757812,0.004008769989013672,0.007403135299682617,0
2.2441349029541016,-0.054897893220186234,-0.06799500435590744,-0.6561757922172546,0.19563339397443136,-0.5300342439554883,-0.00130764896693762,-0.0023356332603686053,-0.24629077751082917,0.0,0.0,-0.6,0.0,0.0021898746490478516,0.0037207603454589844,0.008632898330688477,0
2.257100820541382,-0.05485996976494789,-0.06690076738595963,-0.6562213897705078,0.19448974068347993,-0.5301882121445916,-0.00154211685082815,-0.0071418532724407315,-0.24533719701388634,0.0,0.0,-0.6,0.0,0.0017900466918945312,0.0042989253997802734,0.008748531341552734,0
2.268958568572998,-0.05489697679877281,-0.0658799409866333,-0.6562353372573853,0.19326097871401018,-0.5303141338320273,0.0021421246556969486,-0.009604902482351733,-0.24420890492747538,0.0,0.0,-0.6,0.0,0.0015726089477539062,0.00376129150390625,0.007371187210083008,0
2.279374122619629,-0.05489697679877281,-0.0658799409866333,-0.6562353372573853,0.19326097871401018,-0.5304169390922002,0.00464363996457697,-0.011269308134736752,-0.24341910046698736,0.0,0.0,-0.6,0.0,0.0016167163848876953,0.0038373470306396484,0.00804758071899414,0
2.2926864624023438,-0.05492042377591133,-0.06531805545091629,-0.6562151312828064,0.19267493382077772,-0.5306017242554465,0.004555453308300329,-0.011912842865195748,-0.24264647050968358,0.0,0.0,-0.6,0.0,0.007256269454956055,0.009008646011352539,0.012598752975463867,0
2.3080801963806152,-0.05497646704316139,-0.06377685070037842,-0.656129777431488,0.19078257693933032,-0.5307293736855497,-0.0002690189974174353,-0.01685942661457137,-0.24139599570902862,0.0,0.0,-0.6,0.0,0.0025429725646972656,0.0042955875396728516,0.0071582794189453125,0
2.3188936710357666,-0.05497646704316139,-0.06377685070037842,-0.656129777431488,0.19078257693933032,-0.5308319927718466,-0.0035834881603337716,-0.020213310921218218,-0.24052066334856978,0.0,0.0,-0.6,0.0,0.002254486083984375,0.003970623016357422,0.00759577751159668,0
2.3303136825561523,-0.055014997720718384,-0.06274379789829254,-0.6560055613517761,0.18953786734857478,-0.5309601233986784,-0.007361771539725245,-0.0192615404727188,-0.23944116459971546,0.0,0.0,-0.6,0.0,0.0016140937805175781,0.003274679183959961,0.006982564926147461,0
2.3413074016571045,-0.055014997720718384,-0.06274379789829254,-0.6560055613517761,0.18953786734857478,-0.5310607051530863,-0.009956711762196176,-0.01858469541805912,-0.2386855154755171,0.0,0.0,-0.6,0.0,0.001590728759765625,0.0030906200408935547,0.0070416927337646484,0
2.3519766330718994,-0.055080875754356384,-0.061763640493154526,-0.6558875441551208,0.18814532976563075,-0.5311629068491382,-0.010488095289014617,-0.017709986949792967,-0.23763435949497455,0.0,0.0,-0.6,0.0,0.0010824203491210938,0.0018944740295410156,0.005277156829833984,0
2.36090087890625,-0.055101428180933,-0.06123919039964676,-0.6557910442352295,0.18732936334557876,-0.5312139299113322,-0.010929151282649104,-0.016117219055346573,-0.23659256290107525,0.0,0.0,-0.6,0.0,0.002970457077026367,0.004381656646728516,0.008695602416992188,0
2.3729333877563477,-0.055101428180933,-0.06123919039964676,-0.6557910442352295,0.18732936334557876,-0.5312536052530145,-0.011235349427753888,-0.015019527382294362,-0.23586330528534544,0.0,0.0,-0.6,0.0,0.0014209747314453125,0.0034050941467285156,0.007911443710327148,0
2.384718894958496,-0.05519437789916992,-0.0602409727871418,-0.6555796265602112,0.18572075456736334,-0.5312936010925966,-0.0117439334979743,-0.013527738404640874,-0.23474959666250417,0.0,0.0,-0.6,0.0,0.0014040470123291016,0.0036852359771728516,0.007853031158447266,0
2.398017644882202,-0.05523551255464554,-0.05973818525671959,-0.6554694175720215,0.18488865167103344,-0.5312679089913941,-0.011673859423830006,-0.013283219661612718,-0.23365796204039155,0.0,0.0,-0.6,0.0,0.0022003650665283203,0.004131793975830078,0.0077970027923583984,0
2.4093170166015625,-0.055307406932115555,-0.05875123292207718,-0.6552917957305908,0.18358011482650072,-0.5313713219895455,-0.012782464513861426,-0.01604460229151227,-0.2324031164882131,0.0,0.0,-0.6,0.0,0.0023436546325683594,0.0033953189849853516,0.007119178771972656,0
2.4194886684417725,-0.055307406932115555,-0.05875123292207718,-0.6552917957305908,0.18358011482650072,-0.5314552450202489,-0.013552107471726613,-0.017911912798123267,-0.23152472460168783,0.0,0.0,-0.6,0.0,0.00213623046875,0.004477024078369141,0.008748292922973633,0
2.4313321113586426,-0.05539390444755554,-0.057766444981098175,-0.6550898551940918,0.1821942111138796,-0.5314725465335055,-0.011383488636126064,-0.019188509279491776,-0.23039013638888745,0.0,0.0,-0.6,0.0,0.0021860599517822266,0.003909587860107422,0.008474588394165039,0
2.4438014030456543,-0.05539390444755554,-0.057766444981098175,-0.6550898551940918,0.1821942111138796,-0.531487580077522,-0.00990504684466745,-0.020059287964505897,-0.22959592463992684,0.0,0.0,-0.6,0.0,0.001834869384765625,0.003145456314086914,0.006936073303222656,0
2.454667091369629,-0.0554872490465641,-0.056763824075460434,-0.6548877358436584,0.18079916800765702,-0.5315147025984425,-0.010849734382654254,-0.014619907760900792,-0.22851683525082125,0.0,0.0,-0.6,0.0,0.002237558364868164,0.004015207290649414,0.007605314254760742,0
2.4662225246429443,-0.055627189576625824,-0.055715687572956085,-0.6546658277511597,0.17932180486654142,-0.5315761411453684,-0.01287829963703535,-0.009815305294746115,-0.2272074615005292,0.0,0.0,-0.6,0.0,0.002141237258911133,0.0037717819213867188,0.007824182510375977,0
