time,x,y,z,yaw,throttle,roll_rate,pitch_rate,yaw_rate,x_ref,y_ref,z_ref,yaw_ref,pred_time,nr_time,metadata
3.0994415283203125e-06,-0.07286520302295685,-0.04660188406705856,-0.23988518118858337,0.017115760187776954,-0.5484473900812505,0.023691483109139575,-0.027379488440798353,-0.006418410070415508,0.0,0.0,-0.6,0.0,0.0022521018981933594,0.00319671630859375,Hardware
0.01132655143737793,-0.07286520302295685,-0.04660188406705856,-0.23988518118858337,0.017115760187776954,-0.557535835575311,0.040082372979168,-0.04527068724814924,-0.010911297119708566,0.0,0.0,-0.6,0.0,0.0017955303192138672,0.0032241344451904297,Nonlinear
0.020518064498901367,-0.07286520302295685,-0.04660188406705856,-0.23988518118858337,0.017115760187776954,-0.564723811385821,0.05101163002527869,-0.05642769844949698,-0.014056318054211937,0.0,0.0,-0.6,0.0,0.0020961761474609375,0.003278493881225586,1x Speed
0.030226945877075195,-0.07275286316871643,-0.04651918262243271,-0.23985809087753296,0.017218293086240375,-0.5704112550370569,0.05776047694203808,-0.06327324586896527,-0.016296282545287713,0.0,0.0,-0.6,0.0,0.002245664596557617,0.003537416458129883,0OrderHold
0.04037594795227051,-0.07267769426107407,-0.046462513506412506,-0.2398442029953003,0.01714149850056274,-0.5749191305741913,0.0621412273922445,-0.06656821154237012,-0.017835459719412892,0.0,0.0,-0.6,0.0,0.0019943714141845703,0.0031578540802001953,QuatYawError
0.05017805099487305,-0.0726371482014656,-0.04643513634800911,-0.2398516982793808,0.017093145231096327,-0.5784911295335691,0.06449151037549516,-0.06821723451293195,-0.018894751265250465,0.0,0.0,-0.6,0.0,0.0014963150024414062,0.00254058837890625,NoPyJoules
0.05959010124206543,-0.0726371482014656,-0.04643513634800911,-0.2398516982793808,0.017093145231096327,-0.5813162795580662,0.06572363273800996,-0.06868882309709075,-0.01963625534733619,0.0,0.0,-0.6,0.0,0.002065420150756836,0.0034363269805908203,0
0.06943845748901367,-0.07260143011808395,-0.04640662297606468,-0.23985648155212402,0.017124994753848363,-0.5835388272521661,0.06647824610146529,-0.06865980423655747,-0.0201672517758284,0.0,0.0,-0.6,0.0,0.0019342899322509766,0.0032472610473632812,0
0.07990217208862305,-0.07257042825222015,-0.046381883323192596,-0.23987090587615967,0.01700666898933885,-0.5852495152896977,0.06670998536654518,-0.0682430056633042,-0.020494577114081904,0.0,0.0,-0.6,0.0,0.0014619827270507812,0.002622365951538086,0
0.09014081954956055,-0.07251554727554321,-0.04630608111619949,-0.2399272918701172,0.016965516493853472,-0.5865389205779833,0.06601165380885918,-0.06710804765765727,-0.02070827266505245,0.0,0.0,-0.6,0.0,0.002442598342895508,0.0035047531127929688,0
0.10009479522705078,-0.07251554727554321,-0.04630608111619949,-0.2399272918701172,0.016965516493853472,-0.5875562139649896,0.06538246753783228,-0.06608683699102635,-0.020857859550731748,0.0,0.0,-0.6,0.0,0.00214385986328125,0.0031282901763916016,0
0.11070895195007324,-0.07248825579881668,-0.04626961797475815,-0.23996484279632568,0.01702542979207062,-0.5883673085179421,0.06473303044484617,-0.06563512425409292,-0.020985037857538743,0.0,0.0,-0.6,0.0,0.0014574527740478516,0.0024385452270507812,0
0.12057852745056152,-0.0723792016506195,-0.04621265083551407,-0.24005059897899628,0.01714710488137958,-0.589001197080372,0.06493079244164777,-0.06204569713228254,-0.021119690830794444,0.0,0.0,-0.6,0.0,0.0015833377838134766,0.0032911300659179688,0
0.12952280044555664,-0.0723792016506195,-0.04621265083551407,-0.24005059897899628,0.01714710488137958,-0.5894986637289091,0.06499543996538527,-0.05945968473330182,-0.021213947912073483,0.0,0.0,-0.6,0.0,0.0022687911987304688,0.0034949779510498047,0
0.13965439796447754,-0.07229217141866684,-0.04619137570261955,-0.2401004433631897,0.017018201765429238,-0.5899116432115796,0.064710819737632,-0.05636516418052394,-0.021231589200487407,0.0,0.0,-0.6,0.0,0.001470327377319336,0.0033020973205566406,0
0.15005207061767578,-0.07204610109329224,-0.046190179884433746,-0.2402285486459732,0.01677297985663876,-0.5902064437927442,0.06451653894268486,-0.053383267082677904,-0.02115197988658073,0.0,0.0,-0.6,0.0,0.001909494400024414,0.003198385238647461,0
0.1595611572265625,-0.07204610109329224,-0.046190179884433746,-0.2402285486459732,0.01677297985663876,-0.5904365041824394,0.06435019036323336,-0.05128030513789216,-0.021096253366846028,0.0,0.0,-0.6,0.0,0.0020012855529785156,0.003348827362060547,0
0.16938543319702148,-0.07188256829977036,-0.04621386155486107,-0.24031156301498413,0.016727428090992667,-0.5906053364961198,0.06511935359362739,-0.0482369274534393,-0.02104016289091448,0.0,0.0,-0.6,0.0,0.0016632080078125,0.003086566925048828,0
0.17963504791259766,-0.07169408351182938,-0.04626309871673584,-0.24042028188705444,0.016702516265557854,-0.5906219645076981,0.06771732734215774,-0.04322902879167296,-0.020991557623224355,0.0,0.0,-0.6,0.0,0.0023734569549560547,0.0035905838012695312,0
0.18966174125671387,-0.07148727029561996,-0.04632020741701126,-0.2405703216791153,0.01673932831131564,-0.5905034512939127,0.07090876655000919,-0.03736393048479332,-0.020971338453000418,0.0,0.0,-0.6,0.0,0.0015301704406738281,0.0027925968170166016,0
0.1995224952697754,-0.07126396894454956,-0.04638689383864403,-0.24077720940113068,0.01691887336518081,-0.5903841806186693,0.07309075047538412,-0.030439545633450187,-0.021024514429043063,0.0,0.0,-0.6,0.0,0.002145528793334961,0.0031986236572265625,0
0.21082019805908203,-0.07079730182886124,-0.04651361703872681,-0.24137277901172638,0.017760143940155793,-0.5899748490805702,0.0750902848069917,-0.018233518644546767,-0.021377214077888517,0.0,0.0,-0.6,0.0,0.0015289783477783203,0.0025458335876464844,0
0.21973609924316406,-0.07079730182886124,-0.04651361703872681,-0.24137277901172638,0.017760143940155793,-0.5896413567326203,0.0765047964375011,-0.009917836705468941,-0.02162410383208046,0.0,0.0,-0.6,0.0,0.0020313262939453125,0.0033540725708007812,0
0.23066163063049316,-0.0705556645989418,-0.04657670855522156,-0.2417876422405243,0.018325166485982765,-0.5891670468868972,0.07771320540401434,-0.0017166165773047637,-0.022008810114699975,0.0,0.0,-0.6,0.0,0.0058939456939697266,0.007162570953369141,0
0.24431824684143066,-0.0705556645989418,-0.04657670855522156,-0.2417876422405243,0.018325166485982765,-0.5887870636547992,0.07859721880253269,0.0038425618800101875,-0.022278104512533602,0.0,0.0,-0.6,0.0,0.0016744136810302734,0.0030472278594970703,0
0.25380373001098633,-0.06965570896863937,-0.046812526881694794,-0.24395790696144104,0.02137881102275017,-0.5877676310718721,0.08469715019572474,0.015508478877526797,-0.02361172729230408,0.0,0.0,-0.6,0.0,0.0014369487762451172,0.0027403831481933594,0
0.26291966438293457,-0.06965570896863937,-0.046812526881694794,-0.24395790696144104,0.02137881102275017,-0.5869564363574925,0.08900581040698488,0.023328725363936084,-0.024545263238144044,0.0,0.0,-0.6,0.0,0.0030727386474609375,0.004225254058837891,0
0.27599430084228516,-0.06937412172555923,-0.04690224677324295,-0.24494010210037231,0.022274937859976553,-0.5859745100379025,0.08854313552634752,0.03453842814670009,-0.025534785964192334,0.0,0.0,-0.6,0.0,0.002422809600830078,0.004435062408447266,0
0.28724098205566406,-0.06937412172555923,-0.04690224677324295,-0.24494010210037231,0.022274937859976553,-0.585189848098535,0.08836375914100375,0.042061825653370626,-0.02622745187242605,0.0,0.0,-0.6,0.0,0.002009868621826172,0.003943204879760742,0
0.2986562252044678,-0.06844653189182281,-0.046968523412942886,-0.24906465411186218,0.02626762731681174,-0.58360189217292,0.07521197274187831,0.056524279571752926,-0.028209576554501514,0.0,0.0,-0.6,0.0,0.0011792182922363281,0.003737926483154297,0
0.309922456741333,-0.06844653189182281,-0.046968523412942886,-0.24906465411186218,0.02626762731681174,-0.5823207462334801,0.0664324524413796,0.06613285773566208,-0.02959706383195528,0.0,0.0,-0.6,0.0,0.0023980140686035156,0.004022121429443359,0
0.3223264217376709,-0.06782666593790054,-0.047248661518096924,-0.2527652978897095,0.02991857129047127,-0.5806918239794535,0.06507323234204719,0.07486484310705309,-0.03193740891629714,0.0,0.0,-0.6,0.0,0.001384735107421875,0.0033462047576904297,0
0.33290719985961914,-0.06782666593790054,-0.047248661518096924,-0.2527652978897095,0.02991857129047127,-0.579396822890928,0.06435922512164394,0.08056704839940114,-0.0335756504753338,0.0,0.0,-0.6,0.0,0.0026454925537109375,0.003774404525756836,0
0.345287561416626,-0.0672416090965271,-0.047439299523830414,-0.2567489445209503,0.0328894790530258,-0.5777162375702346,0.05948710208085531,0.08894285218709023,-0.03583650997761705,0.0,0.0,-0.6,0.0,0.0013735294342041016,0.003496885299682617,0
0.35610532760620117,-0.0672416090965271,-0.047439299523830414,-0.2567489445209503,0.0328894790530258,-0.5763776705225138,0.05638609662712224,0.09439939411067344,-0.037419111629215025,0.0,0.0,-0.6,0.0,0.001127004623413086,0.0021517276763916016,0
0.3659052848815918,-0.06679143756628036,-0.04747619107365608,-0.26067808270454407,0.03647162736438699,-0.5748351498872319,0.047711318571372646,0.098417444641945,-0.03987023840209425,0.0,0.0,-0.6,0.0,0.005099058151245117,0.009454965591430664,0
0.3883702754974365,-0.06679143756628036,-0.04747619107365608,-0.26067808270454407,0.03647162736438699,-0.5736041243504758,0.04200280206930196,0.10092265467413636,-0.04158602714311087,0.0,0.0,-0.6,0.0,0.0023071765899658203,0.004721879959106445,0
0.4016458988189697,-0.0657084509730339,-0.04766668751835823,-0.27048659324645996,0.04342123659588951,-0.5715024055669344,0.03695252692776191,0.11259550946444274,-0.04539318272363567,0.0,0.0,-0.6,0.0,0.0034978389739990234,0.005884885787963867,0
0.41935205459594727,-0.0657084509730339,-0.04766668751835823,-0.27048659324645996,0.04342123659588951,-0.5698280260251508,0.033827265626958605,0.12023936271330313,-0.04805819163000549,0.0,0.0,-0.6,0.0,0.0027840137481689453,0.0043256282806396484,0
0.4346787929534912,-0.06433134526014328,-0.04790526628494263,-0.2820967435836792,0.05109154204641317,-0.5673389799870275,0.023090382086784517,0.12944939396824176,-0.05280006240840404,0.0,0.0,-0.6,0.0,0.003459453582763672,0.006062507629394531,0
0.4525599479675293,-0.06433134526014328,-0.04790526628494263,-0.2820967435836792,0.05109154204641317,-0.56535300376181,0.01616953773644812,0.13539628324408873,-0.056119371953287325,0.0,0.0,-0.6,0.0,0.003191232681274414,0.006117820739746094,0
0.4700503349304199,-0.06310229003429413,-0.04806826636195183,-0.29255467653274536,0.057414472157520144,-0.5629929432211264,0.006211324481530821,0.13937275531528093,-0.060813987426366484,0.0,0.0,-0.6,0.0,0.00319671630859375,0.0057315826416015625,0
0.4866008758544922,-0.06310229003429413,-0.04806826636195183,-0.29255467653274536,0.057414472157520144,-0.5611111128758204,-0.00020475129204509772,0.14183686263823667,-0.06410021825752615,0.0,0.0,-0.6,0.0,0.0025365352630615234,0.004644632339477539,0
0.5000252723693848,-0.06173926964402199,-0.048237163573503494,-0.30360111594200134,0.06426401300324112,-0.5589919218385396,-0.007958014262432549,0.14210777247842207,-0.06896915765649998,0.0,0.0,-0.6,0.0,0.0019822120666503906,0.0037055015563964844,0
0.5160324573516846,-0.06173926964402199,-0.048237163573503494,-0.30360111594200134,0.06426401300324112,-0.5573025625252216,-0.012927778999799883,0.14209752108170792,-0.07237741523576496,0.0,0.0,-0.6,0.0,0.002651214599609375,0.0046613216400146484,0
0.5308206081390381,-0.0602383129298687,-0.04834163188934326,-0.3153095543384552,0.07107987215083138,-0.5553314174564371,-0.021570236355648312,0.1410078958781985,-0.07731914272160945,0.0,0.0,-0.6,0.0,0.002877473831176758,0.004465579986572266,0
0.544572114944458,-0.0602383129298687,-0.04834163188934326,-0.3153095543384552,0.07107987215083138,-0.5537585961014337,-0.027182008259156797,0.14008139543587456,-0.08077835196168792,0.0,0.0,-0.6,0.0,0.002438068389892578,0.003917694091796875,0
0.557091474533081,-0.0586802214384079,-0.048341020941734314,-0.32765254378318787,0.07828147839815487,-0.551753393061963,-0.03550545832601374,0.14637869924612698,-0.0859004007724845,0.0,0.0,-0.6,0.0,0.0026056766510009766,0.004847526550292969,0
0.5693223476409912,-0.0586802214384079,-0.048341020941734314,-0.32765254378318787,0.07828147839815487,-0.5501551914175067,-0.04092098029981735,0.15049583163947064,-0.08948583494004986,0.0,0.0,-0.6,0.0,0.002903461456298828,0.0053098201751708984,0
0.5855352878570557,-0.057588692754507065,-0.04826952517032623,-0.3361947536468506,0.08300236902843146,-0.5484195100732234,-0.04504544938686482,0.15498383175326483,-0.09376597284369984,0.0,0.0,-0.6,0.0,0.002224445343017578,0.004589557647705078,0
0.5985186100006104,-0.05647442862391472,-0.04820048809051514,-0.34499064087867737,0.08791762238248498,-0.5466267232808789,-0.04452757546614516,0.15735862931108624,-0.0986052893840253,0.0,0.0,-0.6,0.0,0.0024204254150390625,0.004576444625854492,0
0.6105780601501465,-0.05647442862391472,-0.04820048809051514,-0.34499064087867737,0.08791762238248498,-0.5451991475688359,-0.043949722465033085,0.15888282109015112,-0.10199281096225206,0.0,0.0,-0.6,0.0,0.002190113067626953,0.0043773651123046875,0
0.6255960464477539,-0.054744817316532135,-0.04824725165963173,-0.35842016339302063,0.09477411234615306,-0.5437202631053482,-0.042632253391400976,0.16524583768570866,-0.10693525980338747,0.0,0.0,-0.6,0.0,0.0016064643859863281,0.0032618045806884766,0
0.6360969543457031,-0.054744817316532135,-0.04824725165963173,-0.35842016339302063,0.09477411234615306,-0.5425442470674656,-0.04156265849305093,0.169528573543149,-0.11039497399218116,0.0,0.0,-0.6,0.0,0.002346515655517578,0.0039021968841552734,0
0.6482770442962646,-0.054744817316532135,-0.04824725165963173,-0.35842016339302063,0.09477411234615306,-0.5416090004349013,-0.040687528017228594,0.17241613833660704,-0.1128167739243402,0.0,0.0,-0.6,0.0,0.002279520034790039,0.0038471221923828125,0
0.6613526344299316,-0.05278861150145531,-0.04856178164482117,-0.37296104431152344,0.1024110426550245,-0.5404452330915385,-0.029722739763835486,0.17386626318699305,-0.11737588274267567,0.0,0.0,-0.6,0.0,0.0027265548706054688,0.004635334014892578,0
0.6731870174407959,-0.05278861150145531,-0.04856178164482117,-0.37296104431152344,0.1024110426550245,-0.539518105687738,-0.022122010903284604,0.1748664682894187,-0.12056725891551504,0.0,0.0,-0.6,0.0,0.00232696533203125,0.004295825958251953,0
0.6885402202606201,-0.051262252032756805,-0.04903477430343628,-0.3852009177207947,0.10872419000636008,-0.5384636383529021,-0.011253170749542903,0.17122509093613938,-0.12516865249324893,0.0,0.0,-0.6,0.0,0.0019335746765136719,0.0033528804779052734,0
0.6985325813293457,-0.051262252032756805,-0.04903477430343628,-0.3852009177207947,0.10872419000636008,-0.5376208325414235,-0.0037086292088385105,0.16877195082003016,-0.12838962799765605,0.0,0.0,-0.6,0.0,0.001552581787109375,0.0030989646911621094,0
0.7089033126831055,-0.05017685517668724,-0.04934198036789894,-0.3939536213874817,0.11278051760397101,-0.5369644157259872,-0.0006061883994380678,0.16554314824694752,-0.13216543369984457,0.0,0.0,-0.6,0.0,0.0024611949920654297,0.0046846866607666016,0
0.721531867980957,-0.05017685517668724,-0.04934198036789894,-0.3939536213874817,0.11278051760397101,-0.5364392182710446,0.0016066408147944024,0.16335199506653328,-0.13480849769137768,0.0,0.0,-0.6,0.0,0.0022470951080322266,0.003983020782470703,0
0.7351024150848389,-0.04868162423372269,-0.04982856288552284,-0.4058130383491516,0.11915246373287874,-0.5358597795250722,0.0052655477494470415,0.15405778403162068,-0.13904812228378965,0.0,0.0,-0.6,0.0,0.00237274169921875,0.004729032516479492,0
0.747704029083252,-0.04868162423372269,-0.04982856288552284,-0.4058130383491516,0.11915246373287874,-0.5353907153529528,0.007862580159820096,0.14774433304736717,-0.1420158594984793,0.0,0.0,-0.6,0.0,0.002309560775756836,0.0044384002685546875,0
0.7616398334503174,-0.04756169021129608,-0.050226643681526184,-0.41426849365234375,0.12302393580008195,-0.5349962887292619,0.010911862905138738,0.14089607400785192,-0.1455450775739627,0.0,0.0,-0.6,0.0,0.0025131702423095703,0.0045092105865478516,0
0.7740316390991211,-0.04658528044819832,-0.050592031329870224,-0.42149409651756287,0.12712165459609368,-0.5346058933393956,0.023005537240391206,0.1360618183482642,-0.149552174775305,0.0,0.0,-0.6,0.0,0.0025882720947265625,0.005069732666015625,0
0.7884001731872559,-0.04658528044819832,-0.050592031329870224,-0.42149409651756287,0.12712165459609368,-0.5342937478272567,0.03131993315334031,0.1328102465857339,-0.1523571428162458,0.0,0.0,-0.6,0.0,0.0024361610412597656,0.004482269287109375,0
0.8021230697631836,-0.045027609914541245,-0.051157303154468536,-0.4326610565185547,0.13288257247796034,-0.5339990474562715,0.03623143172426742,0.12141663888862729,-0.15648096465060307,0.0,0.0,-0.6,0.0,0.0014562606811523438,0.003439188003540039,0
0.8130309581756592,-0.045027609914541245,-0.051157303154468536,-0.4326610565185547,0.13288257247796034,-0.5337565598794916,0.03964919074214641,0.11366967168376885,-0.1593676399346544,0.0,0.0,-0.6,0.0,0.002175569534301758,0.004340648651123047,0
0.8270540237426758,-0.0438816137611866,-0.051562245935201645,-0.44062575697898865,0.13657930050765907,-0.5334266140312008,0.04577074927315325,0.1071343546475806,-0.16277458564462682,0.0,0.0,-0.6,0.0,0.0018465518951416016,0.003972291946411133,0
0.839998722076416,-0.0438816137611866,-0.051562245935201645,-0.44062575697898865,0.13657930050765907,-0.5331617829139237,0.0500094760491538,0.1027039682852114,-0.16515944764160853,0.0,0.0,-0.6,0.0,0.002326488494873047,0.004475116729736328,0
0.8540840148925781,-0.0417584590613842,-0.0524040088057518,-0.4551472067832947,0.14376270625217744,-0.5328207430863038,0.058025057720179095,0.09036152475349662,-0.16952262819368816,0.0,0.0,-0.6,0.0,0.001714944839477539,0.0031256675720214844,0
0.8668591976165771,-0.0417584590613842,-0.0524040088057518,-0.4551472067832947,0.14376270625217744,-0.5325434713649279,0.0635785154990204,0.08198398763559778,-0.17257685458014518,0.0,0.0,-0.6,0.0,0.0023412704467773438,0.004537105560302734,0
0.8790760040283203,-0.0417584590613842,-0.0524040088057518,-0.4551472067832947,0.14376270625217744,-0.5323205111645284,0.06743029752371255,0.07629132772175592,-0.17471481305066602,0.0,0.0,-0.6,0.0,0.0026369094848632812,0.004951953887939453,0
0.8942124843597412,-0.04011911153793335,-0.0531204454600811,-0.4663282334804535,0.14912983272866911,-0.5321397798226326,0.0706547975699289,0.0648888408506401,-0.1782240564087136,0.0,0.0,-0.6,0.0,0.0022139549255371094,0.004038572311401367,0
0.9052619934082031,-0.04011911153793335,-0.0531204454600811,-0.4663282334804535,0.14912983272866911,-0.5319912012526113,0.07291125052151752,0.05712198333357786,-0.18068052675934798,0.0,0.0,-0.6,0.0,0.0016913414001464844,0.004134416580200195,0
0.9192764759063721,-0.03860761597752571,-0.05406934395432472,-0.4772910177707672,0.1541803606767717,-0.5318763518379924,0.07139099984309971,0.045615971522504975,-0.18429400398532936,0.0,0.0,-0.6,0.0,0.0022916793823242188,0.004621267318725586,0
0.9331820011138916,-0.03860761597752571,-0.05406934395432472,-0.4772910177707672,0.1541803606767717,-0.5317776888299135,0.07039649445233453,0.03776381334887398,-0.18682343804351742,0.0,0.0,-0.6,0.0,0.0024552345275878906,0.004740476608276367,0
0.9467403888702393,-0.03727192431688309,-0.05519916117191315,-0.48794975876808167,0.1588999514093026,-0.5315109011420485,0.07260120080610985,0.03103972886862548,-0.19036388840894714,0.0,0.0,-0.6,0.0,0.001859903335571289,0.003969907760620117,0
0.9599323272705078,-0.03727192431688309,-0.05519916117191315,-0.48794975876808167,0.1588999514093026,-0.5312974367075088,0.07417679589553851,0.026465882756246145,-0.192842203664749,0.0,0.0,-0.6,0.0,0.0030968189239501953,0.005403280258178711,0
0.9754512310028076,-0.03651023656129837,-0.05601450800895691,-0.4948744773864746,0.16187990088077356,-0.5310664597519569,0.0731964974711688,0.017392276282962013,-0.19569450539561153,0.0,0.0,-0.6,0.0,0.0015878677368164062,0.0034558773040771484,0
0.9884274005889893,-0.03614616021513939,-0.05645173043012619,-0.49832987785339355,0.16345113967250155,-0.5308484969297719,0.07289884871235139,0.008274046514956848,-0.19828033115411356,0.0,0.0,-0.6,0.0,0.0024056434631347656,0.004865407943725586,0
1.0013031959533691,-0.03537542745471001,-0.057450175285339355,-0.5060860514640808,0.16674281028339363,-0.5306962860745458,0.07165172286595813,-0.0023645812873101853,-0.20132478566414905,0.0,0.0,-0.6,0.0,0.0018155574798583984,0.0033326148986816406,0
1.0140550136566162,-0.03537542745471001,-0.057450175285339355,-0.5060860514640808,0.16674281028339363,-0.5305714506788998,0.07085465775680823,-0.009625601545366494,-0.20345590382117482,0.0,0.0,-0.6,0.0,0.0026407241821289062,0.0045833587646484375,0
1.028397798538208,-0.034699250012636185,-0.05849683657288551,-0.5135695338249207,0.17002263548961263,-0.5303821266125591,0.07025796633861413,-0.015511815068717601,-0.20617762098342438,0.0,0.0,-0.6,0.0,0.0016260147094726562,0.0030601024627685547,0
1.0402772426605225,-0.034699250012636185,-0.05849683657288551,-0.5135695338249207,0.17002263548961263,-0.5302301679821501,0.06990790685808192,-0.01953037552403162,-0.2080828229969999,0.0,0.0,-0.6,0.0,0.0023310184478759766,0.00448918342590332,0
1.0541887283325195,-0.03398014232516289,-0.06008327752351761,-0.5231149792671204,0.17371764303679949,-0.5302471918238912,0.06913118346795037,-0.028425966942928267,-0.210802092236697,0.0,0.0,-0.6,0.0,0.0019061565399169922,0.003650665283203125,0
1.0646047592163086,-0.03398014232516289,-0.06008327752351761,-0.5231149792671204,0.17371764303679949,-0.5302604467854796,0.06861070611057767,-0.03450023325343833,-0.21270558070448578,0.0,0.0,-0.6,0.0,0.0016887187957763672,0.0032083988189697266,0
1.0741238594055176,-0.033682841807603836,-0.061125725507736206,-0.5284501314163208,0.17620806368120984,-0.530271382788674,0.06987275858499911,-0.03866393646554241,-0.21497193037359144,0.0,0.0,-0.6,0.0,0.0015950202941894531,0.0031805038452148438,0
1.0833134651184082,-0.033682841807603836,-0.061125725507736206,-0.5284501314163208,0.17620806368120984,-0.5302823994594145,0.0707393444137867,-0.04150425125318777,-0.2165583751419661,0.0,0.0,-0.6,0.0,0.0018439292907714844,0.003421783447265625,0
1.0942590236663818,-0.0335051566362381,-0.061684686690568924,-0.5314480066299438,0.17729469328293662,-0.5304084164463948,0.07193013347458485,-0.04332987049647435,-0.218076372580476,0.0,0.0,-0.6,0.0,0.002388477325439453,0.00445103645324707,0
1.1116056442260742,-0.033140815794467926,-0.06334026157855988,-0.5394721031188965,0.18072141075946027,-0.5305236491143134,0.06885519781609231,-0.04879596709759758,-0.22042398984112843,0.0,0.0,-0.6,0.0,0.0033588409423828125,0.005143404006958008,0
1.1261377334594727,-0.033140815794467926,-0.06334026157855988,-0.5394721031188965,0.18072141075946027,-0.5306140689713275,0.06672839109193542,-0.052523442992704894,-0.22206732192358586,0.0,0.0,-0.6,0.0,0.0017464160919189453,0.002995729446411133,0
1.1366634368896484,-0.032992247492074966,-0.06496787071228027,-0.5470858812332153,0.18398746028280463,-0.5307956986563868,0.067395759040111,-0.055307531941813454,-0.22444242295255948,0.0,0.0,-0.6,0.0,0.001547098159790039,0.0035042762756347656,0
1.1466395854949951,-0.032992247492074966,-0.06496787071228027,-0.5470858812332153,0.18398746028280463,-0.5309429709263146,0.0678044560807886,-0.05718940362058926,-0.2261049936728417,0.0,0.0,-0.6,0.0,0.0017228126525878906,0.002830028533935547,0
1.1568493843078613,-0.032963693141937256,-0.066090427339077,-0.552411675453186,0.18574090103156574,-0.531086819443964,0.06402067743191477,-0.05717575207673635,-0.2279263334578245,0.0,0.0,-0.6,0.0,0.0021255016326904297,0.004093170166015625,0
1.1682713031768799,-0.032963693141937256,-0.066090427339077,-0.552411675453186,0.18574090103156574,-0.531197389320453,0.06139012155893152,-0.05715085529280212,-0.22920127130731302,0.0,0.0,-0.6,0.0,0.002579212188720703,0.004250764846801758,0
1.1792938709259033,-0.03308355063199997,-0.06764627248048782,-0.5593984723091125,0.18856746130472854,-0.5314048221065756,0.056620212093649314,-0.056303235945532853,-0.23115368790439036,0.0,0.0,-0.6,0.0,0.0015096664428710938,0.0033409595489501953,0
1.1895482540130615,-0.03308355063199997,-0.06764627248048782,-0.5593984723091125,0.18856746130472854,-0.5315645854125691,0.053294473036810834,-0.0556970536975573,-0.23252037952234508,0.0,0.0,-0.6,0.0,0.0026793479919433594,0.0042111873626708984,0
1.2004303932189941,-0.033152010291814804,-0.06817664206027985,-0.5618365406990051,0.1895498290192249,-0.5317789115484182,0.047859053983399416,-0.05227706637419023,-0.23384545154784955,0.0,0.0,-0.6,0.0,0.0021600723266601562,0.0036363601684570312,0
1.211740255355835,-0.033152010291814804,-0.06817664206027985,-0.5618365406990051,0.1895498290192249,-0.531941842448189,0.0440749464272451,-0.0499097484774319,-0.2347730019657031,0.0,0.0,-0.6,0.0,0.0014913082122802734,0.0025315284729003906,0
1.2210216522216797,-0.0333753377199173,-0.06926069408655167,-0.5665850639343262,0.1911413291445098,-0.5320188266493932,0.04304660937431997,-0.04455568016292522,-0.2360190998051821,0.0,0.0,-0.6,0.0,0.001758575439453125,0.0032629966735839844,0
1.2329540252685547,-0.0333753377199173,-0.06926069408655167,-0.5665850639343262,0.1911413291445098,-0.5320755199812144,0.042315289006911554,-0.04088505733505883,-0.23689136829281776,0.0,0.0,-0.6,0.0,0.0021669864654541016,0.0036492347717285156,0
1.2434360980987549,-0.03378777578473091,-0.07088478654623032,-0.5733721852302551,0.19350717178178706,-0.5322794304440963,0.040424557469213335,-0.040048237082715654,-0.23838914722314108,0.0,0.0,-0.6,0.0,0.0017168521881103516,0.0029821395874023438,0
1.2537055015563965,-0.03378777578473091,-0.07088478654623032,-0.5733721852302551,0.19350717178178706,-0.5324399120290101,0.03907169114240991,-0.03944233978942279,-0.23943759247436786,0.0,0.0,-0.6,0.0,0.001992940902709961,0.0032494068145751953,0
1.264557123184204,-0.03392685949802399,-0.07140977680683136,-0.5755180716514587,0.19427859065819247,-0.5326761437691517,0.0377377518216574,-0.03765249122697373,-0.24046078622887865,0.0,0.0,-0.6,0.0,0.0016148090362548828,0.002763032913208008,0
1.2754499912261963,-0.03418819606304169,-0.07244953513145447,-0.5796730518341064,0.19565899588778954,-0.5329859013249059,0.03732039913099499,-0.032359329390097794,-0.2416946738181349,0.0,0.0,-0.6,0.0,0.0020971298217773438,0.003526926040649414,0
1.2845203876495361,-0.03418819606304169,-0.07244953513145447,-0.5796730518341064,0.19565899588778954,-0.5332288899872667,0.03693889456347242,-0.0286804469241201,-0.2425583951306146,0.0,0.0,-0.6,0.0,0.0026884078979492188,0.004140138626098633,0
1.2970058917999268,-0.03448486328125,-0.07346268743276596,-0.583660900592804,0.19696156984125557,-0.5335519496523079,0.03459298041197028,-0.02028016798968109,-0.2436514652819,0.0,0.0,-0.6,0.0,0.0022385120391845703,0.004231929779052734,0
1.3067431449890137,-0.03448486328125,-0.07346268743276596,-0.583660900592804,0.19696156984125557,-0.5338012275650722,0.032883634519331136,-0.014475651226603731,-0.24441661438780007,0.0,0.0,-0.6,0.0,0.002100706100463867,0.0033981800079345703,0
1.3177011013031006,-0.03485240787267685,-0.07444654405117035,-0.587459921836853,0.19805114328499962,-0.5340273070144456,0.028866743939633933,-0.008013820042073405,-0.24536080880333394,0.0,0.0,-0.6,0.0,0.002679586410522461,0.00449681282043457,0
1.3283908367156982,-0.03485240787267685,-0.07444654405117035,-0.587459921836853,0.19805114328499962,-0.534199375509526,0.02604681900385234,-0.0035535415354608513,-0.24602174489420794,0.0,0.0,-0.6,0.0,0.002277851104736328,0.0038290023803710938,0
1.3395459651947021,-0.0354183167219162,-0.0758882686495781,-0.592928946018219,0.19959052555210638,-0.5344057988884445,0.02612076894764168,0.001378251806756204,-0.24706166850798442,0.0,0.0,-0.6,0.0,0.0017821788787841797,0.0037903785705566406,0
1.350085735321045,-0.0354183167219162,-0.0758882686495781,-0.592928946018219,0.19959052555210638,-0.5345673880253714,0.026108043744391993,0.004792732617881329,-0.24778961503762825,0.0,0.0,-0.6,0.0,0.002367734909057617,0.0036857128143310547,0
1.3605575561523438,-0.0354183167219162,-0.0758882686495781,-0.592928946018219,0.19959052555210638,-0.5346943128826087,0.02605098692847627,0.0071589453066648046,-0.24829917760837916,0.0,0.0,-0.6,0.0,0.0025222301483154297,0.004073619842529297,0
1.3722004890441895,-0.03584744781255722,-0.07685635983943939,-0.5968968272209167,0.2006718304254132,-0.5349372034348286,0.022442496344342443,0.013223466828469987,-0.2490613607353946,0.0,0.0,-0.6,0.0,0.002845287322998047,0.004092216491699219,0
1.3843095302581787,-0.03605155646800995,-0.07729816436767578,-0.5985704064369202,0.20110962935037924,-0.5351636513239282,0.019072630372696388,0.018647723688748254,-0.24975906352116772,0.0,0.0,-0.6,0.0,0.0016026496887207031,0.003042459487915039,0
1.395164966583252,-0.03605155646800995,-0.07729816436767578,-0.5985704064369202,0.20110962935037924,-0.535338092984218,0.016699631089390935,0.022401253191260212,-0.25024745547120913,0.0,0.0,-0.6,0.0,0.001856088638305664,0.003459453582763672,0
1.406175136566162,-0.03652147576212883,-0.07829137146472931,-0.602259635925293,0.20201737890950983,-0.5354627353499052,0.018128734552340466,0.025979150104840597,-0.2509297359209119,0.0,0.0,-0.6,0.0,0.00194549560546875,0.003514528274536133,0
1.416703224182129,-0.03652147576212883,-0.07829137146472931,-0.602259635925293,0.20201737890950983,-0.5355614094311353,0.019069764329073292,0.028450774483109047,-0.251407332235704,0.0,0.0,-0.6,0.0,0.0016772747039794922,0.0029497146606445312,0
1.4272196292877197,-0.03687188774347305,-0.07912075519561768,-0.605400562286377,0.20270155816622804,-0.5357327841361145,0.017716938196952036,0.033391247482661486,-0.2519982168773277,0.0,0.0,-0.6,0.0,0.002449512481689453,0.0044403076171875,0
1.439054250717163,-0.037232495844364166,-0.07989250868558884,-0.6080037355422974,0.20335857592989556,-0.5358804759951953,0.020306403620715327,0.04038845764568484,-0.2526582177878396,0.0,0.0,-0.6,0.0,0.0015664100646972656,0.0027430057525634766,0
1.449432373046875,-0.037232495844364166,-0.07989250868558884,-0.6080037355422974,0.20335857592989556,-0.5359965937017849,0.022032353377754315,0.04520269049171166,-0.2531202184252045,0.0,0.0,-0.6,0.0,0.0023450851440429688,0.003877878189086914,0
1.4614310264587402,-0.03761909529566765,-0.08066017180681229,-0.6109873652458191,0.20386399907008593,-0.5360711205511932,0.020107809109194113,0.047754059727340356,-0.2536331525489248,0.0,0.0,-0.6,0.0,0.0017848014831542969,0.0033702850341796875,0
1.4717965126037598,-0.03761909529566765,-0.08066017180681229,-0.6109873652458191,0.20386399907008593,-0.5361278322642031,0.018769862171425875,0.049512573258134344,-0.2539922064355292,0.0,0.0,-0.6,0.0,0.0013453960418701172,0.006732463836669922,0
1.484478235244751,-0.03796575590968132,-0.08130320906639099,-0.6135222911834717,0.20427891339321333,-0.5362000101361611,0.02075944541126884,0.05444596609594821,-0.25439913702732503,0.0,0.0,-0.6,0.0,0.0015025138854980469,0.002740144729614258,0
1.4948821067810059,-0.03815891966223717,-0.08163918554782867,-0.6149730682373047,0.2044371300446402,-0.5362242936049059,0.022429099739309028,0.05847137240991934,-0.25474331968586245,0.0,0.0,-0.6,0.0,0.002379179000854492,0.004584550857543945,0
1.5095112323760986,-0.038503170013427734,-0.08221102505922318,-0.6174703240394592,0.20466467295183996,-0.5362388647439611,0.019188086507396677,0.05753840194703729,-0.25506957613704334,0.0,0.0,-0.6,0.0,0.0025424957275390625,0.0048253536224365234,0
1.5232203006744385,-0.038884833455085754,-0.08277121186256409,-0.620270311832428,0.20483899202063968,-0.5362117271932646,0.019808153424770915,0.057994432348645174,-0.25536332530366995,0.0,0.0,-0.6,0.0,0.002465486526489258,0.00480961799621582,0
1.5369455814361572,-0.038884833455085754,-0.08277121186256409,-0.620270311832428,0.20483899202063968,-0.5361904263526287,0.020239298335833857,0.05830129162771629,-0.25556894972030864,0.0,0.0,-0.6,0.0,0.0022957324981689453,0.004651069641113281,0
1.5508551597595215,-0.039400093257427216,-0.08347326517105103,-0.6240398287773132,0.20520047109732664,-0.5361484671762353,0.01861620943513953,0.05681448543135525,-0.25584844146571323,0.0,0.0,-0.6,0.0,0.0025157928466796875,0.0049173831939697266,0
1.5649998188018799,-0.039400093257427216,-0.08347326517105103,-0.6240398287773132,0.20520047109732664,-0.5361139899498443,0.017518419765778195,0.05579175412125416,-0.25604408568749654,0.0,0.0,-0.6,0.0,0.0027620792388916016,0.00520777702331543,0
1.5792338848114014,-0.03996516019105911,-0.08409182727336884,-0.627673864364624,0.2053556323811471,-0.5362911395315156,0.014876992416954254,0.05267796631181794,-0.25623922212417755,0.0,0.0,-0.6,0.0,0.002332448959350586,0.004567623138427734,0
1.5931355953216553,-0.03996516019105911,-0.08409182727336884,-0.627673864364624,0.2053556323811471,-0.5364311289879483,0.01302244052948482,0.05058115967851656,-0.2563758176298524,0.0,0.0,-0.6,0.0,0.0025687217712402344,0.004828691482543945,0
1.6070218086242676,-0.040349796414375305,-0.08445665240287781,-0.6302012801170349,0.20559133000501648,-0.5365642613530682,0.008234404234013969,0.04896920192842776,-0.25655982109277764,0.0,0.0,-0.6,0.0,0.0026504993438720703,0.004950284957885742,0
1.622067928314209,-0.040349796414375305,-0.08445665240287781,-0.6302012801170349,0.20559133000501648,-0.5366668861428778,0.004923812040717328,0.047892313505715815,-0.25668862351682536,0.0,0.0,-0.6,0.0,0.002220630645751953,0.004354953765869141,0
1.6356337070465088,-0.040891461074352264,-0.08489777892827988,-0.6337974071502686,0.2058718744501693,-0.5367537461997762,0.0011627968355950053,0.049319499884456525,-0.25688398938059104,0.0,0.0,-0.6,0.0,0.0026009082794189453,0.004937887191772461,0
1.6487722396850586,-0.040891461074352264,-0.08489777892827988,-0.6337974071502686,0.2058718744501693,-0.536819480300543,-0.0014331832669386923,0.050310748197220326,-0.2570207454852271,0.0,0.0,-0.6,0.0,0.002462625503540039,0.00474238395690918,0
1.6629033088684082,-0.04147860407829285,-0.08526133745908737,-0.6371485590934753,0.20622510429445548,-0.5369524110734799,-0.006129979007495238,0.04213073697599952,-0.2572489359500795,0.0,0.0,-0.6,0.0,0.0041942596435546875,0.00661158561706543,0
1.6777925491333008,-0.04147860407829285,-0.08526133745908737,-0.6371485590934753,0.20622510429445548,-0.5370564918648868,-0.009374572022440388,0.036561259039261725,-0.2574086692754763,0.0,0.0,-0.6,0.0,0.0025284290313720703,0.004961252212524414,0
1.6915149688720703,-0.04204725846648216,-0.08552969992160797,-0.6402374505996704,0.20649814749272158,-0.5373184518391736,-0.010174739249952294,0.03276548975779257,-0.2576228738026038,0.0,0.0,-0.6,0.0,0.0027952194213867188,0.004994630813598633,0
1.706212043762207,-0.04204725846648216,-0.08552969992160797,-0.6402374505996704,0.20649814749272158,-0.537528154341678,-0.010786122441116538,0.030212590295821733,-0.2577728169715931,0.0,0.0,-0.6,0.0,0.002792835235595703,0.005124092102050781,0
1.7206029891967773,-0.04264069348573685,-0.08577410131692886,-0.6430296897888184,0.20665032881127074,-0.5377795671137566,-0.012860529651046133,0.025391424847904215,-0.2579348451843415,0.0,0.0,-0.6,0.0,0.002459287643432617,0.0045166015625,0
1.7341322898864746,-0.04264069348573685,-0.08577410131692886,-0.6430296897888184,0.20665032881127074,-0.5379802901019858,-0.014339813064625076,0.02213446336648524,-0.25804826493326544,0.0,0.0,-0.6,0.0,0.002615690231323242,0.004931211471557617,0
1.7482976913452148,-0.04327661916613579,-0.08587466180324554,-0.64549320936203,0.2066425275713352,-0.5383617714983158,-0.014866879195794134,0.013913288333306299,-0.25812473329253643,0.0,0.0,-0.6,0.0,0.002579927444458008,0.004836082458496094,0
1.7617335319519043,-0.04327661916613579,-0.08587466180324554,-0.64549320936203,0.2066425275713352,-0.5386683832161564,-0.015313960735874566,0.008349891627354415,-0.25817826114402614,0.0,0.0,-0.6,0.0,0.00263214111328125,0.004904270172119141,0
1.775629997253418,-0.04370937868952751,-0.08588368445634842,-0.6468990445137024,0.20661316135581792,-0.5390989167509208,-0.01468702154049061,0.0029974484265934817,-0.25820471830925,0.0,0.0,-0.6,0.0,0.0025217533111572266,0.004883527755737305,0
1.7901744842529297,-0.044177182018756866,-0.0858282521367073,-0.6481360793113708,0.20659318411559127,-0.5395924172697303,-0.016365475921526748,-0.0011052706029775084,-0.25821574685982174,0.0,0.0,-0.6,0.0,0.002321958541870117,0.004475593566894531,0
1.8031017780303955,-0.044177182018756866,-0.0858282521367073,-0.6481360793113708,0.20659318411559127,-0.5399868899244384,-0.017622538543394017,-0.003828138700583819,-0.25822346684522196,0.0,0.0,-0.6,0.0,0.0028116703033447266,0.005072593688964844,0
1.817368984222412,-0.04469979554414749,-0.08572503924369812,-0.6493352055549622,0.2061932345070723,-0.5403606220762519,-0.01625031408614264,-0.007561891784617506,-0.2580788897318096,0.0,0.0,-0.6,0.0,0.0023736953735351562,0.004481792449951172,0
1.8302063941955566,-0.04469979554414749,-0.08572503924369812,-0.6493352055549622,0.2061932345070723,-0.5406613057161529,-0.015389197627544258,-0.010051186989530473,-0.2579776857524189,0.0,0.0,-0.6,0.0,0.002076387405395508,0.0042476654052734375,0
1.843212604522705,-0.04541869834065437,-0.08556867390871048,-0.6504946947097778,0.20583509350538973,-0.5411138238901075,-0.016240021930888214,-0.015023032071318991,-0.2577725400912174,0.0,0.0,-0.6,0.0,0.005133628845214844,0.007297515869140625,0
1.8592116832733154,-0.04541869834065437,-0.08556867390871048,-0.6504946947097778,0.20583509350538973,-0.5414769332226954,-0.016913831418638687,-0.018341453776730444,-0.2576289381283715,0.0,0.0,-0.6,0.0,0.002318859100341797,0.004373073577880859,0
1.8727035522460938,-0.046237822622060776,-0.0853346660733223,-0.6513411402702332,0.20526919395395785,-0.5420826704097153,-0.01403730040613382,-0.023381729280892435,-0.25731620442259023,0.0,0.0,-0.6,0.0,0.002829313278198242,0.005105495452880859,0
1.886270523071289,-0.046237822622060776,-0.0853346660733223,-0.6513411402702332,0.20526919395395785,-0.5425699177575236,-0.012181562246039893,-0.02671456245257305,-0.2570972908285476,0.0,0.0,-0.6,0.0,0.002363443374633789,0.0044748783111572266,0
1.8997998237609863,-0.04708600044250488,-0.08505205810070038,-0.6517549157142639,0.20458403149764737,-0.5431175603349682,-0.01079652427153799,-0.03059708137409697,-0.2566871153916015,0.0,0.0,-0.6,0.0,0.0027761459350585938,0.00506901741027832,0
1.9136557579040527,-0.04708600044250488,-0.08505205810070038,-0.6517549157142639,0.20458403149764737,-0.5435573536312267,-0.00995038868845326,-0.033143716032193085,-0.2563999925857391,0.0,0.0,-0.6,0.0,0.0026619434356689453,0.0050961971282958984,0
1.9278228282928467,-0.04796304553747177,-0.08470170944929123,-0.6519438624382019,0.2036900314635737,-0.5440495943521445,-0.0071199216942143245,-0.03535986678992638,-0.255863756608858,0.0,0.0,-0.6,0.0,0.0022068023681640625,0.004395961761474609,0
1.9406509399414062,-0.04796304553747177,-0.08470170944929123,-0.6519438624382019,0.2036900314635737,-0.5444447745771867,-0.005270615668589156,-0.0367738079822345,-0.2554883914250411,0.0,0.0,-0.6,0.0,0.002573251724243164,0.0049402713775634766,0
1.9547803401947021,-0.04888273775577545,-0.08426425606012344,-0.6519377827644348,0.20262509375356572,-0.5448445287109642,-0.0041671922214432736,-0.03863904922513921,-0.25482628415511654,0.0,0.0,-0.6,0.0,0.002391815185546875,0.004629850387573242,0
1.9686110019683838,-0.04888273775577545,-0.08426425606012344,-0.6519377827644348,0.20262509375356572,-0.5451650652933724,-0.003483174585490017,-0.03982783003596235,-0.2543628090661692,0.0,0.0,-0.6,0.0,0.0020961761474609375,0.0042989253997802734,0
1.9823822975158691,-0.04954906553030014,-0.0838894471526146,-0.651862382888794,0.20200300859643505,-0.5454177191068101,-0.003618851902092338,-0.039647745339788605,-0.2538050945699821,0.0,0.0,-0.6,0.0,0.0025436878204345703,0.0046961307525634766,0
1.9958510398864746,-0.05028768256306648,-0.08344338089227676,-0.6517634987831116,0.20103649666722417,-0.54572896768278,-0.0029088869215337073,-0.041924560257465604,-0.2530522524491973,0.0,0.0,-0.6,0.0,0.0025014877319335938,0.004760265350341797,0
2.0097854137420654,-0.05028768256306648,-0.08344338089227676,-0.6517634987831116,0.20103649666722417,-0.5459792340880292,-0.0024763258764359504,-0.04341067743993996,-0.2525252629646477,0.0,0.0,-0.6,0.0,0.0024433135986328125,0.004842519760131836,0
2.0244150161743164,-0.051336389034986496,-0.08267524093389511,-0.651633620262146,0.1997956163520884,-0.546187435382724,-0.0011527512651744584,-0.04250129702202919,-0.2516910402072874,0.0,0.0,-0.6,0.0,0.0024347305297851562,0.00461268424987793,0
2.037193775177002,-0.051336389034986496,-0.08267524093389511,-0.651633620262146,0.1997956163520884,-0.546353018485528,-0.0002823202822935765,-0.04182863144898938,-0.2511070842771349,0.0,0.0,-0.6,0.0,0.0025033950805664062,0.004919767379760742,0
2.051323890686035,-0.05210861191153526,-0.08208691328763962,-0.6515246033668518,0.19909264823800352,-0.5464689943815061,-0.0013106205900421887,-0.03962651225163273,-0.2504347020832464,0.0,0.0,-0.6,0.0,0.002541065216064453,0.004764556884765625,0
2.065865993499756,-0.052812349051237106,-0.08150742202997208,-0.6514344215393066,0.19816528962259522,-0.5466484787562959,-0.006578960558485101,-0.0403287609294375,-0.24961627506674652,0.0,0.0,-0.6,0.0,0.0022058486938476562,0.004306793212890625,0
2.0797481536865234,-0.05322028696537018,-0.08119433373212814,-0.6513540744781494,0.19781806328036575,-0.5467439188480001,-0.00914886517248954,-0.03935824811488626,-0.24891316627686041,0.0,0.0,-0.6,0.0,0.0024466514587402344,0.004677534103393555,0
2.093475580215454,-0.054042428731918335,-0.08052593469619751,-0.651154100894928,0.19707734340729086,-0.5469128741826116,-0.009425363132818896,-0.038910315098346554,-0.24814322017153712,0.0,0.0,-0.6,0.0,0.0023756027221679688,0.004414558410644531,0
2.1071908473968506,-0.054042428731918335,-0.08052593469619751,-0.651154100894928,0.19707734340729086,-0.5470468785064374,-0.009641900685401775,-0.038561292338676584,-0.24760425789781057,0.0,0.0,-0.6,0.0,0.002547025680541992,0.005007028579711914,0
2.121675491333008,-0.055281221866607666,-0.07946361601352692,-0.6508315205574036,0.19586505978306232,-0.5471797182228247,-0.012357712688262705,-0.041745154818053,-0.2467723779471166,0.0,0.0,-0.6,0.0,0.0022106170654296875,0.004538059234619141,0
2.1352033615112305,-0.055281221866607666,-0.07946361601352692,-0.6508315205574036,0.19586505978306232,-0.547287231219929,-0.014238149924562463,-0.04388954946147778,-0.24619006198163057,0.0,0.0,-0.6,0.0,0.0026845932006835938,0.005005836486816406,0
2.1496076583862305,-0.05612732842564583,-0.07869959622621536,-0.6505911946296692,0.19477655087635504,-0.5474258444077361,-0.019482364524665577,-0.04151705298210745,-0.24537424996577534,0.0,0.0,-0.6,0.0,0.002105236053466797,0.004205465316772461,0
2.162985324859619,-0.05612732842564583,-0.07869959622621536,-0.6505911946296692,0.19477655087635504,-0.5475313518656857,-0.02309294104816572,-0.03985199660039816,-0.24480318155467642,0.0,0.0,-0.6,0.0,0.0025892257690429688,0.0046880245208740234,0
2.1763949394226074,-0.057478711009025574,-0.0774688795208931,-0.6502406597137451,0.19361794780167016,-0.5476124536956954,-0.026826266727913606,-0.043662103541349785,-0.24396895751390063,0.0,0.0,-0.6,0.0,0.002486705780029297,0.004883527755737305,0
2.189937114715576,-0.057478711009025574,-0.0774688795208931,-0.6502406597137451,0.19361794780167016,-0.5476792523521204,-0.029393902296320763,-0.04624729743174994,-0.24338500068535734,0.0,0.0,-0.6,0.0,0.001802682876586914,0.0034868717193603516,0
2.202960968017578,-0.0588427409529686,-0.07613760977983475,-0.649872362613678,0.19223123393556918,-0.547707551813963,-0.034262766161916786,-0.047727034901813924,-0.2424562132055895,0.0,0.0,-0.6,0.0,0.0018167495727539062,0.0037267208099365234,0
2.2152976989746094,-0.0588427409529686,-0.07613760977983475,-0.649872362613678,0.19223123393556918,-0.5477298687908347,-0.03759885915034584,-0.04872907162837033,-0.24180606196975174,0.0,0.0,-0.6,0.0,0.0023996829986572266,0.004698276519775391,0
2.228180170059204,-0.059764035046100616,-0.07517735660076141,-0.6496430039405823,0.19134258850111133,-0.5478049818265996,-0.04201411988429624,-0.04401399220599227,-0.24101771406674374,0.0,0.0,-0.6,0.0,0.0023140907287597656,0.004174709320068359,0
2.2410836219787598,-0.060233961790800095,-0.07468254864215851,-0.6495091319084167,0.19082600320112675,-0.547847896058832,-0.04549819406045972,-0.041075234406484196,-0.2402721510471439,0.0,0.0,-0.6,0.0,0.0022237300872802734,0.004509687423706055,0
2.254521369934082,-0.06114157289266586,-0.07369834929704666,-0.6492892503738403,0.18998254958154842,-0.5478614416035429,-0.04789902702695878,-0.04211236949766498,-0.2394339618260822,0.0,0.0,-0.6,0.0,0.0021085739135742188,0.004079103469848633,0
2.2677161693573,-0.06114157289266586,-0.07369834929704666,-0.6492892503738403,0.18998254958154842,-0.5478728145324221,-0.049543871914081376,-0.04281737751098216,-0.2388472293713388,0.0,0.0,-0.6,0.0,0.002595663070678711,0.004946231842041016,0
2.2814717292785645,-0.06248554587364197,-0.07211793959140778,-0.6489459872245789,0.18856947140331984,-0.5479534594109559,-0.05363325175600129,-0.041422704943781745,-0.23790661233618302,0.0,0.0,-0.6,0.0,0.0023412704467773438,0.003715038299560547,0
2.2939321994781494,-0.06248554587364197,-0.07211793959140778,-0.6489459872245789,0.18856947140331984,-0.5480153727306641,-0.056440817473878975,-0.04044101177887242,-0.2372481804115737,0.0,0.0,-0.6,0.0,0.0025930404663085938,0.0048065185546875,0
2.308204174041748,-0.0634688213467598,-0.07091844081878662,-0.6486493945121765,0.187498855034662,-0.5480477387013051,-0.0599025075967793,-0.035986222125240754,-0.2363857969261007,0.0,0.0,-0.6,0.0,0.0023813247680664062,0.004519462585449219,0
2.320624828338623,-0.0634688213467598,-0.07091844081878662,-0.6486493945121765,0.187498855034662,-0.5480679144495592,-0.06227365721435111,-0.03292343096870404,-0.23578212848626934,0.0,0.0,-0.6,0.0,0.0021562576293945312,0.004077911376953125,0
2.3326783180236816,-0.06480283290147781,-0.06900060176849365,-0.6481364369392395,0.18598432196534234,-0.5482692843012983,-0.06612702458952455,-0.027242912371994214,-0.2347916106773929,0.0,0.0,-0.6,0.0,0.0020842552185058594,0.0042209625244140625,0
2.343970537185669,-0.06480283290147781,-0.06900060176849365,-0.6481364369392395,0.18598432196534234,-0.5484228974375184,-0.06877993088430948,-0.02328743418225757,-0.2340982482111791,0.0,0.0,-0.6,0.0,0.002565622329711914,0.004714250564575195,0
2.3565850257873535,-0.06480283290147781,-0.06900060176849365,-0.6481364369392395,0.18598432196534234,-0.5485409153274188,-0.07060714399068534,-0.020531308312844165,-0.23361289448482922,0.0,0.0,-0.6,0.0,0.0023758411407470703,0.004764080047607422,0
2.3706555366516113,-0.06593377888202667,-0.06730777770280838,-0.6477043628692627,0.18463801402344107,-0.5486070646872152,-0.06799396554177102,-0.01339430739739514,-0.23276828139817168,0.0,0.0,-0.6,0.0,0.00335693359375,0.005810976028442383,0
2.3853747844696045,-0.06672123819589615,-0.06611679494380951,-0.6472664475440979,0.18370652748025995,-0.5486809603234429,-0.06462638566631125,-0.006422491226836484,-0.2318277447838186,0.0,0.0,-0.6,0.0,0.0022780895233154297,0.004670143127441406,0
2.3986690044403076,-0.06672123819589615,-0.06611679494380951,-0.6472664475440979,0.18370652748025995,-0.5487317316211434,-0.06232497565152546,-0.0016270414026896734,-0.23116936915377115,0.0,0.0,-0.6,0.0,0.0027418136596679688,0.004848480224609375,0
2.4136428833007812,-0.0675300657749176,-0.06482645869255066,-0.6466876268386841,0.1825438037638503,-0.5488950174615868,-0.059942054411069666,0.003128499557905319,-0.23027248481908455,0.0,0.0,-0.6,0.0,0.0025408267974853516,0.004872560501098633,0
2.4276256561279297,-0.0675300657749176,-0.06482645869255066,-0.6466876268386841,0.1825438037638503,-0.5490199875775765,-0.058319451984059,0.00643247636400412,-0.22964466578480366,0.0,0.0,-0.6,0.0,0.0024411678314208984,0.004808902740478516,0
2.441230297088623,-0.06875123083591461,-0.06244361028075218,-0.6457499265670776,0.18054335089914528,-0.5491684201660466,-0.05799900201929106,0.014825838877397163,-0.22845502263654324,0.0,0.0,-0.6,0.0,0.0018582344055175781,0.0041120052337646484,0
2.4539520740509033,-0.06875123083591461,-0.06244361028075218,-0.6457499265670776,0.18054335089914528,-0.5492779507420203,-0.0577822393003656,0.020619780753084488,-0.2276222724327606,0.0,0.0,-0.6,0.0,0.0016582012176513672,0.003818988800048828,0
2.4671661853790283,-0.06933050602674484,-0.06111301854252815,-0.6452443599700928,0.17957688912152248,-0.5492820685750481,-0.05492034988607148,0.028646204014019072,-0.2266769241235043,0.0,0.0,-0.6,0.0,0.0019268989562988281,0.0035376548767089844,0
2.4792373180389404,-0.06933050602674484,-0.06111301854252815,-0.6452443599700928,0.17957688912152248,-0.5492775671750278,-0.052959477333157555,0.0341416506153082,-0.2260151803070246,0.0,0.0,-0.6,0.0,0.0020356178283691406,0.004419088363647461,0
2.4921586513519287,-0.07002457231283188,-0.05926692858338356,-0.6446318626403809,0.17791278212041753,-0.5493318097026784,-0.05320510492279127,0.03761920636366912,-0.2249279195100749,0.0,0.0,-0.6,0.0,0.0026717185974121094,0.004950284957885742,0
2.5054855346679688,-0.07002457231283188,-0.05926692858338356,-0.6446318626403809,0.17791278212041753,-0.5493723285683112,-0.05337361200919191,0.04001545892568556,-0.22416683695220976,0.0,0.0,-0.6,0.0,0.002468109130859375,0.004717350006103516,0
2.521169662475586,-0.07053477317094803,-0.05782703682780266,-0.644088864326477,0.17675683513949647,-0.5494439562482484,-0.05238517504167165,0.04254066895000255,-0.22320059904385897,0.0,0.0,-0.6,0.0,0.0024149417877197266,0.004730224609375,0
2.534411907196045,-0.07097993046045303,-0.056418128311634064,-0.6436517238616943,0.17561516855141127,-0.5494347001615948,-0.05179396334119966,0.04764857281059534,-0.2220961075374816,0.0,0.0,-0.6,0.0,0.0025453567504882812,0.004323720932006836,0
2.546535015106201,-0.07097993046045303,-0.056418128311634064,-0.6436517238616943,0.17561516855141127,-0.5494234586252058,-0.051386610771863094,0.05114260658924712,-0.2213229634830171,0.0,0.0,-0.6,0.0,0.0023272037506103516,0.004145145416259766,0
2.559563398361206,-0.07141422480344772,-0.054936327040195465,-0.643283486366272,0.17462950464002863,-0.5494573337953599,-0.049417008720525735,0.05210696601720344,-0.22041213867812362,0.0,0.0,-0.6,0.0,0.0019712448120117188,0.004317760467529297,0
2.5714986324310303,-0.07141422480344772,-0.054936327040195465,-0.643283486366272,0.17462950464002863,-0.5494832690566028,-0.04806987591440987,0.05277517085848911,-0.2197745613146979,0.0,0.0,-0.6,0.0,0.002213716506958008,0.0043413639068603516,0
2.584505558013916,-0.07182370871305466,-0.05346311256289482,-0.6429025530815125,0.17347933685924208,-0.5494643945867661,-0.04418887729440445,0.0533746064285936,-0.2188969442425052,0.0,0.0,-0.6,0.0,0.002371549606323242,0.0039691925048828125,0
2.5961363315582275,-0.0721840038895607,-0.05195210501551628,-0.64255291223526,0.1723951632176456,-0.549444621316825,-0.043478021084740755,0.05614531415162709,-0.21787604717637177,0.0,0.0,-0.6,0.0,0.002495288848876953,0.004616737365722656,0
2.609130382537842,-0.0721840038895607,-0.05195210501551628,-0.64255291223526,0.1723951632176456,-0.5494271232166815,-0.04299019139679703,0.05803660158046506,-0.21716141923007803,0.0,0.0,-0.6,0.0,0.00241851806640625,0.0047359466552734375,0
2.622823476791382,-0.07266050577163696,-0.04974360018968582,-0.6420691609382629,0.1707041759650177,-0.5494320052639482,-0.04296301075711974,0.057192691667310155,-0.2160270594479374,0.0,0.0,-0.6,0.0,0.001577138900756836,0.004050731658935547,0
2.634359359741211,-0.07266050577163696,-0.04974360018968582,-0.6420691609382629,0.1707041759650177,-0.5494362916022525,-0.042945325153762336,0.05661633240518767,-0.2152330076004386,0.0,0.0,-0.6,0.0,0.0016846656799316406,0.003805875778198242,0
2.64650297164917,-0.07290779054164886,-0.048299938440322876,-0.6417503356933594,0.16962300544043113,-0.5494195046315874,-0.03910070656223334,0.052171863919554945,-0.21427173236046965,0.0,0.0,-0.6,0.0,0.002660036087036133,0.005051851272583008,0
2.6591012477874756,-0.07290779054164886,-0.048299938440322876,-0.6417503356933594,0.16962300544043113,-0.5494070976384212,-0.03647344841701362,0.049124853420326214,-0.21359883969249108,0.0,0.0,-0.6,0.0,0.0019731521606445312,0.0035698413848876953,0
2.670595645904541,-0.07312432676553726,-0.04685686528682709,-0.641442060470581,0.16845505505925065,-0.5493509067865627,-0.03349895258602344,0.0495450796803353,-0.21268983343196365,0.0,0.0,-0.6,0.0,0.002683401107788086,0.005033016204833984,0
2.6837198734283447,-0.07312432676553726,-0.04685686528682709,-0.641442060470581,0.16845505505925065,-0.5493053744827378,-0.0314641271178264,0.04981880230601021,-0.21205352904959418,0.0,0.0,-0.6,0.0,0.0016167163848876953,0.0031850337982177734,0
2.6953024864196777,-0.07339403033256531,-0.044756799936294556,-0.6410207152366638,0.16683340981331798,-0.5492600522243657,-0.028657778112227056,0.04776589252456683,-0.21099999901471123,0.0,0.0,-0.6,0.0,0.0025191307067871094,0.0046825408935546875,0
2.7082679271698,-0.07339403033256531,-0.044756799936294556,-0.6410207152366638,0.16683340981331798,-0.5492243807014215,-0.02673945337574732,0.046350169025041535,-0.21026252799029282,0.0,0.0,-0.6,0.0,0.0019316673278808594,0.004258155822753906,0
2.720404624938965,-0.07357572019100189,-0.043214116245508194,-0.640684962272644,0.16555565088508345,-0.5491821312920985,-0.02656540420171057,0.04330516450577717,-0.20926713867511226,0.0,0.0,-0.6,0.0,0.002502918243408203,0.0047605037689208984,0
2.73299503326416,-0.07357572019100189,-0.043214116245508194,-0.640684962272644,0.16555565088508345,-0.5491497706837117,-0.026448072358456615,0.04121281021188242,-0.20857036615448557,0.0,0.0,-0.6,0.0,0.0016858577728271484,0.003761768341064453,0
2.7455058097839355,-0.073719322681427,-0.04174358770251274,-0.6403613686561584,0.16415039775515375,-0.5491098799273282,-0.024447984856247162,0.0389438381081297,-0.20755565546632357,0.0,0.0,-0.6,0.0,0.002008199691772461,0.003825664520263672,0
2.758857011795044,-0.07377403229475021,-0.04102156683802605,-0.6402326822280884,0.1636381744625537,-0.5491285431860017,-0.02423399326042252,0.03398730651241267,-0.20665327424988503,0.0,0.0,-0.6,0.0,0.0024335384368896484,0.004464149475097656,0
2.7705166339874268,-0.07377403229475021,-0.04102156683802605,-0.6402326822280884,0.1636381744625537,-0.5491455691314079,-0.024090632973198974,0.03059890751172807,-0.20602160739837777,0.0,0.0,-0.6,0.0,0.00235748291015625,0.004434823989868164,0
2.7842907905578613,-0.07394896447658539,-0.038986753672361374,-0.6398683786392212,0.16205916012205557,-0.5491814029691835,-0.02541324948154168,0.026421368762097122,-0.20498731022463632,0.0,0.0,-0.6,0.0,0.0021076202392578125,0.004198789596557617,0
2.7979681491851807,-0.07397766411304474,-0.03829681873321533,-0.6397356986999512,0.1616550450359539,-0.5491495509857823,-0.026941223014205252,0.025291289124319993,-0.204111759045729,0.0,0.0,-0.6,0.0,0.0015904903411865234,0.003771543502807617,0
2.810363531112671,-0.0740477666258812,-0.03697335347533226,-0.6394475102424622,0.16060472882818283,-0.5491764768342722,-0.03061222677376739,0.024417229982471093,-0.20310500464257986,0.0,0.0,-0.6,0.0,0.002267599105834961,0.004412174224853516,0
2.8225910663604736,-0.0740477666258812,-0.03697335347533226,-0.6394475102424622,0.16060472882818283,-0.5491986040467182,-0.033124844997645835,0.023826531646541322,-0.20240027656037515,0.0,0.0,-0.6,0.0,0.0022437572479248047,0.00448155403137207,0
2.835606098175049,-0.07410494983196259,-0.03573942556977272,-0.6391875147819519,0.15947450033811572,-0.5491699857135823,-0.03561565130829099,0.021973869865645253,-0.2014831312190569,0.0,0.0,-0.6,0.0,0.002366781234741211,0.00455021858215332,0
2.849966049194336,-0.07413160800933838,-0.03451668843626976,-0.6388833522796631,0.15875574247255214,-0.5490925290264991,-0.03499881198007233,0.019303017680586544,-0.20057159528054777,0.0,0.0,-0.6,0.0,0.0018961429595947266,0.0034797191619873047,0
2.861407995223999,-0.07413160800933838,-0.03451668843626976,-0.6388833522796631,0.15875574247255214,-0.5490320974891048,-0.034578441402770235,0.01746021662237298,-0.1999335201235911,0.0,0.0,-0.6,0.0,0.0018720626831054688,0.0035352706909179688,0
2.873330593109131,-0.07415088266134262,-0.033400435000658035,-0.6386147141456604,0.15783915006712831,-0.5490208939029723,-0.031213643196887186,0.014166415186074323,-0.1991431453616877,0.0,0.0,-0.6,0.0,0.0024445056915283203,0.00457310676574707,0
2.8867709636688232,-0.07417749613523483,-0.032248787581920624,-0.6382278203964233,0.1569514814998814,-0.549058986769982,-0.02675228358207482,0.010518150533821644,-0.1982570073156378,0.0,0.0,-0.6,0.0,0.00152587890625,0.00365447998046875,0
2.898130178451538,-0.07417749613523483,-0.032248787581920624,-0.6382278203964233,0.1569514814998814,-0.5490903766492734,-0.0237024873287176,0.008026557989928938,-0.1976367106834026,0.0,0.0,-0.6,0.0,0.002337932586669922,0.004520893096923828,0
2.9098169803619385,-0.07418815791606903,-0.03070717491209507,-0.6377028822898865,0.15578703810778902,-0.5492076302088637,-0.024639672936831107,0.0015198735326524288,-0.19676583676880358,0.0,0.0,-0.6,0.0,0.0025489330291748047,0.00493311882019043,0
2.9237372875213623,-0.07418815791606903,-0.03070717491209507,-0.6377028822898865,0.15578703810778902,-0.5493043155639837,-0.02528584587435668,-0.0029110473318362624,-0.19615622502858399,0.0,0.0,-0.6,0.0,0.002432584762573242,0.004730701446533203,0
2.9379160404205322,-0.07421896606683731,-0.029116349294781685,-0.6370518207550049,0.15446131919777792,-0.5493836929810372,-0.023888417018702927,-0.0033382117565757445,-0.19523235221917645,0.0,0.0,-0.6,0.0,0.002374887466430664,0.004464387893676758,0
2.950279951095581,-0.07421896606683731,-0.029116349294781685,-0.6370518207550049,0.15446131919777792,-0.5494469745177435,-0.02293351888065843,-0.003615332176269784,-0.19458564125259087,0.0,0.0,-0.6,0.0,0.0018372535705566406,0.004108428955078125,0
2.963153600692749,-0.07426191121339798,-0.02807893231511116,-0.6365926265716553,0.15371416216273787,-0.5495320380219988,-0.024525367069796057,-0.006630097118182625,-0.19385275968784105,0.0,0.0,-0.6,0.0,0.0015804767608642578,0.0035305023193359375,0
2.974271059036255,-0.07426191121339798,-0.02807893231511116,-0.6365926265716553,0.15371416216273787,-0.5496016697066064,-0.02561671232154016,-0.008676398303732997,-0.19333974259251593,0.0,0.0,-0.6,0.0,0.002241373062133789,0.003950357437133789,0
2.9864509105682373,-0.07425929605960846,-0.02703722007572651,-0.6361169219017029,0.15288483651292029,-0.5497086962238004,-0.026641623649226027,-0.013619101422601343,-0.19266963350710692,0.0,0.0,-0.6,0.0,0.002394437789916992,0.004180431365966797,0
2.9986536502838135,-0.07425929605960846,-0.02703722007572651,-0.6361169219017029,0.15288483651292029,-0.5497970828972396,-0.02734560909103161,-0.01698070007525069,-0.1922005571473204,0.0,0.0,-0.6,0.0,0.00222015380859375,0.00403594970703125,0
3.0128722190856934,-0.07425172626972198,-0.026036441326141357,-0.6356275677680969,0.1522159704283523,-0.5498781697377658,-0.02618743077111847,-0.016638297412852384,-0.19162137891375697,0.0,0.0,-0.6,0.0,0.002133607864379883,0.004337310791015625,0
3.0265347957611084,-0.07423094660043716,-0.02510177344083786,-0.6351650953292847,0.15150875938508043,-0.5499548666180573,-0.025843462642936906,-0.015729488441238858,-0.19095075000903572,0.0,0.0,-0.6,0.0,0.0022008419036865234,0.004580974578857422,0
3.039201021194458,-0.07423094660043716,-0.02510177344083786,-0.6351650953292847,0.15150875938508043,-0.5500151595481266,-0.025608111052022584,-0.015090698248873803,-0.19048130977573063,0.0,0.0,-0.6,0.0,0.0026051998138427734,0.004953145980834961,0
3.0528740882873535,-0.07420055568218231,-0.023732777684926987,-0.634454071521759,0.15028646111583746,-0.5500057774460554,-0.022877428213092944,-0.014860688440567265,-0.18969433976145128,0.0,0.0,-0.6,0.0,0.0017240047454833984,0.003736257553100586,0
