time,x,y,z,yaw,throttle,roll_rate,pitch_rate,yaw_rate,x_ref,y_ref,z_ref,yaw_ref,pred_time,nr_time,ctrl_callback_time,metadata
2.86102294921875e-06,-0.14030525088310242,-0.050015971064567566,-0.24113154411315918,-0.015194263206390684,-0.5323808118285988,0.025196557909970267,-0.06821532235141321,0.005697848702396987,0.0,0.0,-0.6,0.0,0.007665395736694336,0.008730888366699219,0.01130366325378418,Hardware
0.014459848403930664,-0.14030525088310242,-0.050015971064567566,-0.24113154411315918,-0.015194263206390684,-0.5412204098966228,0.04218622071020894,-0.11485911348128838,0.009686342794074734,0.0,0.0,-0.6,0.0,0.0017709732055664062,0.0027742385864257812,0.00583958625793457,Nonlinear
0.02213764190673828,-0.14028602838516235,-0.05003282055258751,-0.24110648036003113,-0.015242279227294219,-0.5482452990531151,0.05326777740390316,-0.14584639826316256,0.012496294666087579,0.0,0.0,-0.6,0.0,0.0014567375183105469,0.002666473388671875,0.005395412445068359,2x Speed
0.03208112716674805,-0.14026935398578644,-0.05005038157105446,-0.24108248949050903,-0.015265370359512724,-0.5538487958124882,0.060148598228572894,-0.16549980808359704,0.014471920151078742,0.0,0.0,-0.6,0.0,0.0027403831481933594,0.0040051937103271484,0.007135629653930664,0OrderHold
0.0427241325378418,-0.14022693037986755,-0.05008571967482567,-0.24102163314819336,-0.01528209896853251,-0.5583373308580909,0.06435842704398172,-0.1769917643227371,0.01586113121895523,0.0,0.0,-0.6,0.0,0.0014731884002685547,0.002680540084838867,0.005622386932373047,QuatYawError
0.05088090896606445,-0.14020174741744995,-0.05010194703936577,-0.24099774658679962,-0.015278844528481703,-0.5618853516207261,0.06695199673832763,-0.18369081952534572,0.016832358551449593,0.0,0.0,-0.6,0.0,0.0016944408416748047,0.0028052330017089844,0.005840301513671875,NoPyJoules
0.06036639213562012,-0.14018689095973969,-0.05012040585279465,-0.24098387360572815,-0.01538287045001237,-0.5647420345973069,0.06842850675019677,-0.1874224402144102,0.017551227404769568,0.0,0.0,-0.6,0.0,0.001401662826538086,0.0025777816772460938,0.005930662155151367,0
0.07049727439880371,-0.14017632603645325,-0.0501360148191452,-0.24096806347370148,-0.015445760650582558,-0.567016962098483,0.06896942608893572,-0.188818814171588,0.018078019427307315,0.0,0.0,-0.6,0.0,0.0020096302032470703,0.003222227096557617,0.006500959396362305,0
0.08124804496765137,-0.14016000926494598,-0.05015210807323456,-0.24095915257930756,-0.015411081577026992,-0.5687968871132625,0.06904338007697917,-0.18898203618471446,0.018433769190500042,0.0,0.0,-0.6,0.0,0.0012493133544921875,0.0022275447845458984,0.0051937103271484375,0
0.09029364585876465,-0.14016832411289215,-0.05018427222967148,-0.24096035957336426,-0.015439503817815944,-0.5701885160257235,0.06910665071312662,-0.1901408059196096,0.018693452365030918,0.0,0.0,-0.6,0.0,0.0015137195587158203,0.0028090476989746094,0.006225109100341797,0
0.10021162033081055,-0.1401827186346054,-0.0502176433801651,-0.2409692406654358,-0.015269984723744759,-0.5712688022483272,0.07011652548277561,-0.19102763398112604,0.018811660926925988,0.0,0.0,-0.6,0.0,0.001745462417602539,0.003077268600463867,0.0062367916107177734,0
0.11096525192260742,-0.14019840955734253,-0.05026080459356308,-0.24098971486091614,-0.0148678405917017,-0.5721069417650225,0.0701720911714358,-0.18979869970815344,0.018743602870736353,0.0,0.0,-0.6,0.0,0.0013973712921142578,0.0024073123931884766,0.0053369998931884766,0
0.12039017677307129,-0.14018884301185608,-0.0503179095685482,-0.24101471900939941,-0.014590956718639612,-0.5727678308641041,0.07048644884605688,-0.18813293307578924,0.018592130779005255,0.0,0.0,-0.6,0.0,0.0014934539794921875,0.0028963088989257812,0.0061376094818115234,0
0.13069844245910645,-0.14014799892902374,-0.050382476300001144,-0.2410375326871872,-0.014442461697321388,-0.5733277918635084,0.0729542615997037,-0.1857753302899558,0.018430414681799255,0.0,0.0,-0.6,0.0,0.0019474029541015625,0.003127574920654297,0.00625300407409668,0
0.14061355590820312,-0.14009283483028412,-0.05044330656528473,-0.2410597950220108,-0.014390228680579709,-0.5737455726909865,0.07463396992250293,-0.18212081391621796,0.018297626032476946,0.0,0.0,-0.6,0.0,0.001531362533569336,0.0027306079864501953,0.005675077438354492,0
0.1507105827331543,-0.14003591239452362,-0.050500091165304184,-0.24108485877513885,-0.014414319264377128,-0.5740615793562264,0.0746510070615485,-0.17907634008896514,0.018213707946875258,0.0,0.0,-0.6,0.0,0.0015020370483398438,0.0027294158935546875,0.0058422088623046875,0
0.16022396087646484,-0.13997109234333038,-0.050550736486911774,-0.24111704528331757,-0.014564466856540162,-0.5742728111717422,0.07448995771388876,-0.17617127660884974,0.018211270634015238,0.0,0.0,-0.6,0.0,0.0013425350189208984,0.0024771690368652344,0.00571441650390625,0
0.17049074172973633,-0.13989891111850739,-0.05058767646551132,-0.24116438627243042,-0.014581311282640385,-0.5744175651164264,0.0734304493091674,-0.1720721449718767,0.018215881174800812,0.0,0.0,-0.6,0.0,0.001554727554321289,0.0025882720947265625,0.005830287933349609,0
0.18057751655578613,-0.1398133486509323,-0.05062084645032883,-0.2412189245223999,-0.014419717570376455,-0.5745355260122709,0.07277263403923397,-0.16874318303963776,0.018158510911251723,0.0,0.0,-0.6,0.0,0.0015330314636230469,0.002732992172241211,0.005925416946411133,0
0.19089746475219727,-0.13972526788711548,-0.05064484477043152,-0.24129298329353333,-0.014171263258459384,-0.5745601346709904,0.07305968882212974,-0.16618982453886094,0.018025181359798522,0.0,0.0,-0.6,0.0,0.0014183521270751953,0.002641916275024414,0.0062103271484375,0
0.20103001594543457,-0.13962025940418243,-0.050656042993068695,-0.2413710653781891,-0.01380033731723758,-0.5745535404426256,0.07514787952010135,-0.16380161156389092,0.01779275344582314,0.0,0.0,-0.6,0.0,0.0011386871337890625,0.002161264419555664,0.00530242919921875,0
0.21193432807922363,-0.13949652016162872,-0.05067843571305275,-0.24145449697971344,-0.013505075801915456,-0.5746176929597347,0.07663318114010516,-0.16112373777373085,0.01751933083779441,0.0,0.0,-0.6,0.0,0.001497507095336914,0.0027742385864257812,0.006118297576904297,0
0.22219038009643555,-0.1393500715494156,-0.05069822818040848,-0.24158236384391785,-0.013192372348814388,-0.5746054121313303,0.0758715268817496,-0.15729469666198476,0.01721067121726159,0.0,0.0,-0.6,0.0,0.0016241073608398438,0.0028409957885742188,0.006023883819580078,0
0.23203539848327637,-0.13917283713817596,-0.05070638284087181,-0.24175885319709778,-0.012655453631069508,-0.5744369636247976,0.07514595139692543,-0.15222924868106968,0.016793264963733963,0.0,0.0,-0.6,0.0,0.0014081001281738281,0.0026166439056396484,0.0059490203857421875,0
0.24230575561523438,-0.138978973031044,-0.05071519315242767,-0.2420009821653366,-0.011874564693785379,-0.5741239396207009,0.07336543609423118,-0.14569062291638418,0.016208247234783497,0.0,0.0,-0.6,0.0,0.0014004707336425781,0.0024526119232177734,0.005486726760864258,0
0.2512807846069336,-0.1387924700975418,-0.05073228478431702,-0.2423386126756668,-0.010874776688659403,-0.5737087161677991,0.071108661966512,-0.13843735846352054,0.015423814322595488,0.0,0.0,-0.6,0.0,0.0014090538024902344,0.0026445388793945312,0.006011962890625,0
0.26128101348876953,-0.13853923976421356,-0.05078546330332756,-0.2428719848394394,-0.009311170371261118,-0.5732837962469106,0.07099632942909889,-0.12602056335144174,0.014288358915040157,0.0,0.0,-0.6,0.0,0.0016002655029296875,0.002737283706665039,0.006060600280761719,0
0.2703728675842285,-0.1383323073387146,-0.05082709342241287,-0.24337448179721832,-0.008222512294283028,-0.5728193999052401,0.06877798439254817,-0.11536160523496154,0.013085293350883882,0.0,0.0,-0.6,0.0,0.0011820793151855469,0.002351522445678711,0.005274534225463867,0
0.28168487548828125,-0.13812413811683655,-0.05087549611926079,-0.24395261704921722,-0.007061837841661871,-0.5722872403162906,0.06547321537465886,-0.10608746782342084,0.011807894536241535,0.0,0.0,-0.6,0.0,0.0014557838439941406,0.0027513504028320312,0.0061223506927490234,0
0.29248905181884766,-0.13812413811683655,-0.05087549611926079,-0.24395261704921722,-0.007061837841661871,-0.5718455251858039,0.06328024661535125,-0.09990361801590755,0.0109137153659922,0.0,0.0,-0.6,0.0,0.002414226531982422,0.004843473434448242,0.010835647583007812,0
0.3066294193267822,-0.13753189146518707,-0.05105995759367943,-0.246001735329628,-0.002501600526601538,-0.5709747084731939,0.05224563897968328,-0.0845088321894841,0.00857770095366992,0.0,0.0,-0.6,0.0,0.002671480178833008,0.004850625991821289,0.010000944137573242,0
0.3211684226989746,-0.13753189146518707,-0.05105995759367943,-0.246001735329628,-0.002501600526601538,-0.5702436467548552,0.04480263172346984,-0.07428244858973293,0.006942490865044559,0.0,0.0,-0.6,0.0,0.0025489330291748047,0.00475311279296875,0.010654926300048828,0
0.33555006980895996,-0.13709519803524017,-0.05122380331158638,-0.24890011548995972,0.0025886239064366497,-0.5690548745244736,0.03604347629040546,-0.05438138108192568,0.0038890096406165283,0.0,0.0,-0.6,0.0,0.002593517303466797,0.0047800540924072266,0.010587215423583984,0
0.3495149612426758,-0.13709519803524017,-0.05122380331158638,-0.24890011548995972,0.0025886239064366497,-0.56806685682519,0.030192593844502826,-0.04120457908644481,0.0017515727835181096,0.0,0.0,-0.6,0.0,0.002336740493774414,0.0037679672241210938,0.009508371353149414,0
0.3631932735443115,-0.1367633044719696,-0.051388658583164215,-0.2515779435634613,0.005967851530853462,-0.5668078677246319,0.026573111197881152,-0.02910087483366683,-0.0010118433756076042,0.0,0.0,-0.6,0.0,0.0024216175079345703,0.004021406173706055,0.00952768325805664,0
0.3738727569580078,-0.1367633044719696,-0.051388658583164215,-0.2515779435634613,0.005967851530853462,-0.5657866541399458,0.024262029692010592,-0.021270665220431268,-0.002946234686995324,0.0,0.0,-0.6,0.0,0.0019419193267822266,0.003992319107055664,0.007781028747558594,0
0.38666796684265137,-0.13632048666477203,-0.05162324756383896,-0.2560037076473236,0.011959381084167034,-0.5643015937799917,0.02224184669152874,-0.0001913498456684211,-0.006547132187459668,0.0,0.0,-0.6,0.0,0.002446889877319336,0.004578828811645508,0.009885549545288086,0
0.3991067409515381,-0.13632048666477203,-0.05162324756383896,-0.2560037076473236,0.011959381084167034,-0.5630873150961034,0.021038170451069677,0.013689311801531934,-0.009067760437784345,0.0,0.0,-0.6,0.0,0.0017559528350830078,0.0039844512939453125,0.00957179069519043,0
0.4139831066131592,-0.1357516646385193,-0.051793038845062256,-0.26118236780166626,0.018449677155037102,-0.5616132051104111,0.011837728857391984,0.029288942683042114,-0.013266061239587398,0.0,0.0,-0.6,0.0,0.0023071765899658203,0.0043027400970458984,0.009913206100463867,0
0.4266083240509033,-0.1357516646385193,-0.051793038845062256,-0.26118236780166626,0.018449677155037102,-0.560414892275923,0.005746358770284017,0.03943084598295555,-0.01620487180085034,0.0,0.0,-0.6,0.0,0.002530336380004883,0.004148006439208984,0.009723424911499023,0
0.440077543258667,-0.1352592557668686,-0.05191783979535103,-0.2654552757740021,0.02302631263390563,-0.5590689054682377,0.00036437487720956,0.051824082672649666,-0.019978277498310985,0.0,0.0,-0.6,0.0,0.0016448497772216797,0.0026009082794189453,0.008433818817138672,0
0.450885534286499,-0.1352592557668686,-0.05191783979535103,-0.2654552757740021,0.02302631263390563,-0.5579825161847748,-0.0031455638020377683,0.05984594367994349,-0.022619661486534243,0.0,0.0,-0.6,0.0,0.0024585723876953125,0.004873991012573242,0.008627176284790039,0
0.4632079601287842,-0.1346919983625412,-0.05200972780585289,-0.27064046263694763,0.02923731712364448,-0.5566579261666674,-0.009072606023208783,0.06189671347803813,-0.026797756961941907,0.0,0.0,-0.6,0.0,0.0024449825286865234,0.0044782161712646484,0.009123563766479492,0
0.4769320487976074,-0.1340358853340149,-0.05203748866915703,-0.27555546164512634,0.03447579762353909,-0.5552379708004535,-0.02019835861171241,0.06926233658749775,-0.03168685398218585,0.0,0.0,-0.6,0.0,0.0025148391723632812,0.004539966583251953,0.010497808456420898,0
0.4903686046600342,-0.1340358853340149,-0.05203748866915703,-0.27555546164512634,0.03447579762353909,-0.5540953464010264,-0.02761593523870004,0.07379144761573023,-0.03510922189636125,0.0,0.0,-0.6,0.0,0.004095792770385742,0.006291627883911133,0.012786388397216797,0
0.5070466995239258,-0.13293792307376862,-0.0519065223634243,-0.2835460305213928,0.04291338814250713,-0.5525698078035571,-0.03899844808734923,0.08173044985335548,-0.0406689758808899,0.0,0.0,-0.6,0.0,0.0026154518127441406,0.004618167877197266,0.010282754898071289,0
0.5207359790802002,-0.13293792307376862,-0.0519065223634243,-0.2835460305213928,0.04291338814250713,-0.5513440110598122,-0.04659862935330535,0.08661988231040643,-0.044560803670062585,0.0,0.0,-0.6,0.0,0.0016491413116455078,0.003136873245239258,0.007750034332275391,0
0.5317285060882568,-0.13222648203372955,-0.051839087158441544,-0.28920575976371765,0.04852408797514321,-0.5499444133822022,-0.04836694194942205,0.09061180859403731,-0.04938909555971768,0.0,0.0,-0.6,0.0,0.0025222301483154297,0.004857778549194336,0.010172367095947266,0
0.5448310375213623,-0.13222648203372955,-0.051839087158441544,-0.28920575976371765,0.04852408797514321,-0.5488267563253717,-0.049441859741445056,0.09289769943918119,-0.052768899882483566,0.0,0.0,-0.6,0.0,0.0023458003997802734,0.00475311279296875,0.008882522583007812,0
0.5577583312988281,-0.1309865266084671,-0.05173137038946152,-0.2981041371822357,0.057350066395492366,-0.5476558120910885,-0.045073120016064915,0.09573610153759242,-0.05844450481604738,0.0,0.0,-0.6,0.0,0.0023403167724609375,0.004908084869384766,0.010659217834472656,0
0.5710651874542236,-0.1309865266084671,-0.05173137038946152,-0.2981041371822357,0.057350066395492366,-0.5467214771052376,-0.04199275257674531,0.09735050671704329,-0.062417428269542274,0.0,0.0,-0.6,0.0,0.0020368099212646484,0.0042781829833984375,0.009961128234863281,0
0.5842440128326416,-0.1300562620162964,-0.05159629136323929,-0.30415865778923035,0.06370175551994582,-0.5456929634268758,-0.03748254358121846,0.10014418002153182,-0.06758035810865859,0.0,0.0,-0.6,0.0,0.0021119117736816406,0.0034818649291992188,0.007620334625244141,0
0.5949625968933105,-0.12909860908985138,-0.05145424231886864,-0.3102659285068512,0.0696509061362078,-0.5446991738895307,-0.03620526606823053,0.10303285534475844,-0.07342534047715338,0.0,0.0,-0.6,0.0,0.0024178028106689453,0.0045659542083740234,0.009212255477905273,0
0.6085796356201172,-0.12909860908985138,-0.05145424231886864,-0.3102659285068512,0.0696509061362078,-0.5439060591787906,-0.03524777478141846,0.10475580399793259,-0.07751682813509894,0.0,0.0,-0.6,0.0,0.0022475719451904297,0.004452228546142578,0.009259462356567383,0
0.623246431350708,-0.12805327773094177,-0.05128364637494087,-0.31642457842826843,0.07551889130572217,-0.5431060139195366,-0.034829157995964706,0.10741827877495766,-0.0825813639342144,0.0,0.0,-0.6,0.0,0.0023124217987060547,0.00397944450378418,0.00899505615234375,0
0.6348373889923096,-0.12691763043403625,-0.0511002242565155,-0.3225996494293213,0.08151566902913628,-0.5423030548466172,-0.030196382507151166,0.11084789415101005,-0.08837533063988044,0.0,0.0,-0.6,0.0,0.0018086433410644531,0.0041196346282958984,0.007939338684082031,0
0.6465463638305664,-0.12691763043403625,-0.0511002242565155,-0.3225996494293213,0.08151566902913628,-0.5416623146521659,-0.026969407369480447,0.11302972686006552,-0.0924311073338454,0.0,0.0,-0.6,0.0,0.002460002899169922,0.004874706268310547,0.009720325469970703,0
0.6594624519348145,-0.12561637163162231,-0.050976041704416275,-0.32882407307624817,0.0873158002281499,-0.5410666605389395,-0.018358911270824178,0.11754177950480073,-0.09744520021925167,0.0,0.0,-0.6,0.0,0.002429962158203125,0.004343748092651367,0.008707284927368164,0
0.6716330051422119,-0.12561637163162231,-0.050976041704416275,-0.32882407307624817,0.0873158002281499,-0.5405913893016383,-0.01243557623080645,0.12052910162815832,-0.10095506523903496,0.0,0.0,-0.6,0.0,0.0020596981048583984,0.003969907760620117,0.008926153182983398,0
0.6838831901550293,-0.12418060749769211,-0.050909798592329025,-0.33503544330596924,0.09360763901306111,-0.5400157453851248,-0.003538825012316395,0.12040571217827155,-0.10577141029721757,0.0,0.0,-0.6,0.0,0.0020058155059814453,0.0037534236907958984,0.008645057678222656,0
0.6962718963623047,-0.12418060749769211,-0.050909798592329025,-0.33503544330596924,0.09360763901306111,-0.5395578701904652,0.0025942002480413553,0.12024217904103922,-0.10914285183794684,0.0,0.0,-0.6,0.0,0.0027315616607666016,0.004340171813964844,0.009774208068847656,0
0.708141565322876,-0.12171398103237152,-0.05081532523036003,-0.345169335603714,0.10255879081975536,-0.5388999769879873,0.0075111143854239976,0.12333363723906421,-0.11485954284397525,0.0,0.0,-0.6,0.0,0.002123117446899414,0.0037565231323242188,0.008623123168945312,0
0.7214980125427246,-0.12171398103237152,-0.05081532523036003,-0.345169335603714,0.10255879081975536,-0.5383762008787474,0.010921982127917389,0.12535724980881136,-0.11886122654818693,0.0,0.0,-0.6,0.0,0.002476930618286133,0.004342317581176758,0.009147882461547852,0
0.7339556217193604,-0.11946061998605728,-0.05085865780711174,-0.3537106215953827,0.11031825689033353,-0.537733923361525,0.013590693215506433,0.1225102635186866,-0.12457220491761012,0.0,0.0,-0.6,0.0,0.002631664276123047,0.004985332489013672,0.010196924209594727,0
0.7468140125274658,-0.11946061998605728,-0.05085865780711174,-0.3537106215953827,0.11031825689033353,-0.5372217226033128,0.015482886555512056,0.12049634712145404,-0.1285698897762051,0.0,0.0,-0.6,0.0,0.0025043487548828125,0.004607677459716797,0.00977468490600586,0
0.7618191242218018,-0.11778739094734192,-0.05086641386151314,-0.3598659932613373,0.115208078301956,-0.5367876715944163,0.018176586124856176,0.11303806156561114,-0.13320195220657244,0.0,0.0,-0.6,0.0,0.0019292831420898438,0.004092216491699219,0.009037256240844727,0
0.773522138595581,-0.11631079763174057,-0.05087795481085777,-0.3651717007160187,0.12042554607356722,-0.5363910536316358,0.025780476309031027,0.10877022380707445,-0.1384009463221832,0.0,0.0,-0.6,0.0,0.0019497871398925781,0.004399776458740234,0.008255481719970703,0
0.7855427265167236,-0.11631079763174057,-0.05087795481085777,-0.3651717007160187,0.12042554607356722,-0.5360756295856174,0.031021920771689516,0.10583744512997598,-0.14204024220311232,0.0,0.0,-0.6,0.0,0.0026121139526367188,0.004457950592041016,0.009951114654541016,0
0.7978694438934326,-0.11399510502815247,-0.05097667872905731,-0.37337151169776917,0.12783271597914156,-0.5357171062114462,0.032653569096489726,0.09412973884823889,-0.14736543803435137,0.0,0.0,-0.6,0.0,0.0026204586029052734,0.0039136409759521484,0.008218765258789062,0
0.8091561794281006,-0.11399510502815247,-0.05097667872905731,-0.37337151169776917,0.12783271597914156,-0.5354283505715615,0.03384288655149704,0.08611124326225865,-0.1510930751162203,0.0,0.0,-0.6,0.0,0.0018498897552490234,0.004003763198852539,0.009141921997070312,0
0.8231663703918457,-0.11231890320777893,-0.05104236677289009,-0.37925249338150024,0.13248884354707036,-0.5350969469009089,0.035201001947278,0.07579566233585189,-0.15544846891150121,0.0,0.0,-0.6,0.0,0.002491474151611328,0.004850864410400391,0.010403633117675781,0
0.8361475467681885,-0.11231890320777893,-0.05104236677289009,-0.37925249338150024,0.13248884354707036,-0.5348313610777337,0.03619340960916352,0.06872463606034884,-0.1584972445681992,0.0,0.0,-0.6,0.0,0.0021822452545166016,0.003658294677734375,0.008352279663085938,0
0.8486056327819824,-0.11035361886024475,-0.05115324631333351,-0.3858518898487091,0.13856558919929535,-0.5345256745823601,0.03631724267018178,0.0643556412424451,-0.16291016714747078,0.0,0.0,-0.6,0.0,0.002585887908935547,0.004811286926269531,0.009218454360961914,0
0.8617215156555176,-0.11035361886024475,-0.05115324631333351,-0.3858518898487091,0.13856558919929535,-0.534281524783507,0.03645181181772151,0.061344527203767006,-0.1659992129529622,0.0,0.0,-0.6,0.0,0.002681255340576172,0.004999876022338867,0.010418891906738281,0
0.875760555267334,-0.10795213282108307,-0.05149814859032631,-0.3936324119567871,0.1456546247093541,-0.5340935842006352,0.041555932961756005,0.056346022423895706,-0.17081993333307652,0.0,0.0,-0.6,0.0,0.002408266067504883,0.004503011703491211,0.010084867477416992,0
0.8896644115447998,-0.10795213282108307,-0.05149814859032631,-0.3936324119567871,0.1456546247093541,-0.5339454468056328,0.04508017414494037,0.052933127982940247,-0.17419443759915798,0.0,0.0,-0.6,0.0,0.0018231868743896484,0.004012346267700195,0.009211301803588867,0
0.9017302989959717,-0.1053585559129715,-0.051963482052087784,-0.40190473198890686,0.1521439077566884,-0.5337793887725716,0.05420286430543961,0.04413124436409815,-0.17899007172816395,0.0,0.0,-0.6,0.0,0.0019855499267578125,0.003387451171875,0.007248878479003906,0
0.9129881858825684,-0.1053585559129715,-0.051963482052087784,-0.40190473198890686,0.1521439077566884,-0.5336502702966337,0.06048307097653134,0.03813448996093893,-0.18234701561846955,0.0,0.0,-0.6,0.0,0.0013933181762695312,0.002554178237915039,0.005911350250244141,0
0.920891284942627,-0.1038845106959343,-0.052308421581983566,-0.40657538175582886,0.15680807277775377,-0.5336217894266239,0.0593022582145289,0.027905122113865016,-0.18644593822458225,0.0,0.0,-0.6,0.0,0.0014472007751464844,0.0025856494903564453,0.005433797836303711,0
0.9304654598236084,-0.10304854065179825,-0.05249505117535591,-0.40919479727745056,0.15890691792026024,-0.5335887351608585,0.06070278426702816,0.018787786665283166,-0.19010225097730152,0.0,0.0,-0.6,0.0,0.0025424957275390625,0.0042264461517333984,0.0077702999114990234,0
0.9421408176422119,-0.10304854065179825,-0.05249505117535591,-0.40919479727745056,0.15890691792026024,-0.5335638249503671,0.06168588013896998,0.012560931950662473,-0.19266166990420608,0.0,0.0,-0.6,0.0,0.002463817596435547,0.004026174545288086,0.008537054061889648,0
0.9542787075042725,-0.10081689059734344,-0.05311375483870506,-0.41622158885002136,0.16540883593671216,-0.5334999692706147,0.06359109905875454,0.006290863132389422,-0.1968914824092071,0.0,0.0,-0.6,0.0,0.0014159679412841797,0.0037078857421875,0.007580280303955078,0
0.9642589092254639,-0.10081689059734344,-0.05311375483870506,-0.41622158885002136,0.16540883593671216,-0.5334513244187294,0.06492152526325129,0.002008246583394712,-0.19985235116270905,0.0,0.0,-0.6,0.0,0.0022356510162353516,0.0038404464721679688,0.007889509201049805,0
0.9758944511413574,-0.09916603565216064,-0.05360027402639389,-0.4212628901004791,0.16960749325636257,-0.5334267662116322,0.06497089584007612,-0.0023854463737601134,-0.20349945578502865,0.0,0.0,-0.6,0.0,0.002594470977783203,0.0035686492919921875,0.007465362548828125,0
0.9856257438659668,-0.09916603565216064,-0.05360027402639389,-0.4212628901004791,0.16960749325636257,-0.5334082600793452,0.06502010057028616,-0.005387630972621819,-0.20605242902065346,0.0,0.0,-0.6,0.0,0.0017011165618896484,0.0028228759765625,0.007013797760009766,0
0.9947428703308105,-0.097481369972229,-0.05411618575453758,-0.4262115955352783,0.174083997725062,-0.5333282987733816,0.06236665303396788,-0.005874730156015862,-0.2095181994613522,0.0,0.0,-0.6,0.0,0.0009725093841552734,0.002476930618286133,0.005468606948852539,0
1.0033354759216309,-0.097481369972229,-0.05411618575453758,-0.4262115955352783,0.174083997725062,-0.5332623800611285,0.06057066107289342,-0.006219128527428204,-0.21194423876984236,0.0,0.0,-0.6,0.0,0.0017673969268798828,0.003351926803588867,0.007327556610107422,0
1.0144853591918945,-0.097481369972229,-0.05411618575453758,-0.4262115955352783,0.174083997725062,-0.5332084049865048,0.05935685325185583,-0.006462486924984728,-0.2136424662857862,0.0,0.0,-0.6,0.0,0.0022706985473632812,0.004049777984619141,0.007877588272094727,0
1.0257720947265625,-0.09503007680177689,-0.05497727170586586,-0.43338578939437866,0.18035527683867977,-0.5331050080342346,0.06176526987682952,-0.0058425850101429064,-0.21718295521455172,0.0,0.0,-0.6,0.0,0.002363920211791992,0.004084587097167969,0.00821232795715332,0
1.0352959632873535,-0.09503007680177689,-0.05497727170586586,-0.43338578939437866,0.18035527683867977,-0.5330240315213973,0.06343044360738745,-0.005423479524393826,-0.21966129746468863,0.0,0.0,-0.6,0.0,0.0015063285827636719,0.0029404163360595703,0.005706071853637695,0
1.043344259262085,-0.09424968808889389,-0.055266186594963074,-0.43573808670043945,0.18217500679035845,-0.5330053553298728,0.06573393845922802,-0.006552260887120981,-0.22207853577166403,0.0,0.0,-0.6,0.0,0.011472225189208984,0.013511896133422852,0.017211437225341797,0
1.0652506351470947,-0.09271970391273499,-0.05581676959991455,-0.44036179780960083,0.18620140563847135,-0.533014295046796,0.06579532683706171,-0.011377341851867857,-0.2252805021545884,0.0,0.0,-0.6,0.0,0.0028591156005859375,0.005236625671386719,0.009457588195800781,0
1.0794355869293213,-0.09122020751237869,-0.05638523027300835,-0.444862425327301,0.1896548442309114,-0.5330285564226976,0.06154266255574638,-0.013858018088301522,-0.22881691809480012,0.0,0.0,-0.6,0.0,0.001392364501953125,0.003304004669189453,0.007133007049560547,0
1.0892307758331299,-0.09122020751237869,-0.05638523027300835,-0.444862425327301,0.1896548442309114,-0.5330367370813812,0.058639041266034045,-0.015557064604537884,-0.23129240925294936,0.0,0.0,-0.6,0.0,0.0021636486053466797,0.0035758018493652344,0.009634733200073242,0
1.1020472049713135,-0.08973906934261322,-0.0569649338722229,-0.44926610589027405,0.19321684788036259,-0.5330208889982937,0.05153112138696111,-0.01729397960158078,-0.23436100443219743,0.0,0.0,-0.6,0.0,0.0013935565948486328,0.0036287307739257812,0.007142543792724609,0
1.1146891117095947,-0.08832476288080215,-0.05755089968442917,-0.45357561111450195,0.19665169575368438,-0.5329153249302767,0.047994052434495726,-0.017657845514956017,-0.23779708901016638,0.0,0.0,-0.6,0.0,0.0011827945709228516,0.002956390380859375,0.006661653518676758,0
1.1246752738952637,-0.08832476288080215,-0.05755089968442917,-0.45357561111450195,0.19665169575368438,-0.5328280466156822,0.04560216474025801,-0.017923456874266348,-0.2402023482147457,0.0,0.0,-0.6,0.0,0.0029082298278808594,0.004060268402099609,0.008171319961547852,0
1.136190414428711,-0.08694744110107422,-0.058157261461019516,-0.45782312750816345,0.1996144307388207,-0.5327968455540919,0.04743631439753895,-0.015801060294799687,-0.24299705527737697,0.0,0.0,-0.6,0.0,0.003194570541381836,0.0049304962158203125,0.009734869003295898,0
1.1475679874420166,-0.08694744110107422,-0.058157261461019516,-0.45782312750816345,0.1996144307388207,-0.5327724165857285,0.04869354689398503,-0.014350703040221548,-0.2449533502212197,0.0,0.0,-0.6,0.0,0.0027015209197998047,0.0038306713104248047,0.008389711380004883,0
1.1621830463409424,-0.08535467088222504,-0.05877504125237465,-0.4625449776649475,0.20315738237213807,-0.5326834174189855,0.04712754217254585,-0.01175795561125239,-0.24765136354440284,0.0,0.0,-0.6,0.0,0.001523733139038086,0.003657102584838867,0.008588552474975586,0
1.1726927757263184,-0.08535467088222504,-0.05877504125237465,-0.4625449776649475,0.20315738237213807,-0.5326098053337562,0.04607389886614036,-0.009998269159710917,-0.24953997287063187,0.0,0.0,-0.6,0.0,0.0015141963958740234,0.0032176971435546875,0.00694584846496582,0
1.1843793392181396,-0.08400515466928482,-0.05933162569999695,-0.4666871428489685,0.20585575697791872,-0.5325318924669867,0.040743703822800986,-0.008393681168618834,-0.2518738898761595,0.0,0.0,-0.6,0.0,0.0019261837005615234,0.0038313865661621094,0.009270668029785156,0
1.1959152221679688,-0.08400515466928482,-0.05933162569999695,-0.4666871428489685,0.20585575697791872,-0.5324641313178897,0.03711737824644433,-0.007311893510941232,-0.25350763178000685,0.0,0.0,-0.6,0.0,0.0017380714416503906,0.0028715133666992188,0.006439208984375,0
1.2082734107971191,-0.08257860690355301,-0.05996423214673996,-0.4712121784687042,0.2089147261821649,-0.5324163842097995,0.036512038988557524,-0.00867840886013652,-0.2557983645643143,0.0,0.0,-0.6,0.0,0.0012173652648925781,0.0021753311157226562,0.007626771926879883,0
1.2209751605987549,-0.08257860690355301,-0.05996423214673996,-0.4712121784687042,0.2089147261821649,-0.5323782865007005,0.036112465927041947,-0.009617533938364025,-0.2574018775133302,0.0,0.0,-0.6,0.0,0.0027980804443359375,0.004516124725341797,0.009791135787963867,0
1.233825445175171,-0.08083625137805939,-0.06073985621333122,-0.4766063690185547,0.21234589275819699,-0.5323029020021128,0.030673644010738944,-0.008754137841335913,-0.2598110240436526,0.0,0.0,-0.6,0.0,0.002364635467529297,0.003470897674560547,0.007111310958862305,0
1.2447242736816406,-0.08083625137805939,-0.06073985621333122,-0.4766063690185547,0.21234589275819699,-0.5322373864263119,0.02697441003115464,-0.008180549970926255,-0.26149742661487896,0.0,0.0,-0.6,0.0,0.002411365509033203,0.004574298858642578,0.010018110275268555,0
1.258378028869629,-0.07959271222352982,-0.06124081090092659,-0.4804835617542267,0.21428326275633194,-0.5321221235090147,0.02351231439742697,-0.0014925158467784683,-0.26340442216403787,0.0,0.0,-0.6,0.0,0.0020761489868164062,0.003354310989379883,0.009310722351074219,0
1.2721855640411377,-0.0785292536020279,-0.06164676323533058,-0.48382097482681274,0.216235165393611,-0.532061199262846,0.01581298703176075,0.001426710855819488,-0.2654712825373999,0.0,0.0,-0.6,0.0,0.0011820793151855469,0.0021507740020751953,0.006000041961669922,0
1.283830165863037,-0.07793527841567993,-0.061855167150497437,-0.48571765422821045,0.21710962844117282,-0.531943160406602,0.008346402051722188,0.004300099576223508,-0.2672460084415933,0.0,0.0,-0.6,0.0,0.0018804073333740234,0.004305601119995117,0.008808135986328125,0
1.2955551147460938,-0.07793527841567993,-0.061855167150497437,-0.48571765422821045,0.21710962844117282,-0.5318415065410139,0.0032691226160694933,0.0062392358301981915,-0.26848831657455385,0.0,0.0,-0.6,0.0,0.002736806869506836,0.0042836666107177734,0.008771181106567383,0
1.309453010559082,-0.07624492049217224,-0.06241469457745552,-0.4909208416938782,0.21970878393642831,-0.5316865660295879,0.0013104358622336707,0.016230004184838647,-0.2703326155783465,0.0,0.0,-0.6,0.0,0.0019598007202148438,0.002959012985229492,0.007147312164306641,0
1.3216140270233154,-0.07624492049217224,-0.06241469457745552,-0.4909208416938782,0.21970878393642831,-0.5315558586217585,-6.541284449005464e-06,0.023027444072579468,-0.2716236248810019,0.0,0.0,-0.6,0.0,0.002537250518798828,0.004499912261962891,0.008620977401733398,0
1.332150936126709,-0.07448811084032059,-0.06288159638643265,-0.49648338556289673,0.22202949665418037,-0.5314592126295242,-0.005766226118489093,0.028081475615654956,-0.2733975986620172,0.0,0.0,-0.6,0.0,0.002289295196533203,0.005129337310791016,0.009931325912475586,0
1.3445580005645752,-0.07448811084032059,-0.06288159638643265,-0.49648338556289673,0.22202949665418037,-0.5313758836736847,-0.009685091414681123,0.03151478166542415,-0.2746393803087284,0.0,0.0,-0.6,0.0,0.0025370121002197266,0.0044345855712890625,0.009174108505249023,0
1.3595545291900635,-0.07333696633577347,-0.06313693523406982,-0.5001218318939209,0.22361487827906096,-0.5313243655355033,-0.012374739462702513,0.033670899959327566,-0.27610314557075627,0.0,0.0,-0.6,0.0,0.0021562576293945312,0.004522800445556641,0.009539365768432617,0
1.3702943325042725,-0.07333696633577347,-0.06313693523406982,-0.5001218318939209,0.22361487827906096,-0.5312808404866546,-0.014202915199720343,0.035134834495360326,-0.2771277812541762,0.0,0.0,-0.6,0.0,0.0011363029479980469,0.0021409988403320312,0.004861354827880859,0
1.381319284439087,-0.07227140665054321,-0.06337796896696091,-0.5036566853523254,0.22529242559827586,-0.5312787593798187,-0.01904389067716282,0.036865271663809686,-0.27847410647727544,0.0,0.0,-0.6,0.0,0.0027294158935546875,0.0047914981842041016,0.010509252548217773,0
1.3935952186584473,-0.07227140665054321,-0.06337796896696091,-0.5036566853523254,0.22529242559827586,-0.5312736369493348,-0.0223525054108992,0.038044483011230666,-0.2794165341334453,0.0,0.0,-0.6,0.0,0.0025763511657714844,0.00434565544128418,0.009578943252563477,0
1.405052900314331,-0.07078775018453598,-0.06369996070861816,-0.508769690990448,0.22722756882074174,-0.5312461349478536,-0.025829277118552898,0.04354162212394661,-0.2808019122011885,0.0,0.0,-0.6,0.0,0.0019080638885498047,0.003974199295043945,0.007754802703857422,0
1.4171371459960938,-0.07078775018453598,-0.06369996070861816,-0.508769690990448,0.22722756882074174,-0.5312203345726584,-0.028203970613007275,0.04729046423155571,-0.28177167684860915,0.0,0.0,-0.6,0.0,0.0020394325256347656,0.003282308578491211,0.008597135543823242,0
1.4298841953277588,-0.06978055834770203,-0.06383819878101349,-0.5120411515235901,0.22851731308426196,-0.5312843093610157,-0.03345891309882309,0.04502700716529108,-0.28293416620062345,0.0,0.0,-0.6,0.0,0.001772165298461914,0.002697467803955078,0.005735158920288086,0
1.4403676986694336,-0.06928880512714386,-0.06389418244361877,-0.5136182904243469,0.22915489471021525,-0.5314105806877812,-0.03621166517583931,0.044513902190639464,-0.28398700185676606,0.0,0.0,-0.6,0.0,0.0020694732666015625,0.004238128662109375,0.009417057037353516,0
1.4543044567108154,-0.06928880512714386,-0.06389418244361877,-0.5136182904243469,0.22915489471021525,-0.531510340933459,-0.03811800673197869,0.044180504940880216,-0.2847239868160662,0.0,0.0,-0.6,0.0,0.0025873184204101562,0.003723621368408203,0.008291959762573242,0
1.4667878150939941,-0.06781146675348282,-0.06404490768909454,-0.5181878805160522,0.23084799432946052,-0.5315875842662293,-0.03771708221966357,0.04943614411223177,-0.2858747886447929,0.0,0.0,-0.6,0.0,0.0022449493408203125,0.0032913684844970703,0.008260965347290039,0
1.4758574962615967,-0.06781146675348282,-0.06404490768909454,-0.5181878805160522,0.23084799432946052,-0.5316477929163556,-0.03746263017859456,0.05303806107751071,-0.2866803499249019,0.0,0.0,-0.6,0.0,0.0024590492248535156,0.004275083541870117,0.008321285247802734,0
1.4907495975494385,-0.06684417277574539,-0.06410359591245651,-0.5210354924201965,0.23168174946562706,-0.5317611317552903,-0.04072424732839888,0.05496945140347067,-0.28755690099704057,0.0,0.0,-0.6,0.0,0.002301454544067383,0.0045528411865234375,0.008801937103271484,0
1.5013060569763184,-0.06684417277574539,-0.06410359591245651,-0.5210354924201965,0.23168174946562706,-0.5318498759163283,-0.042976468605575587,0.05630229993753499,-0.2881704867475379,0.0,0.0,-0.6,0.0,0.0014278888702392578,0.0024323463439941406,0.005349397659301758,0
1.513988733291626,-0.06587998569011688,-0.06410783529281616,-0.5237356424331665,0.23261313610525666,-0.5320179583440657,-0.04422902287614875,0.05647899951988399,-0.288949266762747,0.0,0.0,-0.6,0.0,0.0021877288818359375,0.004388332366943359,0.008409261703491211,0
1.5257701873779297,-0.06587998569011688,-0.06410783529281616,-0.5237356424331665,0.23261313610525666,-0.5321517493235437,-0.04511581180503962,0.056619383355629944,-0.2894944127734012,0.0,0.0,-0.6,0.0,0.0019137859344482422,0.004431009292602539,0.009457588195800781,0
1.5381278991699219,-0.06440935283899307,-0.06402331590652466,-0.5275424122810364,0.23392975166840896,-0.5324063345259803,-0.041140260473535056,0.05406594102664841,-0.29036974581703334,0.0,0.0,-0.6,0.0,0.002659320831298828,0.004546403884887695,0.009414434432983398,0
1.5513942241668701,-0.06440935283899307,-0.06402331590652466,-0.5275424122810364,0.23392975166840896,-0.5326108773088256,-0.038464343344826575,0.052351924908315056,-0.29098247894757606,0.0,0.0,-0.6,0.0,0.0026018619537353516,0.004277229309082031,0.008367061614990234,0
1.5639188289642334,-0.06343334168195724,-0.06390684098005295,-0.5299623608589172,0.23448897631220206,-0.5327499407143234,-0.03571710548250356,0.05232845231872882,-0.2916211013803695,0.0,0.0,-0.6,0.0,0.0027923583984375,0.003930091857910156,0.008999824523925781,0
1.576117753982544,-0.06343334168195724,-0.06390684098005295,-0.5299623608589172,0.23448897631220206,-0.532861773913927,-0.03386320261245761,0.05232935450251928,-0.29206813708333396,0.0,0.0,-0.6,0.0,0.0021817684173583984,0.004143476486206055,0.009083747863769531,0
1.5877313613891602,-0.06183972582221031,-0.06369706988334656,-0.5336211919784546,0.23508306572214746,-0.5330619168164038,-0.027774608253442787,0.05306419322020325,-0.29260384560413855,0.0,0.0,-0.6,0.0,0.002647876739501953,0.004529476165771484,0.008202791213989258,0
1.5999021530151367,-0.06183972582221031,-0.06369706988334656,-0.5336211919784546,0.23508306572214746,-0.5332230939722405,-0.023645711374753804,0.05358997078423919,-0.2929788415687019,0.0,0.0,-0.6,0.0,0.0022542476654052734,0.0046443939208984375,0.008795499801635742,0
1.6120917797088623,-0.06070832163095474,-0.06351581960916519,-0.5359671115875244,0.23543867712905395,-0.5334406231470191,-0.021827938766635316,0.053609718941204206,-0.29337469302149166,0.0,0.0,-0.6,0.0,0.0021376609802246094,0.0046541690826416016,0.008779525756835938,0
1.6260013580322266,-0.06070832163095474,-0.06351581960916519,-0.5359671115875244,0.23543867712905395,-0.5336148769893221,-0.020619796518418398,0.05364561893378185,-0.29365178903843914,0.0,0.0,-0.6,0.0,0.0026826858520507812,0.004670858383178711,0.008985280990600586,0
1.6380031108856201,-0.05929633975028992,-0.06318299472332001,-0.5387123823165894,0.23557421439382242,-0.5337688928890767,-0.014990728553230725,0.0534003415302149,-0.29389658272459057,0.0,0.0,-0.6,0.0,0.0031490325927734375,0.0047016143798828125,0.009097099304199219,0
1.6490356922149658,-0.05929633975028992,-0.06318299472332001,-0.5387123823165894,0.23557421439382242,-0.5338933245936089,-0.011166008287244024,0.0532472634107322,-0.29406793830489664,0.0,0.0,-0.6,0.0,0.0027086734771728516,0.0038957595825195312,0.00905156135559082,0
1.6628289222717285,-0.05830246955156326,-0.06294165551662445,-0.5406614542007446,0.23558010155308462,-0.5339628663895591,-0.006708712964078356,0.0520583045826636,-0.29419009489583425,0.0,0.0,-0.6,0.0,0.002282857894897461,0.0044651031494140625,0.009902000427246094,0
1.675098180770874,-0.05830246955156326,-0.06294165551662445,-0.5406614542007446,0.23558010155308462,-0.5340198752329507,-0.003673105832979015,0.051251882872806985,-0.29427560450949064,0.0,0.0,-0.6,0.0,0.002526998519897461,0.0038995742797851562,0.009122133255004883,0
1.6876554489135742,-0.05695611238479614,-0.06244355067610741,-0.543275773525238,0.2354421091807396,-0.5341059029616002,-0.0030775171839300145,0.04584272596226067,-0.2942837140994208,0.0,0.0,-0.6,0.0,0.002573251724243164,0.0036950111389160156,0.008811235427856445,0
1.6991987228393555,-0.05695611238479614,-0.06244355067610741,-0.543275773525238,0.2354421091807396,-0.5341746591995252,-0.0026835298508619547,0.042153138697251215,-0.2942893908123719,0.0,0.0,-0.6,0.0,0.0019040107727050781,0.0037162303924560547,0.008584737777709961,0
1.7137713432312012,-0.05601175129413605,-0.062068305909633636,-0.5451440215110779,0.2354646802479802,-0.534281673903615,1.7642024059459725e-05,0.03485058802568696,-0.2943018286616529,0.0,0.0,-0.6,0.0,0.0021407604217529297,0.003958463668823242,0.008091926574707031,0
1.7231485843658447,-0.05519299581646919,-0.061727724969387054,-0.5467336177825928,0.2353146134544795,-0.534304210898617,0.004185924826317095,0.03000533175421665,-0.29425426010858624,0.0,0.0,-0.6,0.0,0.0021657943725585938,0.003835916519165039,0.011380434036254883,0
1.7387146949768066,-0.05519299581646919,-0.061727724969387054,-0.5467336177825928,0.2353146134544795,-0.5343240580284453,0.0070308364096395085,0.026696215889232513,-0.2942209621214402,0.0,0.0,-0.6,0.0,0.002137899398803711,0.003923654556274414,0.007641315460205078,0
1.7506258487701416,-0.05394458770751953,-0.06115739792585373,-0.5492151975631714,0.23491450263582694,-0.5342831123570014,0.009633196092478886,0.019867953196811484,-0.2940476119734434,0.0,0.0,-0.6,0.0,0.002953767776489258,0.0042798519134521484,0.010025978088378906,0
1.762758493423462,-0.05394458770751953,-0.06115739792585373,-0.5492151975631714,0.23491450263582694,-0.5342519525790109,0.011417223352199548,0.015199802431100914,-0.29392626686984563,0.0,0.0,-0.6,0.0,0.0012886524200439453,0.0033702850341796875,0.007949113845825195,0
1.7754924297332764,-0.0530223473906517,-0.06074958294630051,-0.5509733557701111,0.23474027322694904,-0.5342565969039232,0.009965210940071738,0.015345064317535042,-0.293775989268998,0.0,0.0,-0.6,0.0,0.0022432804107666016,0.004483461380004883,0.009420633316040039,0
1.7875182628631592,-0.0530223473906517,-0.06074958294630051,-0.5509733557701111,0.23474027322694904,-0.534259497227688,0.008972168090995124,0.015444898358407587,-0.2936707949484046,0.0,0.0,-0.6,0.0,0.001149892807006836,0.002142190933227539,0.006378889083862305,0
1.7978723049163818,-0.052054669708013535,-0.06036653369665146,-0.5528945326805115,0.23445800097900368,-0.5341892188358338,0.00890214014349216,0.01243318702837136,-0.29349130683100977,0.0,0.0,-0.6,0.0,0.0015785694122314453,0.0037200450897216797,0.009059906005859375,0
1.809288501739502,-0.052054669708013535,-0.06036653369665146,-0.5528945326805115,0.23445800097900368,-0.5341334538033341,0.008866089409944293,0.01037109658632348,-0.2933656651488316,0.0,0.0,-0.6,0.0,0.001958608627319336,0.003914594650268555,0.007426023483276367,0
1.822120189666748,-0.050752028822898865,-0.05983355641365051,-0.5554397702217102,0.23388841293755222,-0.5341211329336358,0.009307730367400057,0.0035371100311584348,-0.2930641204557645,0.0,0.0,-0.6,0.0,0.001089334487915039,0.0033233165740966797,0.006444692611694336,0
1.8327913284301758,-0.050752028822898865,-0.05983355641365051,-0.5554397702217102,0.23388841293755222,-0.5341122347992509,0.009610571336763806,-0.0011325752522882981,-0.29285303917061745,0.0,0.0,-0.6,0.0,0.002918720245361328,0.004622697830200195,0.010292530059814453,0
1.846879482269287,-0.0498480498790741,-0.059427134692668915,-0.5571267008781433,0.23342211796782686,-0.5341092991522604,0.0072936590193699545,-0.004479563287840373,-0.2925304216573676,0.0,0.0,-0.6,0.0,0.0022983551025390625,0.003362894058227539,0.008095026016235352,0
1.8569881916046143,-0.0498480498790741,-0.059427134692668915,-0.5571267008781433,0.23342211796782686,-0.5341065424353472,0.005710566082002164,-0.006765739345370751,-0.2923045893980926,0.0,0.0,-0.6,0.0,0.002955913543701172,0.004700660705566406,0.00909423828125,0
1.8701791763305664,-0.04897768422961235,-0.059062857180833817,-0.5587726831436157,0.23266427849274057,-0.5341083963874104,0.005281345638782373,-0.006021453259773545,-0.29186231701344295,0.0,0.0,-0.6,0.0,0.0025615692138671875,0.004654407501220703,0.008673906326293945,0
1.882300615310669,-0.04897768422961235,-0.059062857180833817,-0.5587726831436157,0.23266427849274057,-0.5341094395875577,0.004987808653663521,-0.005512746158583319,-0.2915527263441881,0.0,0.0,-0.6,0.0,0.0014483928680419922,0.0037529468536376953,0.00760650634765625,0
1.8933258056640625,-0.04778449237346649,-0.058378659188747406,-0.5611906051635742,0.2312880819795161,-0.5340235168666236,0.009732509891317194,-0.004722783038869577,-0.29081993918325094,0.0,0.0,-0.6,0.0,0.0012040138244628906,0.0023865699768066406,0.006924867630004883,0
1.9043304920196533,-0.04778449237346649,-0.058378659188747406,-0.5611906051635742,0.2312880819795161,-0.5339564915287631,0.012986753107013155,-0.004194292714619384,-0.2903069881706018,0.0,0.0,-0.6,0.0,0.0023605823516845703,0.0040607452392578125,0.008088111877441406,0
1.9184088706970215,-0.047028981149196625,-0.057898785918951035,-0.5627626776695251,0.2303156603656621,-0.53393189994417,0.013472664086996952,-0.008320168300523043,-0.28958326435654524,0.0,0.0,-0.6,0.0,0.0013070106506347656,0.0022726058959960938,0.00628209114074707,0
1.9287207126617432,-0.047028981149196625,-0.057898785918951035,-0.5627626776695251,0.2303156603656621,-0.5339136547765003,0.013807151001214117,-0.011141782677268411,-0.2890766576867055,0.0,0.0,-0.6,0.0,0.0014193058013916016,0.0031347274780273438,0.007297992706298828,0
1.940896987915039,-0.0462910532951355,-0.05734885483980179,-0.564318835735321,0.2294177367200527,-0.5338951973338772,0.009773904930834802,-0.010175207821640816,-0.2883853116507143,0.0,0.0,-0.6,0.0,0.0025594234466552734,0.005140066146850586,0.009018182754516602,0
1.9521801471710205,-0.0462910532951355,-0.05734885483980179,-0.564318835735321,0.2294177367200527,-0.5338779275604036,0.007021088631972743,-0.009514944162932474,-0.28790136942552025,0.0,0.0,-0.6,0.0,0.0017211437225341797,0.004134178161621094,0.008701801300048828,0
1.9659836292266846,-0.04524039849638939,-0.05644826218485832,-0.5665494799613953,0.2277419935502345,-0.5338286923291995,0.007077212835864659,-0.006584463332481859,-0.28693420617920307,0.0,0.0,-0.6,0.0,0.002452373504638672,0.004037380218505859,0.00933980941772461,0
1.9781455993652344,-0.04524039849638939,-0.05644826218485832,-0.5665494799613953,0.2277419935502345,-0.5337882365050411,0.007123715802243955,-0.004588178419852944,-0.2862571919067714,0.0,0.0,-0.6,0.0,0.002153158187866211,0.0031919479370117188,0.006873130798339844,0
1.9874885082244873,-0.04460794851183891,-0.05582059919834137,-0.5679740309715271,0.22658096000632263,-0.5338772443127349,0.00917323354411155,-0.0052035533203030155,-0.2853478943371119,0.0,0.0,-0.6,0.0,0.0021753311157226562,0.004796743392944336,0.009286642074584961,0
2.0000736713409424,-0.04460794851183891,-0.05582059919834137,-0.5679740309715271,0.22658096000632263,-0.5339493716302496,0.01056042421258887,-0.005616468242240412,-0.28471138603834995,0.0,0.0,-0.6,0.0,0.0026030540466308594,0.004556417465209961,0.009289741516113281,0
2.0143613815307617,-0.043721504509449005,-0.054771456867456436,-0.569991946220398,0.224920052016711,-0.5340821899962579,0.004237207084245633,-0.009114859521723393,-0.28364298973311264,0.0,0.0,-0.6,0.0,0.002679109573364258,0.0046236515045166016,0.007804393768310547,0
2.026606321334839,-0.043721504509449005,-0.054771456867456436,-0.569991946220398,0.224920052016711,-0.5341859076060914,-0.00010641769697362913,-0.011487327889140062,-0.2828951123194462,0.0,0.0,-0.6,0.0,0.0011734962463378906,0.0023043155670166016,0.00753331184387207,0
2.038203239440918,-0.0431787446141243,-0.05403291434049606,-0.571223795413971,0.22381249079853358,-0.5343008376961366,-0.006180018948699797,-0.013314033915462192,-0.28195626267306334,0.0,0.0,-0.6,0.0,0.0022644996643066406,0.0032508373260498047,0.008364439010620117,0
2.0510499477386475,-0.0431787446141243,-0.05403291434049606,-0.571223795413971,0.22381249079853358,-0.5343905062007902,-0.01034767294910488,-0.014545674738561684,-0.28129906792059506,0.0,0.0,-0.6,0.0,0.0023772716522216797,0.004223823547363281,0.0077021121978759766,0
2.063899278640747,-0.04267822951078415,-0.05323496088385582,-0.5724900364875793,0.22266952444412355,-0.5345485417112082,-0.011670853841663371,-0.019254802392852457,-0.28041041921096377,0.0,0.0,-0.6,0.0,0.001445770263671875,0.0030968189239501953,0.00770115852355957,0
2.0759382247924805,-0.04267822951078415,-0.05323496088385582,-0.5724900364875793,0.22266952444412355,-0.534675994744282,-0.012597475654610977,-0.022454182945285513,-0.27978836511422156,0.0,0.0,-0.6,0.0,0.002534627914428711,0.004640102386474609,0.009916543960571289,0
2.0881433486938477,-0.04222136363387108,-0.052398908883333206,-0.5736591815948486,0.2210974105337512,-0.5347715411225271,-0.01799061000267669,-0.021317937589166024,-0.2787633845301128,0.0,0.0,-0.6,0.0,0.001708984375,0.0038759708404541016,0.007369041442871094,0
2.1011624336242676,-0.04201940447092056,-0.05199415236711502,-0.5741592645645142,0.22054901092634735,-0.5348688016197626,-0.02035969573839667,-0.019804503661762486,-0.2778402482684729,0.0,0.0,-0.6,0.0,0.002460479736328125,0.0035314559936523438,0.009006500244140625,0
2.115936756134033,-0.04168107733130455,-0.051205120980739594,-0.575114369392395,0.2195190221495851,-0.534999174518895,-0.020639615978748208,-0.020416595823433466,-0.27680780709402647,0.0,0.0,-0.6,0.0,0.0028269290924072266,0.004704713821411133,0.009706497192382812,0
2.131777763366699,-0.04133747145533562,-0.05038047581911087,-0.5758902430534363,0.21834435442463596,-0.5351680378441656,-0.021026682644642074,-0.02245529917872315,-0.2756445978750743,0.0,0.0,-0.6,0.0,0.002254962921142578,0.0043811798095703125,0.011867046356201172,0
2.1491968631744385,-0.04133747145533562,-0.05038047581911087,-0.5758902430534363,0.21834435442463596,-0.5353035608935577,-0.0213133894170777,-0.023829106269467482,-0.2748303514217913,0.0,0.0,-0.6,0.0,0.004263639450073242,0.007162570953369141,0.015372991561889648,0
2.1695985794067383,-0.04103462025523186,-0.04912389814853668,-0.5770223736763,0.21633836836419695,-0.5355720604513792,-0.026161457697146354,-0.02814620780986439,-0.2735081341318474,0.0,0.0,-0.6,0.0,0.0041201114654541016,0.007347822189331055,0.01583075523376465,0
2.1919522285461426,-0.040790263563394547,-0.04784952849149704,-0.577808678150177,0.21450594732548667,-0.5358972392746132,-0.02756442531929057,-0.02611474735210343,-0.2718954241393523,0.0,0.0,-0.6,0.0,0.00225830078125,0.005470752716064453,0.014177083969116211,0
2.210226535797119,-0.040790263563394547,-0.04784952849149704,-0.577808678150177,0.21450594732548667,-0.5361552701713125,-0.028556466065219378,-0.02467862597485939,-0.27076652714460525,0.0,0.0,-0.6,0.0,0.0038499832153320312,0.007815837860107422,0.015784025192260742,0
2.2338995933532715,-0.04063323140144348,-0.04605935141444206,-0.5786627531051636,0.21200134421004294,-0.5363960070060847,-0.033430908311999116,-0.02376121960556889,-0.26903707307999153,0.0,0.0,-0.6,0.0,0.0034584999084472656,0.007673501968383789,0.01401829719543457,0
2.2525827884674072,-0.04063323140144348,-0.04605935141444206,-0.5786627531051636,0.21200134421004294,-0.5365865682356943,-0.03678585081553515,-0.023093162307430345,-0.2678264552347614,0.0,0.0,-0.6,0.0,0.004171609878540039,0.00789499282836914,0.016034603118896484,0
2.2731409072875977,-0.04057067632675171,-0.04385877028107643,-0.5794529318809509,0.20877222306889737,-0.5368838677991398,-0.03792705244364587,-0.019354967466195055,-0.26576810231517156,0.0,0.0,-0.6,0.0,0.0034286975860595703,0.006653308868408203,0.014083147048950195,0
2.292187452316284,-0.04057067632675171,-0.04385877028107643,-0.5794529318809509,0.20877222306889737,-0.5371185552712137,-0.03872763682036325,-0.0167476141431103,-0.2643272552714381,0.0,0.0,-0.6,0.0,0.0031099319458007812,0.005174160003662109,0.013475894927978516,0
2.3120718002319336,-0.04062284156680107,-0.04251297563314438,-0.5797560214996338,0.20696687658243168,-0.5374412915768816,-0.040069158220140774,-0.016674614918151396,-0.2626416574084202,0.0,0.0,-0.6,0.0,0.003783702850341797,0.006982326507568359,0.013899087905883789,0
2.332275390625,-0.04062284156680107,-0.04251297563314438,-0.5797560214996338,0.20696687658243168,-0.5376986235137523,-0.04100878081405751,-0.016566427382229083,-0.2614617389043072,0.0,0.0,-0.6,0.0,0.0031926631927490234,0.005273103713989258,0.012952804565429688,0
2.348496675491333,-0.040774136781692505,-0.040691591799259186,-0.5799319744110107,0.2040040084031002,-0.5379589572368643,-0.03806371114715533,-0.005765534947110514,-0.25952472038417956,0.0,0.0,-0.6,0.0,0.003839254379272461,0.007175922393798828,0.01591944694519043,0
2.369328022003174,-0.040774136781692505,-0.040691591799259186,-0.5799319744110107,0.2040040084031002,-0.5381580738440076,-0.03605392023868771,0.0016694875880587491,-0.25816880742008963,0.0,0.0,-0.6,0.0,0.002218484878540039,0.005575418472290039,0.013851642608642578,0
2.392155170440674,-0.04093250632286072,-0.038834769278764725,-0.5799659490585327,0.2012934766525518,-0.5383670310945533,-0.032506201177874186,0.006319756073226206,-0.2562032189387716,0.0,0.0,-0.6,0.0,0.0031571388244628906,0.006185770034790039,0.013999700546264648,0
2.4145829677581787,-0.04101056233048439,-0.037923432886600494,-0.5799211263656616,0.19979535990902564,-0.5385843379208907,-0.02790533901232467,0.012126437684534284,-0.2542655132230267,0.0,0.0,-0.6,0.0,0.0036547183990478516,0.007117509841918945,0.016359567642211914,0
2.432149887084961,-0.04101056233048439,-0.037923432886600494,-0.5799211263656616,0.19979535990902564,-0.538753701610978,-0.024763596347861797,0.016134221046404343,-0.25290911922200465,0.0,0.0,-0.6,0.0,0.0034029483795166016,0.007082700729370117,0.013251781463623047,0
2.4532790184020996,-0.041110116988420486,-0.036125052720308304,-0.5797079205513,0.19703904953031223,-0.5389499332099191,-0.020655509444852182,0.029647476868926277,-0.2509260270292448,0.0,0.0,-0.6,0.0,0.0035822391510009766,0.006561756134033203,0.015573501586914062,0
2.473335027694702,-0.04118052497506142,-0.035282328724861145,-0.5795595049858093,0.19543785814797568,-0.5392177257090486,-0.017601172022682403,0.03635506408369234,-0.24893741572596423,0.0,0.0,-0.6,0.0,0.0037114620208740234,0.007736682891845703,0.01562190055847168,0
2.4932963848114014,-0.04114605486392975,-0.033964525908231735,-0.5792044997215271,0.19303216759940015,-0.5395111266612579,-0.01335041035865087,0.04476531764811062,-0.2466432538579523,0.0,0.0,-0.6,0.0,0.0037751197814941406,0.006666898727416992,0.013859272003173828,0
2.512005090713501,-0.04114605486392975,-0.033964525908231735,-0.5792044997215271,0.19303216759940015,-0.5397406354582185,-0.010440621995629541,0.05056532776228289,-0.24503734055034326,0.0,0.0,-0.6,0.0,0.00420689582824707,0.007091999053955078,0.015179872512817383,0
2.536088705062866,-0.041045427322387695,-0.03267569839954376,-0.5786800980567932,0.1901138801259415,-0.5399813851652147,-0.0035515586587212674,0.05663336215361664,-0.24281884343247054,0.0,0.0,-0.6,0.0,0.0035386085510253906,0.007860898971557617,0.01587390899658203,0
2.558506965637207,-0.04101536050438881,-0.031853850930929184,-0.5783294439315796,0.18863362949438792,-0.5402105289588378,0.0014763677205204447,0.06082425513792297,-0.24071080146312696,0.0,0.0,-0.6,0.0,0.003030538558959961,0.0063323974609375,0.015022039413452148,0
2.579537868499756,-0.04093012586236,-0.031042035669088364,-0.5779629349708557,0.18649690376509342,-0.5403488691234223,0.004421593839392467,0.06579867310739715,-0.23843389993610117,0.0,0.0,-0.6,0.0,0.0036623477935791016,0.006960391998291016,0.014456033706665039,0
2.6003105640411377,-0.04086393862962723,-0.029888931661844254,-0.5773548483848572,0.1835179209801215,-0.5405017783092038,0.009820793334700846,0.06560690373058728,-0.2357229503228191,0.0,0.0,-0.6,0.0,0.0032758712768554688,0.007111549377441406,0.012758970260620117,0
2.6193017959594727,-0.04086393862962723,-0.029888931661844254,-0.5773548483848572,0.1835179209801215,-0.5406240294920742,0.013505192081000402,0.0654854803129197,-0.2338252855935208,0.0,0.0,-0.6,0.0,0.00393366813659668,0.007382631301879883,0.015914201736450195,0
2.6398792266845703,-0.040725287050008774,-0.028522750362753868,-0.5767468214035034,0.18010525796231794,-0.5407969260351794,0.011099799591952914,0.061110196804683804,-0.2312171716513364,0.0,0.0,-0.6,0.0,0.0036110877990722656,0.006365537643432617,0.013819456100463867,0
2.659411907196045,-0.040725287050008774,-0.028522750362753868,-0.5767468214035034,0.18010525796231794,-0.5409342202707351,0.009438419953568419,0.05814039097032248,-0.22939149189180652,0.0,0.0,-0.6,0.0,0.004081010818481445,0.0074083805084228516,0.014664649963378906,0
2.6797637939453125,-0.040507618337869644,-0.027419885620474815,-0.5761826038360596,0.1768809656438829,-0.5409216888061957,0.01323323538700456,0.05381584043253835,-0.22690440644072313,0.0,0.0,-0.6,0.0,0.0030803680419921875,0.006409168243408203,0.015016555786132812,0
2.7002978324890137,-0.040507618337869644,-0.027419885620474815,-0.5761826038360596,0.1768809656438829,-0.5409123004504689,0.015821487557400874,0.05085263104651465,-0.22516344662496401,0.0,0.0,-0.6,0.0,0.004370450973510742,0.007273674011230469,0.015645980834960938,0
2.7207016944885254,-0.04030297324061394,-0.026617389172315598,-0.5755713582038879,0.17389618716583188,-0.540992037030062,0.01951562365686384,0.04456793674080525,-0.22282548282466408,0.0,0.0,-0.6,0.0,0.0040628910064697266,0.007074594497680664,0.015695571899414062,0
2.742004632949829,-0.04030297324061394,-0.026617389172315598,-0.5755713582038879,0.17389618716583188,-0.5410563877057025,0.02202665342546182,0.04027245594375778,-0.22118890816445344,0.0,0.0,-0.6,0.0,0.002373218536376953,0.006088972091674805,0.013605833053588867,0
2.761115789413452,-0.04012185335159302,-0.02605951391160488,-0.5748423933982849,0.17098728320999154,-0.5411505543235685,0.02263721288481082,0.03404621814350832,-0.21895246691886647,0.0,0.0,-0.6,0.0,0.004189014434814453,0.007112026214599609,0.01508188247680664,0
2.779595136642456,-0.04012185335159302,-0.02605951391160488,-0.5748423933982849,0.17098728320999154,-0.5412259702979781,0.023037889620011683,0.029795832626271085,-0.21738695804695493,0.0,0.0,-0.6,0.0,0.0043675899505615234,0.00794839859008789,0.016701459884643555,0
2.800971269607544,-0.039980027824640274,-0.025676650926470757,-0.5739333629608154,0.16777397907396227,-0.5414194916677413,0.02156459567111769,0.023622021332550022,-0.2150861127856066,0.0,0.0,-0.6,0.0,0.002061605453491211,0.005387783050537109,0.01210927963256836,0
2.821225881576538,-0.03989817947149277,-0.025551673024892807,-0.5733941197395325,0.1664497594977322,-0.5416282002165326,0.026260712337466637,0.019868277398060387,-0.2129789387615763,0.0,0.0,-0.6,0.0,0.0041429996490478516,0.006273031234741211,0.01477503776550293,0
2.839977264404297,-0.03989817947149277,-0.025551673024892807,-0.5733941197395325,0.1664497594977322,-0.5417965460232271,0.029448298120883207,0.01731411728722703,-0.21150391694475446,0.0,0.0,-0.6,0.0,0.002256155014038086,0.005169391632080078,0.01203465461730957,0
2.8593955039978027,-0.03982634097337723,-0.025447441264986992,-0.5722512006759644,0.1631962486179976,-0.541950872665611,0.0291012094664648,0.012951974613404253,-0.20925133509307947,0.0,0.0,-0.6,0.0,0.0037412643432617188,0.007076740264892578,0.01584315299987793,0
2.878169536590576,-0.03982634097337723,-0.025447441264986992,-0.5722512006759644,0.1631962486179976,-0.5420745947879972,0.028841685743513795,0.009984850364623012,-0.20767452779690632,0.0,0.0,-0.6,0.0,0.0038111209869384766,0.0071258544921875,0.015280723571777344,0
2.900618314743042,-0.039876990020275116,-0.025405798107385635,-0.5710521936416626,0.16007071843737786,-0.5422676897708623,0.029560773138127515,0.005827720786482126,-0.2053986888718534,0.0,0.0,-0.6,0.0,0.0028777122497558594,0.006521701812744141,0.014827728271484375,0
2.9211983680725098,-0.039876990020275116,-0.025405798107385635,-0.5710521936416626,0.16007071843737786,-0.5424230234456962,0.03002747604480073,0.003005956494376633,-0.20380560162431566,0.0,0.0,-0.6,0.0,0.0037076473236083984,0.00691986083984375,0.014353513717651367,0
2.939877510070801,-0.040045347064733505,-0.025496147572994232,-0.569989800453186,0.156796084937904,-0.5423915108190066,0.03320702638736359,0.004452272027457127,-0.2014624529887373,0.0,0.0,-0.6,0.0,0.004415273666381836,0.0074062347412109375,0.016762733459472656,0
2.962225914001465,-0.040045347064733505,-0.025496147572994232,-0.569989800453186,0.156796084937904,-0.5423670978208579,0.035385732786604826,0.0054315550601754135,-0.19982224894383174,0.0,0.0,-0.6,0.0,0.002607107162475586,0.006250858306884766,0.014253616333007812,0
2.981189250946045,-0.04043176397681236,-0.02573039010167122,-0.5690762996673584,0.1536223923623101,-0.5423005641000251,0.03397330403433155,-0.002020098470329015,-0.19748397139655083,0.0,0.0,-0.6,0.0,0.003800630569458008,0.007220745086669922,0.014998435974121094,0
3.0020368099212646,-0.04043176397681236,-0.02573039010167122,-0.5690762996673584,0.1536223923623101,-0.5422489540113854,0.03300579640231006,-0.007121479318972328,-0.1958471771134535,0.0,0.0,-0.6,0.0,0.00420689582824707,0.007095813751220703,0.015642642974853516,0
3.023690938949585,-0.04095804691314697,-0.0260621290653944,-0.5682854056358337,0.1505363628861573,-0.542232396962092,0.029934229930133765,-0.011396308438729703,-0.19354416006172875,0.0,0.0,-0.6,0.0,0.003878355026245117,0.007096052169799805,0.01530909538269043,0
