time,x,y,z,yaw,throttle,roll_rate,pitch_rate,yaw_rate,x_ref,y_ref,z_ref,yaw_ref,mpc_time,ctrl_callback_time_history,metadata
2.384185791015625e-06,-0.05828188359737396,0.041296545416116714,-0.2423371970653534,0.09734576945240117,-0.6352876862970406,-0.3999706358602744,-0.30630152262438326,-0.6228294240601185,0.0,0.0,-0.6,0.0,0.018874645233154297,0.023018836975097656,Hardware
0.024246931076049805,-0.05828188359737396,0.041296545416116714,-0.2423371970653534,0.09734576945240117,-0.6352876862970406,-0.3999706358602744,-0.30630152262438326,-0.6228294240601185,0.0,0.0,-0.6,0.0,0.0011410713195800781,0.004762887954711914,2x Speed
0.03135561943054199,-0.058195892721414566,0.04134649410843849,-0.24235711991786957,0.09726230489415116,-0.6352876863756728,-0.4001566824312484,-0.2986878020274916,-0.6222972000232587,0.0,0.0,-0.6,0.0,0.007230520248413086,0.01102447509765625,Horizon:3.0
0.04427671432495117,-0.058195892721414566,0.04134649410843849,-0.24235711991786957,0.09726230489415116,-0.6352876863756728,-0.4001566824312484,-0.2986878020274916,-0.6222972000232587,0.0,0.0,-0.6,0.0,0.0011012554168701172,0.004477977752685547,Num Steps:20
0.05072426795959473,-0.05814049020409584,0.041376013308763504,-0.2423558086156845,0.09729716774780747,-0.63528768610554,-0.4011255960548692,-0.3019599558228584,-0.6225171999921112,0.0,0.0,-0.6,0.0,0.007269859313964844,0.01106715202331543,No Pyjoules
0.06369614601135254,-0.05814049020409584,0.041376013308763504,-0.2423558086156845,0.09729716774780747,-0.63528768610554,-0.4011255960548692,-0.3019599558228584,-0.6225171999921112,0.0,0.0,-0.6,0.0,0.0010385513305664062,0.004751920700073242,0
0.07038998603820801,-0.058104030787944794,0.041408758610486984,-0.24238541722297668,0.09705343994653881,-0.635287686113994,-0.40217227620645246,-0.30099997908964204,-0.6209659013935862,0.0,0.0,-0.6,0.0,0.007231950759887695,0.01086115837097168,0
0.08273577690124512,-0.058104030787944794,0.041408758610486984,-0.24238541722297668,0.09705343994653881,-0.635287686113994,-0.40217227620645246,-0.30099997908964204,-0.6209659013935862,0.0,0.0,-0.6,0.0,0.0010726451873779297,0.004552125930786133,0
0.09070754051208496,-0.05806095525622368,0.04146255552768707,-0.24243512749671936,0.09700771360256154,-0.635287686104149,-0.4016228531170225,-0.3086326959613112,-0.6206757808166268,0.0,0.0,-0.6,0.0,0.007276058197021484,0.010983705520629883,0
0.10298490524291992,-0.05806095525622368,0.04146255552768707,-0.24243512749671936,0.09700771360256154,-0.635287686104149,-0.4016228531170225,-0.3086326959613112,-0.6206757808166268,0.0,0.0,-0.6,0.0,0.0011005401611328125,0.005045175552368164,0
0.11054563522338867,-0.05806414410471916,0.04150925949215889,-0.2425440400838852,0.09607448806972488,-0.6352876852675654,-0.40481746287697035,-0.3073581660389019,-0.6147114931278592,0.0,0.0,-0.6,0.0,0.007067680358886719,0.010951757431030273,0
0.12278270721435547,-0.05806414410471916,0.04150925949215889,-0.2425440400838852,0.09607448806972488,-0.6352876852675654,-0.40481746287697035,-0.3073581660389019,-0.6147114931278592,0.0,0.0,-0.6,0.0,0.0011055469512939453,0.004889488220214844,0
0.13003277778625488,-0.057965148240327835,0.04153433442115784,-0.24274234473705292,0.09512860128861775,-0.635287685058827,-0.40026368469478757,-0.25937969097058433,-0.6086443257276929,0.0,0.0,-0.6,0.0,0.008697748184204102,0.01236581802368164,0
0.14384794235229492,-0.057965148240327835,0.04153433442115784,-0.24274234473705292,0.09512860128861775,-0.635287685058827,-0.40026368469478757,-0.25937969097058433,-0.6086443257276929,0.0,0.0,-0.6,0.0,0.001071929931640625,0.004782915115356445,0
0.1509544849395752,-0.057657040655612946,0.04145025461912155,-0.24300546944141388,0.09550771356681104,-0.6352876838140483,-0.3366296511071567,-0.20382874669241982,-0.6110378296138197,0.0,0.0,-0.6,0.0,0.00854635238647461,0.012461185455322266,0
0.1648094654083252,-0.057657040655612946,0.04145025461912155,-0.24300546944141388,0.09550771356681104,-0.6352876838140483,-0.3366296511071567,-0.20382874669241982,-0.6110378296138197,0.0,0.0,-0.6,0.0,0.0010988712310791016,0.004871368408203125,0
0.17191743850708008,-0.05707411840558052,0.04124346002936363,-0.24349188804626465,0.09532360618633984,-0.6352876626479927,-0.25422050477226354,-0.08737774106919985,-0.6098055813469453,0.0,0.0,-0.6,0.0,0.008352041244506836,0.012355804443359375,0
0.1856534481048584,-0.05707411840558052,0.04124346002936363,-0.24349188804626465,0.09532360618633984,-0.6352876626479927,-0.25422050477226354,-0.08737774106919985,-0.6098055813469453,0.0,0.0,-0.6,0.0,0.0011169910430908203,0.004740238189697266,0
0.1928715705871582,-0.056200288236141205,0.04085293039679527,-0.2445565164089203,0.09493410659780702,-0.6350550665675523,-0.21651211024055925,-0.0077797875042735975,-0.6073183795076617,0.0,0.0,-0.6,0.0,0.009338617324829102,0.013193607330322266,0
0.20813465118408203,-0.056200288236141205,0.04085293039679527,-0.2445565164089203,0.09493410659780702,-0.6350550665675523,-0.21651211024055925,-0.0077797875042735975,-0.6073183795076617,0.0,0.0,-0.6,0.0,0.0010960102081298828,0.004706144332885742,0
0.21518349647521973,-0.05510938912630081,0.04022477939724922,-0.2462603598833084,0.0939726216504074,-0.6296316813143076,-0.14208295487435893,0.0976929323455086,-0.601156414174056,0.0,0.0,-0.6,0.0,0.0073659420013427734,0.0113525390625,0
0.22783684730529785,-0.05510938912630081,0.04022477939724922,-0.2462603598833084,0.0939726216504074,-0.6296316813143076,-0.14208295487435893,0.0976929323455086,-0.601156414174056,0.0,0.0,-0.6,0.0,0.0010764598846435547,0.00478363037109375,0
0.23514032363891602,-0.05385328456759453,0.03931707516312599,-0.2487623542547226,0.09206712324172905,-0.6196992654239462,0.015104451884607767,0.24101282771117571,-0.5888790798118163,0.0,0.0,-0.6,0.0,0.006634712219238281,0.010600566864013672,0
0.2477729320526123,-0.0524468757212162,0.03819681704044342,-0.25207236409187317,0.08926410211469213,-0.6109020994955059,0.22639172597117646,0.34181212103727115,-0.5707271255520499,0.0,0.0,-0.6,0.0,0.006926536560058594,0.010881423950195312,0
0.2599968910217285,-0.0524468757212162,0.03819681704044342,-0.25207236409187317,0.08926410211469213,-0.6109020994955059,0.22639172597117646,0.34181212103727115,-0.5707271255520499,0.0,0.0,-0.6,0.0,0.001135110855102539,0.00480341911315918,0
0.2701132297515869,-0.05094604566693306,0.036896269768476486,-0.25614026188850403,0.0858720720069076,-0.6051934619396548,0.3074207347399033,0.44746764285769,-0.5490693642182913,0.0,0.0,-0.6,0.0,0.006466388702392578,0.01067495346069336,0
0.2821044921875,-0.05094604566693306,0.036896269768476486,-0.25614026188850403,0.0858720720069076,-0.6051934619396548,0.3074207347399033,0.44746764285769,-0.5490693642182913,0.0,0.0,-0.6,0.0,0.0010962486267089844,0.0046956539154052734,0
0.29031801223754883,-0.049347274005413055,0.0355679988861084,-0.2609631419181824,0.08213857161675028,-0.597878952349839,0.43929774590583304,0.5535533722094794,-0.5251182917748912,0.0,0.0,-0.6,0.0,0.006712436676025391,0.010494470596313477,0
0.30210447311401367,-0.049347274005413055,0.0355679988861084,-0.2609631419181824,0.08213857161675028,-0.597878952349839,0.43929774590583304,0.5535533722094794,-0.5251182917748912,0.0,0.0,-0.6,0.0,0.0011305809020996094,0.0050051212310791016,0
0.3101208209991455,-0.04755452647805214,0.03405880928039551,-0.2667209208011627,0.07818211857237883,-0.5891338333547209,0.5192333723452315,0.6537981230916807,-0.4998985102370781,0.0,0.0,-0.6,0.0,0.0068285465240478516,0.010547161102294922,0
0.32200121879577637,-0.04755452647805214,0.03405880928039551,-0.2667209208011627,0.07818211857237883,-0.5891338333547209,0.5192333723452315,0.6537981230916807,-0.4998985102370781,0.0,0.0,-0.6,0.0,0.0011098384857177734,0.004541158676147461,0
0.32976222038269043,-0.04555894434452057,0.03230674937367439,-0.2733166813850403,0.07374189467549022,-0.5816508837972844,0.6793114909384633,0.758478241723373,-0.47134036042969807,0.0,0.0,-0.6,0.0,0.009868860244750977,0.014064550399780273,0
0.3452327251434326,-0.04555894434452057,0.03230674937367439,-0.2733166813850403,0.07374189467549022,-0.5816508837972844,0.6793114909384633,0.758478241723373,-0.47134036042969807,0.0,0.0,-0.6,0.0,0.0010945796966552734,0.004826545715332031,0
0.35242581367492676,-0.043480392545461655,0.030411247164011,-0.2806748151779175,0.06897735875913899,-0.5726511928606729,0.7305372184344635,0.7825396424925126,-0.440847094363736,0.0,0.0,-0.6,0.0,0.009748458862304688,0.01363682746887207,0
0.3673255443572998,-0.043480392545461655,0.030411247164011,-0.2806748151779175,0.06897735875913899,-0.5726511928606729,0.7305372184344635,0.7825396424925126,-0.440847094363736,0.0,0.0,-0.6,0.0,0.0010650157928466797,0.004754543304443359,0
0.3746678829193115,-0.041440628468990326,0.028534049168229103,-0.28862106800079346,0.06355035746909289,-0.5649698580333747,0.789649899286601,0.7999797099226733,-0.405988786534059,0.0,0.0,-0.6,0.0,0.011947870254516602,0.01602768898010254,0
0.39319705963134766,-0.039460983127355576,0.026640228927135468,-0.2971322238445282,0.057935262728890054,-0.5583319726392136,0.7358442444823827,0.739674838816582,-0.3701410324413108,0.0,0.0,-0.6,0.0,0.008117198944091797,0.012019157409667969,0
0.40699291229248047,-0.039460983127355576,0.026640228927135468,-0.2971322238445282,0.057935262728890054,-0.5583319726392136,0.7358442444823827,0.739674838816582,-0.3701410324413108,0.0,0.0,-0.6,0.0,0.0010623931884765625,0.005021095275878906,0
0.41405272483825684,-0.03648979589343071,0.023787951096892357,-0.31053903698921204,0.049044348957792146,-0.5506366205635176,0.7063843218014005,0.6550233471865022,-0.3132001666463209,0.0,0.0,-0.6,0.0,0.007396697998046875,0.01153254508972168,0
0.4270303249359131,-0.03648979589343071,0.023787951096892357,-0.31053903698921204,0.049044348957792146,-0.5506366205635176,0.7063843218014005,0.6550233471865022,-0.3132001666463209,0.0,0.0,-0.6,0.0,0.001054525375366211,0.004884243011474609,0
0.4342477321624756,-0.0345333032310009,0.021958032622933388,-0.3197075128555298,0.04281864926188133,-0.5467061473758473,0.560406102729233,0.573059518523743,-0.27359441072508234,0.0,0.0,-0.6,0.0,0.0062940120697021484,0.010025262832641602,0
0.4455220699310303,-0.0345333032310009,0.021958032622933388,-0.3197075128555298,0.04281864926188133,-0.5467061473758473,0.560406102729233,0.573059518523743,-0.27359441072508234,0.0,0.0,-0.6,0.0,0.0010623931884765625,0.004462718963623047,0
0.45241212844848633,-0.03349042683839798,0.021036116406321526,-0.3243856728076935,0.03982318289444199,-0.5453234082974484,0.5081891080622744,0.5618078033610034,-0.25449408732185674,0.0,0.0,-0.6,0.0,0.00576019287109375,0.009266853332519531,0
0.4636807441711426,-0.03246816247701645,0.02011571265757084,-0.32901909947395325,0.03685864104344725,-0.5437557137322783,0.44459494977809155,0.49904124178875,-0.23554389258181538,0.0,0.0,-0.6,0.0,0.005545377731323242,0.009306669235229492,0
0.4744150638580322,-0.03246816247701645,0.02011571265757084,-0.32901909947395325,0.03685864104344725,-0.5437557137322783,0.44459494977809155,0.49904124178875,-0.23554389258181538,0.0,0.0,-0.6,0.0,0.0010981559753417969,0.005090236663818359,0
0.4819319248199463,-0.030512074008584023,0.018229376524686813,-0.33851996064186096,0.03128596507276478,-0.5383231838080922,0.34369425895432854,0.3646864078320727,-0.1999253007906246,0.0,0.0,-0.6,0.0,0.00630497932434082,0.01037454605102539,0
0.49411845207214355,-0.030512074008584023,0.018229376524686813,-0.33851996064186096,0.03128596507276478,-0.5383231838080922,0.34369425895432854,0.3646864078320727,-0.1999253007906246,0.0,0.0,-0.6,0.0,0.0011129379272460938,0.005040645599365234,0
0.5016121864318848,-0.02853137068450451,0.01640280894935131,-0.3478133976459503,0.026180684383253165,-0.5393981009908719,0.2184451398251459,0.22375771077293471,-0.16732865515707493,0.0,0.0,-0.6,0.0,0.006407022476196289,0.010440349578857422,0
0.5133707523345947,-0.02853137068450451,0.01640280894935131,-0.3478133976459503,0.026180684383253165,-0.5393981009908719,0.2184451398251459,0.22375771077293471,-0.16732865515707493,0.0,0.0,-0.6,0.0,0.001089334487915039,0.004971504211425781,0
0.5207123756408691,-0.026566868647933006,0.01449170708656311,-0.35700365900993347,0.021418559938545148,-0.5360916775344646,0.13137530063840205,0.05406424149443698,-0.13708375100776812,0.0,0.0,-0.6,0.0,0.006338357925415039,0.010039567947387695,0
0.5325472354888916,-0.026566868647933006,0.01449170708656311,-0.35700365900993347,0.021418559938545148,-0.5360916775344646,0.13137530063840205,0.05406424149443698,-0.13708375100776812,0.0,0.0,-0.6,0.0,0.0011341571807861328,0.004735708236694336,0
0.540440559387207,-0.0247361958026886,0.012607349082827568,-0.36613890528678894,0.017032871922942117,-0.5349933530436564,0.0053616600555109455,-0.08488232760091657,-0.10921153368571078,0.0,0.0,-0.6,0.0,0.006133317947387695,0.009994983673095703,0
0.5518906116485596,-0.0247361958026886,0.012607349082827568,-0.36613890528678894,0.017032871922942117,-0.5349933530436564,0.0053616600555109455,-0.08488232760091657,-0.10921153368571078,0.0,0.0,-0.6,0.0,0.0011076927185058594,0.004899263381958008,0
0.5599870681762695,-0.022941311821341515,0.010813952423632145,-0.37508705258369446,0.01295664198245288,-0.5340630635250846,-0.10280181263410051,-0.17401394397792738,-0.08321681181352786,0.0,0.0,-0.6,0.0,0.006265878677368164,0.010216474533081055,0
0.5716087818145752,-0.022941311821341515,0.010813952423632145,-0.37508705258369446,0.01295664198245288,-0.5340630635250846,-0.10280181263410051,-0.17401394397792738,-0.08321681181352786,0.0,0.0,-0.6,0.0,0.0011286735534667969,0.004923582077026367,0
0.5796539783477783,-0.02125624567270279,0.009104550816118717,-0.3838599622249603,0.00906130034165192,-0.5325935031194514,-0.1831841252644182,-0.25680227139464296,-0.058414395464360634,0.0,0.0,-0.6,0.0,0.006519317626953125,0.010266542434692383,0
0.5918738842010498,-0.02125624567270279,0.009104550816118717,-0.3838599622249603,0.00906130034165192,-0.5325935031194514,-0.1831841252644182,-0.25680227139464296,-0.058414395464360634,0.0,0.0,-0.6,0.0,0.0011229515075683594,0.0048868656158447266,0
0.6000349521636963,-0.019682781770825386,0.007496780715882778,-0.3925337493419647,0.005179358993071588,-0.5308959186275325,-0.2558713656220841,-0.3180100670225443,-0.03362490416677614,0.0,0.0,-0.6,0.0,0.005334615707397461,0.009099721908569336,0
0.6105241775512695,-0.019682781770825386,0.007496780715882778,-0.3925337493419647,0.005179358993071588,-0.5308959186275325,-0.2558713656220841,-0.3180100670225443,-0.03362490416677614,0.0,0.0,-0.6,0.0,0.0010976791381835938,0.005110502243041992,0
0.6198711395263672,-0.018258409574627876,0.006056200247257948,-0.4011550545692444,0.0013129436634775483,-0.5282572143076621,-0.3379891969159911,-0.4041157189317693,-0.00899219321674261,0.0,0.0,-0.6,0.0,0.006788730621337891,0.010921001434326172,0
0.6323583126068115,-0.018258409574627876,0.006056200247257948,-0.4011550545692444,0.0013129436634775483,-0.5282572143076621,-0.3379891969159911,-0.4041157189317693,-0.00899219321674261,0.0,0.0,-0.6,0.0,0.0012657642364501953,0.005553245544433594,0
0.6401658058166504,-0.017095956951379776,0.004864967428147793,-0.4096885025501251,-0.0024743726559014927,-0.5258618270971182,-0.4206180016259648,-0.5056551989262326,0.015065167632231816,0.0,0.0,-0.6,0.0,0.00646519660949707,0.010095357894897461,0
0.6516180038452148,-0.017095956951379776,0.004864967428147793,-0.4096885025501251,-0.0024743726559014927,-0.5258618270971182,-0.4206180016259648,-0.5056551989262326,0.015065167632231816,0.0,0.0,-0.6,0.0,0.0010426044464111328,0.0046007633209228516,0
0.659832239151001,-0.016173293814063072,0.003861126257106662,-0.41798174381256104,-0.0057957487105425145,-0.5236421051792446,-0.4730122903036365,-0.5546868670517986,0.036245979720533616,0.0,0.0,-0.6,0.0,0.005658388137817383,0.009802579879760742,0
0.671046257019043,-0.016173293814063072,0.003861126257106662,-0.41798174381256104,-0.0057957487105425145,-0.5236421051792446,-0.4730122903036365,-0.5546868670517986,0.036245979720533616,0.0,0.0,-0.6,0.0,0.0010902881622314453,0.005175113677978516,0
0.679800271987915,-0.015367630869150162,0.002884362358599901,-0.4261947274208069,-0.008916725661827163,-0.5222822018397593,-0.5067934933906039,-0.5354372598249115,0.056404034395158224,0.0,0.0,-0.6,0.0,0.005707740783691406,0.009869575500488281,0
0.6918215751647949,-0.015367630869150162,0.002884362358599901,-0.4261947274208069,-0.008916725661827163,-0.5222822018397593,-0.5067934933906039,-0.5354372598249115,0.056404034395158224,0.0,0.0,-0.6,0.0,0.0010983943939208984,0.004788398742675781,0
0.6997992992401123,-0.014630897901952267,0.0019978138152509928,-0.43429794907569885,-0.011818682380191606,-0.5215149937857497,-0.5199671479198418,-0.4834494692723465,0.07522185423891477,0.0,0.0,-0.6,0.0,0.005425930023193359,0.009095907211303711,0
0.7102081775665283,-0.014630897901952267,0.0019978138152509928,-0.43429794907569885,-0.011818682380191606,-0.5215149937857497,-0.5199671479198418,-0.4834494692723465,0.07522185423891477,0.0,0.0,-0.6,0.0,0.0010390281677246094,0.004632472991943359,0
0.7198686599731445,-0.01397878397256136,0.0011619406286627054,-0.4422190487384796,-0.014512596575191222,-0.5217132518435698,-0.4486112106280954,-0.45575835913117824,0.09229166050595589,0.0,0.0,-0.6,0.0,0.006482362747192383,0.010436534881591797,0
0.7319550514221191,-0.01397878397256136,0.0011619406286627054,-0.4422190487384796,-0.014512596575191222,-0.5217132518435698,-0.4486112106280954,-0.45575835913117824,0.09229166050595589,0.0,0.0,-0.6,0.0,0.00121307373046875,0.00506138801574707,0
0.7404670715332031,-0.013387366198003292,0.00040515747969038785,-0.4498450756072998,-0.01698120303200483,-0.5222382680706816,-0.3816911127462368,-0.41506618644474635,0.10803864125127433,0.0,0.0,-0.6,0.0,0.006746530532836914,0.010675668716430664,0
0.7524173259735107,-0.013387366198003292,0.00040515747969038785,-0.4498450756072998,-0.01698120303200483,-0.5222382680706816,-0.3816911127462368,-0.41506618644474635,0.10803864125127433,0.0,0.0,-0.6,0.0,0.0011348724365234375,0.004882335662841797,0
0.7607161998748779,-0.012881970033049583,-0.0002570220676716417,-0.4570680558681488,-0.01921039888914704,-0.5223969960837327,-0.31933414485603323,-0.33448146708860227,0.12241435148708671,0.0,0.0,-0.6,0.0,0.005280256271362305,0.009216785430908203,0
0.7712686061859131,-0.012881970033049583,-0.0002570220676716417,-0.4570680558681488,-0.01921039888914704,-0.5223969960837327,-0.31933414485603323,-0.33448146708860227,0.12241435148708671,0.0,0.0,-0.6,0.0,0.0010805130004882812,0.004980564117431641,0
0.7799208164215088,-0.012476235628128052,-0.0008402335806749761,-0.46411824226379395,-0.021097852378791852,-0.5223214445403922,-0.2642698390962558,-0.23647743834108886,0.13466767511123506,0.0,0.0,-0.6,0.0,0.00632786750793457,0.010073184967041016,0
0.7920060157775879,-0.012476235628128052,-0.0008402335806749761,-0.46411824226379395,-0.021097852378791852,-0.5223214445403922,-0.2642698390962558,-0.23647743834108886,0.13466767511123506,0.0,0.0,-0.6,0.0,0.0011610984802246094,0.0051059722900390625,0
0.7997238636016846,-0.012182553298771381,-0.0013016490265727043,-0.4706547260284424,-0.022411907097907836,-0.5258419220039735,-0.16323141146806686,-0.15871243510891925,0.14312110522442253,0.0,0.0,-0.6,0.0,0.0055315494537353516,0.009283065795898438,0
0.8104226589202881,-0.012182553298771381,-0.0013016490265727043,-0.4706547260284424,-0.022411907097907836,-0.5258419220039735,-0.16323141146806686,-0.15871243510891925,0.14312110522442253,0.0,0.0,-0.6,0.0,0.0010378360748291016,0.004831790924072266,0
0.8199892044067383,-0.011991879902780056,-0.0017056819051504135,-0.4767538607120514,-0.023364096246144373,-0.527352708278258,-0.06452766960645988,-0.08999284231207695,0.1492725389137716,0.0,0.0,-0.6,0.0,0.005915403366088867,0.010093927383422852,0
0.8315613269805908,-0.011991879902780056,-0.0017056819051504135,-0.4767538607120514,-0.023364096246144373,-0.527352708278258,-0.06452766960645988,-0.08999284231207695,0.1492725389137716,0.0,0.0,-0.6,0.0,0.0011534690856933594,0.005002021789550781,0
0.8398656845092773,-0.011857220903038979,-0.002026535104960203,-0.4825899004936218,-0.024110701979936713,-0.5287230282209561,0.012724993165985072,-0.02009149643444172,0.15414466570271543,0.0,0.0,-0.6,0.0,0.005274295806884766,0.009310245513916016,0
0.8504557609558105,-0.011857220903038979,-0.002026535104960203,-0.4825899004936218,-0.024110701979936713,-0.5287230282209561,0.012724993165985072,-0.02009149643444172,0.15414466570271543,0.0,0.0,-0.6,0.0,0.0010919570922851562,0.004830121994018555,0
0.8598263263702393,-0.011753947474062443,-0.0022037867456674576,-0.4879921078681946,-0.02446149572312307,-0.5316160273740664,0.060056825100004076,0.046659929906748,0.15647068568910366,0.0,0.0,-0.6,0.0,0.005690097808837891,0.009630918502807617,0
0.8707661628723145,-0.011753947474062443,-0.0022037867456674576,-0.4879921078681946,-0.02446149572312307,-0.5316160273740664,0.060056825100004076,0.046659929906748,0.15647068568910366,0.0,0.0,-0.6,0.0,0.0011737346649169922,0.005004167556762695,0
0.8799405097961426,-0.011723056435585022,-0.0023118196986615658,-0.4929303228855133,-0.024588720062613798,-0.5340386285219078,0.09792387615035306,0.10170003493053564,0.15734620096826163,0.0,0.0,-0.6,0.0,0.0053789615631103516,0.0092620849609375,0
0.8910939693450928,-0.011723056435585022,-0.0023118196986615658,-0.4929303228855133,-0.024588720062613798,-0.5340386285219078,0.09792387615035306,0.10170003493053564,0.15734620096826163,0.0,0.0,-0.6,0.0,0.0010759830474853516,0.0049591064453125,0
0.899996280670166,-0.011747636832296848,-0.0023744446225464344,-0.4974476993083954,-0.02449008146120482,-0.5353892783573828,0.11056667068623069,0.16095546242762693,0.15673140660148738,0.0,0.0,-0.6,0.0,0.005671262741088867,0.009461164474487305,0
0.9109272956848145,-0.011747636832296848,-0.0023744446225464344,-0.4974476993083954,-0.02449008146120482,-0.5353892783573828,0.11056667068623069,0.16095546242762693,0.15673140660148738,0.0,0.0,-0.6,0.0,0.0010459423065185547,0.005124807357788086,0
0.9198570251464844,-0.011785689741373062,-0.0024147918447852135,-0.5017020106315613,-0.024325861978354596,-0.5360303143117844,0.11448689485382808,0.2147532475959038,0.15566808613412683,0.0,0.0,-0.6,0.0,0.005581378936767578,0.009481430053710938,0
0.9307043552398682,-0.011785689741373062,-0.0024147918447852135,-0.5017020106315613,-0.024325861978354596,-0.5360303143117844,0.11448689485382808,0.2147532475959038,0.15566808613412683,0.0,0.0,-0.6,0.0,0.0010828971862792969,0.004851341247558594,0
0.9398386478424072,-0.011811947450041771,-0.002425477607175708,-0.5057393908500671,-0.024293619059111194,-0.5370375569901844,0.10792625192470517,0.25519144384827297,0.15543128873739284,0.0,0.0,-0.6,0.0,0.005433797836303711,0.009704113006591797,0
0.9511563777923584,-0.011811947450041771,-0.002425477607175708,-0.5057393908500671,-0.024293619059111194,-0.5370375569901844,0.10792625192470517,0.25519144384827297,0.15543128873739284,0.0,0.0,-0.6,0.0,0.0011360645294189453,0.0052912235260009766,0
0.9603073596954346,-0.011771525256335735,-0.002424483187496662,-0.5095601081848145,-0.02404192298627771,-0.5385004363702902,0.08688394831698704,0.2883837611333057,0.15377188920465326,0.0,0.0,-0.6,0.0,0.005563020706176758,0.009325265884399414,0
0.9709982872009277,-0.011771525256335735,-0.002424483187496662,-0.5095601081848145,-0.02404192298627771,-0.5385004363702902,0.08688394831698704,0.2883837611333057,0.15377188920465326,0.0,0.0,-0.6,0.0,0.0010786056518554688,0.004927635192871094,0
0.9798521995544434,-0.011649849824607372,-0.0024152083788067102,-0.513193666934967,-0.023639062943461724,-0.5398794257113088,0.07906854721350985,0.3067182029462567,0.15119492757160627,0.0,0.0,-0.6,0.0,0.004747629165649414,0.008712530136108398,0
0.9908409118652344,-0.011649849824607372,-0.0024152083788067102,-0.513193666934967,-0.023639062943461724,-0.5398794257113088,0.07906854721350985,0.3067182029462567,0.15119492757160627,0.0,0.0,-0.6,0.0,0.0011811256408691406,0.005331754684448242,0
0.9998517036437988,-0.011493225581943989,-0.0024598268792033195,-0.5166420340538025,-0.023165655478297093,-0.5405417587920631,0.07918032924075623,0.3061062656939974,0.14819858017706752,0.0,0.0,-0.6,0.0,0.00479578971862793,0.009196281433105469,0
1.0105605125427246,-0.011493225581943989,-0.0024598268792033195,-0.5166420340538025,-0.023165655478297093,-0.5405417587920631,0.07918032924075623,0.3061062656939974,0.14819858017706752,0.0,0.0,-0.6,0.0,0.0011012554168701172,0.0052487850189208984,0
1.0199260711669922,-0.011302737519145012,-0.002590433694422245,-0.5199988484382629,-0.022653411384165358,-0.5410213008921418,0.08310215404156855,0.284423405436544,0.14495878383614302,0.0,0.0,-0.6,0.0,0.004891872406005859,0.009134054183959961,0
1.0305545330047607,-0.011302737519145012,-0.002590433694422245,-0.5199988484382629,-0.022653411384165358,-0.5410213008921418,0.08310215404156855,0.284423405436544,0.14495878383614302,0.0,0.0,-0.6,0.0,0.0011794567108154297,0.005331277847290039,0
1.0397965908050537,-0.011067360639572144,-0.002758596558123827,-0.5232544541358948,-0.02214777263936053,-0.5420870705670762,0.07370665551996777,0.2490919752898841,0.1417245163511254,0.0,0.0,-0.6,0.0,0.004609584808349609,0.008661270141601562,0
1.0499351024627686,-0.011067360639572144,-0.002758596558123827,-0.5232544541358948,-0.02214777263936053,-0.5420870705670762,0.07370665551996777,0.2490919752898841,0.1417245163511254,0.0,0.0,-0.6,0.0,0.0011410713195800781,0.00515437126159668,0
1.0598909854888916,-0.01080674771219492,-0.002932822797447443,-0.5263344645500183,-0.02155184802245377,-0.5430750666239971,0.07300746503566291,0.19840089230927213,0.13791430820576978,0.0,0.0,-0.6,0.0,0.0048253536224365234,0.00889277458190918,0
1.0702862739562988,-0.01080674771219492,-0.002932822797447443,-0.5263344645500183,-0.02155184802245377,-0.5430750666239971,0.07300746503566291,0.19840089230927213,0.13791430820576978,0.0,0.0,-0.6,0.0,0.0011832714080810547,0.005431413650512695,0
1.0798349380493164,-0.010540023446083069,-0.003125928808003664,-0.5292969942092896,-0.02085958217012572,-0.5434976324056774,0.07531199123020188,0.1326999463435435,0.1334749462806406,0.0,0.0,-0.6,0.0,0.004502296447753906,0.008555173873901367,0
1.0917329788208008,-0.010405114851891994,-0.00323475175537169,-0.530746340751648,-0.02046684397472795,-0.5434041407654067,0.07927252852530683,0.09754755113409766,0.13095310905624155,0.0,0.0,-0.6,0.0,0.0045087337493896484,0.008386373519897461,0
1.101388692855835,-0.010405114851891994,-0.00323475175537169,-0.530746340751648,-0.02046684397472795,-0.5434041407654067,0.07927252852530683,0.09754755113409766,0.13095310905624155,0.0,0.0,-0.6,0.0,0.0010483264923095703,0.0048830509185791016,0
1.1098697185516357,-0.010125182569026947,-0.003484294982627034,-0.5336100459098816,-0.019660714371466232,-0.5433189017900925,0.08933575765746316,0.030464084740662693,0.12576658878768268,0.0,0.0,-0.6,0.0,0.004357576370239258,0.00838470458984375,0
1.1214945316314697,-0.009975663386285305,-0.0036280241329222918,-0.5350154638290405,-0.01920357089661436,-0.5432103284165458,0.09127746560855392,0.0002460984346238527,0.12282114909151061,0.0,0.0,-0.6,0.0,0.004498958587646484,0.008300304412841797,0
1.1312313079833984,-0.009975663386285305,-0.0036280241329222918,-0.5350154638290405,-0.01920357089661436,-0.5432103284165458,0.09127746560855392,0.0002460984346238527,0.12282114909151061,0.0,0.0,-0.6,0.0,0.0011072158813476562,0.005246162414550781,0
1.1401636600494385,-0.009636162780225277,-0.003942491952329874,-0.537788450717926,-0.01818039254266069,-0.542252237343826,0.08506838945550063,-0.0532350199820785,0.11622652941117749,0.0,0.0,-0.6,0.0,0.004327297210693359,0.008265495300292969,0
1.1510443687438965,-0.009442375041544437,-0.004110710229724646,-0.5391894578933716,-0.01762165642886851,-0.5418838237244297,0.0796840222516301,-0.07016618106460674,0.11263080682116322,0.0,0.0,-0.6,0.0,0.004614830017089844,0.008464813232421875,0
1.1608424186706543,-0.009442375041544437,-0.004110710229724646,-0.5391894578933716,-0.01762165642886851,-0.5418838237244297,0.0796840222516301,-0.07016618106460674,0.11263080682116322,0.0,0.0,-0.6,0.0,0.0010967254638671875,0.004969596862792969,0
1.1698663234710693,-0.009020785801112652,-0.004446567967534065,-0.5420151352882385,-0.01650268846198777,-0.5410869362539034,0.05150118414711765,-0.09793353373143307,0.10543953038163045,0.0,0.0,-0.6,0.0,0.0044403076171875,0.008373737335205078,0
1.181581974029541,-0.008805273100733757,-0.0046221171505749226,-0.5434258580207825,-0.01594627071572182,-0.5405976061766691,0.04634689319324225,-0.10156969229095217,0.10187165702588281,0.0,0.0,-0.6,0.0,0.004552602767944336,0.008615255355834961,0
1.1920819282531738,-0.008805273100733757,-0.0046221171505749226,-0.5434258580207825,-0.01594627071572182,-0.5405976061766691,0.04634689319324225,-0.10156969229095217,0.10187165702588281,0.0,0.0,-0.6,0.0,0.0010180473327636719,0.004782915115356445,0
1.1998200416564941,-0.008367098867893219,-0.005025525111705065,-0.5462237596511841,-0.014818288467119037,-0.540172522951156,0.028873226715367312,-0.08330684669934893,0.09466713361778002,0.0,0.0,-0.6,0.0,0.004378557205200195,0.008430242538452148,0
1.2115213871002197,-0.008151460438966751,-0.0052321311086416245,-0.5475918650627136,-0.014227660061616625,-0.5399885086294473,0.01892164666410589,-0.0711016224580215,0.09089989871913429,0.0,0.0,-0.6,0.0,0.0041043758392333984,0.008194446563720703,0
1.2217049598693848,-0.007953672669827938,-0.005441298708319664,-0.5489644408226013,-0.013603388801177877,-0.5394140507132364,0.0027553774419840638,-0.05749238250473625,0.0869214306793904,0.0,0.0,-0.6,0.0,0.0043811798095703125,0.00831747055053711,0
1.231421947479248,-0.007953672669827938,-0.005441298708319664,-0.5489644408226013,-0.013603388801177877,-0.5394140507132364,0.0027553774419840638,-0.05749238250473625,0.0869214306793904,0.0,0.0,-0.6,0.0,0.0010912418365478516,0.005024433135986328,0
1.2398083209991455,-0.007569370791316032,-0.005844155326485634,-0.5517041087150574,-0.012376096582825737,-0.5390162965248494,-0.03412331125797906,0.00510542346384749,0.07913053894661393,0.0,0.0,-0.6,0.0,0.004573345184326172,0.00850057601928711,0
1.2515504360198975,-0.0073735942132771015,-0.006030459888279438,-0.5530450344085693,-0.01175273970135353,-0.5394794693968192,-0.04628519224553012,0.03552089153860296,0.07517009671226148,0.0,0.0,-0.6,0.0,0.0044591426849365234,0.008318901062011719,0
1.2618284225463867,-0.007187648210674524,-0.006228755693882704,-0.5543696284294128,-0.011165679307671535,-0.5390554135015296,-0.046634075998088546,0.05885911733550994,0.07143426577180292,0.0,0.0,-0.6,0.0,0.0043981075286865234,0.008421897888183594,0
1.2716498374938965,-0.007187648210674524,-0.006228755693882704,-0.5543696284294128,-0.011165679307671535,-0.5390554135015296,-0.046634075998088546,0.05885911733550994,0.07143426577180292,0.0,0.0,-0.6,0.0,0.0010528564453125,0.00478053092956543,0
1.2797925472259521,-0.0068342480808496475,-0.006628626026213169,-0.5569592714309692,-0.01019698656499457,-0.5394453020248403,-0.060685963050323886,0.10822600510284996,0.06527379382912378,0.0,0.0,-0.6,0.0,0.0043735504150390625,0.008189678192138672,0
1.2919666767120361,-0.006665726192295551,-0.006812721956521273,-0.5581749081611633,-0.009678363387213878,-0.5401158159807122,-0.06426020025512984,0.12474556054392955,0.061966210108792705,0.0,0.0,-0.6,0.0,0.0042438507080078125,0.008205413818359375,0
1.302297592163086,-0.006518342532217503,-0.006994523573666811,-0.5593355298042297,-0.009128854043371886,-0.5402839633674238,-0.060319660962918215,0.13196322855805487,0.05845545350563468,0.0,0.0,-0.6,0.0,0.004401206970214844,0.0083160400390625,0
1.3118131160736084,-0.006518342532217503,-0.006994523573666811,-0.5593355298042297,-0.009128854043371886,-0.5402839633674238,-0.060319660962918215,0.13196322855805487,0.05845545350563468,0.0,0.0,-0.6,0.0,0.0010488033294677734,0.0051119327545166016,0
1.320235252380371,-0.006289536599069834,-0.007350735832005739,-0.5615531206130981,-0.008011796494342941,-0.5411081979027516,-0.050483612321554336,0.13775526899377546,0.051312404153935044,0.0,0.0,-0.6,0.0,0.004343271255493164,0.008270025253295898,0
1.3298256397247314,-0.006289536599069834,-0.007350735832005739,-0.5615531206130981,-0.008011796494342941,-0.5411081979027516,-0.050483612321554336,0.13775526899377546,0.051312404153935044,0.0,0.0,-0.6,0.0,0.0011067390441894531,0.0048863887786865234,0
1.3399076461791992,-0.006153027061372995,-0.007701680064201355,-0.5635709166526794,-0.007075999191190381,-0.541669666313714,-0.022459059977690123,0.12304857512735308,0.045323271506001586,0.0,0.0,-0.6,0.0,0.0043070316314697266,0.00858306884765625,0
1.3498585224151611,-0.006153027061372995,-0.007701680064201355,-0.5635709166526794,-0.007075999191190381,-0.541669666313714,-0.022459059977690123,0.12304857512735308,0.045323271506001586,0.0,0.0,-0.6,0.0,0.001142263412475586,0.0051343441009521484,0
1.359896183013916,-0.006121175363659859,-0.008081085979938507,-0.565481960773468,-0.006231578446519718,-0.5423940718858077,-0.0008443077921088531,0.09685789756553487,0.03990779333501105,0.0,0.0,-0.6,0.0,0.0043163299560546875,0.008321523666381836,0
1.3708596229553223,-0.00612688297405839,-0.008257935754954815,-0.5663756728172302,-0.005788226166568142,-0.5430452241853531,0.003916975326822492,0.08410774282843249,0.037063146498675224,0.0,0.0,-0.6,0.0,0.004814624786376953,0.008961677551269531,0
1.381239652633667,-0.00612688297405839,-0.008257935754954815,-0.5663756728172302,-0.005788226166568142,-0.5430452241853531,0.003916975326822492,0.08410774282843249,0.037063146498675224,0.0,0.0,-0.6,0.0,0.0010581016540527344,0.004711627960205078,0
1.3904547691345215,-0.006178779993206263,-0.008582117967307568,-0.5679915547370911,-0.004936354340322882,-0.5444625733652798,0.015298963374879036,0.04627149843784785,0.03159176687296818,0.0,0.0,-0.6,0.0,0.004659414291381836,0.008878707885742188,0
1.4006824493408203,-0.006178779993206263,-0.008582117967307568,-0.5679915547370911,-0.004936354340322882,-0.5444625733652798,0.015298963374879036,0.04627149843784785,0.03159176687296818,0.0,0.0,-0.6,0.0,0.0011560916900634766,0.0049436092376708984,0
1.4098215103149414,-0.0062598795630037785,-0.008875926025211811,-0.5694546699523926,-0.004073581435202173,-0.5451071461656067,0.02981468564537784,0.016929854664522674,0.02605637184792566,0.0,0.0,-0.6,0.0,0.004689693450927734,0.00851893424987793,0
1.4198276996612549,-0.0062598795630037785,-0.008875926025211811,-0.5694546699523926,-0.004073581435202173,-0.5451071461656067,0.02981468564537784,0.016929854664522674,0.02605637184792566,0.0,0.0,-0.6,0.0,0.0010991096496582031,0.005033969879150391,0
1.4300386905670166,-0.006337433122098446,-0.0091665955260396,-0.570794403553009,-0.0032662005809454614,-0.5457371543735883,0.042665754578758375,-0.021151770365262883,0.020868418426101813,0.0,0.0,-0.6,0.0,0.005028724670410156,0.009505033493041992,0
1.4410412311553955,-0.006337433122098446,-0.0091665955260396,-0.570794403553009,-0.0032662005809454614,-0.5457371543735883,0.042665754578758375,-0.021151770365262883,0.020868418426101813,0.0,0.0,-0.6,0.0,0.0011224746704101562,0.005295991897583008,0
1.4500761032104492,-0.006437529809772968,-0.00944540835916996,-0.5720131993293762,-0.002575517958939982,-0.5465446699090818,0.05667644282567332,-0.06776901613539119,0.016417017528698577,0.0,0.0,-0.6,0.0,0.004262685775756836,0.00815272331237793,0
1.4610280990600586,-0.006508893799036741,-0.009589740075170994,-0.5725703835487366,-0.0022334334279102406,-0.54680769665202,0.06503356499251503,-0.09087099034264168,0.014207911983159873,0.0,0.0,-0.6,0.0,0.004309177398681641,0.008550882339477539,0
1.4708890914916992,-0.006508893799036741,-0.009589740075170994,-0.5725703835487366,-0.0022334334279102406,-0.54680769665202,0.06503356499251503,-0.09087099034264168,0.014207911983159873,0.0,0.0,-0.6,0.0,0.0010883808135986328,0.004923343658447266,0
1.4798986911773682,-0.006673505529761314,-0.009901583194732666,-0.5736013650894165,-0.001551803565586866,-0.5472206439366931,0.08777096745473922,-0.13076771479815258,0.009799493135573394,0.0,0.0,-0.6,0.0,0.004733085632324219,0.008766889572143555,0
1.4907426834106445,-0.006673505529761314,-0.009901583194732666,-0.5736013650894165,-0.001551803565586866,-0.5472206439366931,0.08777096745473922,-0.13076771479815258,0.009799493135573394,0.0,0.0,-0.6,0.0,0.0010902881622314453,0.005122661590576172,0
1.4998178482055664,-0.006899692118167877,-0.010253025218844414,-0.5745564699172974,-0.000880500507605931,-0.5474656642640402,0.1040639136965017,-0.16930525020546322,0.005456829502435915,0.0,0.0,-0.6,0.0,0.004433155059814453,0.008549928665161133,0
1.5098462104797363,-0.006899692118167877,-0.010253025218844414,-0.5745564699172974,-0.000880500507605931,-0.5474656642640402,0.1040639136965017,-0.16930525020546322,0.005456829502435915,0.0,0.0,-0.6,0.0,0.0010800361633300781,0.005258321762084961,0
1.5198311805725098,-0.007176477927714586,-0.010557119734585285,-0.5753776431083679,-0.0002491001604446544,-0.5487607931607484,0.10272616204386506,-0.18208450417824873,0.001393886959371645,0.0,0.0,-0.6,0.0,0.004423618316650391,0.008442878723144531,0
1.5313427448272705,-0.007308182772248983,-0.010701670311391354,-0.5757465958595276,8.633317212585253e-05,-0.549185138731615,0.10614583063176286,-0.17747918872789314,-0.0007587270822035694,0.0,0.0,-0.6,0.0,0.004558563232421875,0.008587121963500977,0
1.541872501373291,-0.0075652021914720535,-0.010983840562403202,-0.576443076133728,0.0007276328127811119,-0.5493352886517997,0.10849966135906249,-0.18598266886865414,-0.00488333653002023,0.0,0.0,-0.6,0.0,0.004385471343994141,0.008514404296875,0
1.5523018836975098,-0.0075652021914720535,-0.010983840562403202,-0.576443076133728,0.0007276328127811119,-0.5493352886517997,0.10849966135906249,-0.18598266886865414,-0.00488333653002023,0.0,0.0,-0.6,0.0,0.0011036396026611328,0.004905223846435547,0
1.5604441165924072,-0.0077185179106891155,-0.011128101497888565,-0.5767942667007446,0.001060082871046084,-0.5491145567552591,0.10345352105158677,-0.19666164389552318,-0.007022984938264638,0.0,0.0,-0.6,0.0,0.00406336784362793,0.007928133010864258,0
1.570467233657837,-0.007894988171756268,-0.011286463588476181,-0.5771514177322388,0.0013318199259255159,-0.5491025529594663,0.10934340557141418,-0.2120193669564281,-0.008786353491750954,0.0,0.0,-0.6,0.0,0.0045413970947265625,0.008483409881591797,0
1.5802302360534668,-0.007894988171756268,-0.011286463588476181,-0.5771514177322388,0.0013318199259255159,-0.5491025529594663,0.10934340557141418,-0.2120193669564281,-0.008786353491750954,0.0,0.0,-0.6,0.0,0.0011172294616699219,0.004815101623535156,0
1.590383768081665,-0.008309757336974144,-0.011649774387478828,-0.5777888298034668,0.0018876155033119395,-0.5496469874618067,0.10508501592035044,-0.23387003681360896,-0.012370914368218758,0.0,0.0,-0.6,0.0,0.004341602325439453,0.008530855178833008,0
1.600271224975586,-0.008309757336974144,-0.011649774387478828,-0.5777888298034668,0.0018876155033119395,-0.5496469874618067,0.10508501592035044,-0.23387003681360896,-0.012370914368218758,0.0,0.0,-0.6,0.0,0.0011799335479736328,0.005151510238647461,0
1.6098966598510742,-0.00878980290144682,-0.011999699287116528,-0.5782509446144104,0.002540468952181102,-0.551144325981184,0.077076778589866,-0.2580150816242985,-0.016562220775294338,0.0,0.0,-0.6,0.0,0.0044705867767333984,0.00859689712524414,0
1.6198971271514893,-0.00878980290144682,-0.011999699287116528,-0.5782509446144104,0.002540468952181102,-0.551144325981184,0.077076778589866,-0.2580150816242985,-0.016562220775294338,0.0,0.0,-0.6,0.0,0.0011289119720458984,0.004935741424560547,0
1.6298463344573975,-0.009301688522100449,-0.012312597595155239,-0.578552782535553,0.00322613790071867,-0.5520952668331233,0.05897195832103559,-0.2838080354799901,-0.02098087185933593,0.0,0.0,-0.6,0.0,0.004656791687011719,0.008577346801757812,0
1.6399667263031006,-0.009301688522100449,-0.012312597595155239,-0.578552782535553,0.00322613790071867,-0.5520952668331233,0.05897195832103559,-0.2838080354799901,-0.02098087185933593,0.0,0.0,-0.6,0.0,0.0012035369873046875,0.005320549011230469,0
1.6506197452545166,-0.01012440212070942,-0.012859308160841465,-0.5790148377418518,0.0038602404562912366,-0.5516665352718934,0.04498598831346366,-0.32282766577338323,-0.0250851988742669,0.0,0.0,-0.6,0.0,0.004372119903564453,0.008145809173583984,0
1.6602036952972412,-0.01012440212070942,-0.012859308160841465,-0.5790148377418518,0.0038602404562912366,-0.5516665352718934,0.04498598831346366,-0.32282766577338323,-0.0250851988742669,0.0,0.0,-0.6,0.0,0.0011401176452636719,0.005171060562133789,0
1.671057939529419,-0.010803267359733582,-0.013202589936554432,-0.5793349742889404,0.004147041310275206,-0.5524794986038584,-0.0026444889618896235,-0.33521683720920853,-0.026919796436239582,0.0,0.0,-0.6,0.0,0.0042705535888671875,0.008141517639160156,0
1.68062424659729,-0.010803267359733582,-0.013202589936554432,-0.5793349742889404,0.004147041310275206,-0.5524794986038584,-0.0026444889618896235,-0.33521683720920853,-0.026919796436239582,0.0,0.0,-0.6,0.0,0.0010821819305419922,0.004901409149169922,0
1.6916399002075195,-0.01149897463619709,-0.013472548685967922,-0.5795905590057373,0.004480294907719039,-0.552127775267656,-0.047924021923030656,-0.3106594820569537,-0.029041046936073425,0.0,0.0,-0.6,0.0,0.004338502883911133,0.008329391479492188,0
1.7012996673583984,-0.01149897463619709,-0.013472548685967922,-0.5795905590057373,0.004480294907719039,-0.552127775267656,-0.047924021923030656,-0.3106594820569537,-0.029041046936073425,0.0,0.0,-0.6,0.0,0.0010571479797363281,0.004834890365600586,0
1.7108886241912842,-0.012183824554085732,-0.013688546605408192,-0.5799174904823303,0.0048817791251732495,-0.5514546202087071,-0.08429342738927784,-0.28832783565321285,-0.031624632592860066,0.0,0.0,-0.6,0.0,0.004450321197509766,0.00829935073852539,0
1.7205212116241455,-0.012183824554085732,-0.013688546605408192,-0.5799174904823303,0.0048817791251732495,-0.5514546202087071,-0.08429342738927784,-0.28832783565321285,-0.031624632592860066,0.0,0.0,-0.6,0.0,0.0011203289031982422,0.0052263736724853516,0
1.7307753562927246,-0.012949771247804165,-0.013852298259735107,-0.5802894830703735,0.0051138483877027265,-0.5517288403554265,-0.12709603791420185,-0.27730792352975,-0.03316493056503571,0.0,0.0,-0.6,0.0,0.004496335983276367,0.008155107498168945,0
1.740344762802124,-0.012949771247804165,-0.013852298259735107,-0.5802894830703735,0.0051138483877027265,-0.5517288403554265,-0.12709603791420185,-0.27730792352975,-0.03316493056503571,0.0,0.0,-0.6,0.0,0.0011332035064697266,0.005296468734741211,0
1.749802827835083,-0.013359838165342808,-0.013914700597524643,-0.5804600715637207,0.005116453633211275,-0.5517341511565875,-0.1425347827846838,-0.259534197264409,-0.03319900525083171,0.0,0.0,-0.6,0.0,0.004461050033569336,0.008243083953857422,0
1.7608344554901123,-0.014141040854156017,-0.013995532877743244,-0.5807874202728271,0.005205499141892219,-0.5517732639194682,-0.16768690464736855,-0.19615345637172668,-0.03376865353081049,0.0,0.0,-0.6,0.0,0.004524707794189453,0.008414030075073242,0
1.7706985473632812,-0.014141040854156017,-0.013995532877743244,-0.5807874202728271,0.005205499141892219,-0.5517732639194682,-0.16768690464736855,-0.19615345637172668,-0.03376865353081049,0.0,0.0,-0.6,0.0,0.0011091232299804688,0.004951953887939453,0
1.7798902988433838,-0.014498177915811539,-0.014022416435182095,-0.5809533596038818,0.005258960165019474,-0.5512875324155937,-0.17033220191844128,-0.1652877286764836,-0.03410370666947422,0.0,0.0,-0.6,0.0,0.0048618316650390625,0.00875234603881836,0
1.790916919708252,-0.014498177915811539,-0.014022416435182095,-0.5809533596038818,0.005258960165019474,-0.5512875324155937,-0.17033220191844128,-0.1652877286764836,-0.03410370666947422,0.0,0.0,-0.6,0.0,0.0011751651763916016,0.005343198776245117,0
1.8002986907958984,-0.015242328867316246,-0.014041991904377937,-0.5812448859214783,0.005352661385637088,-0.5517356977490605,-0.19642772833654232,-0.13425412916654955,-0.03476990890288075,0.0,0.0,-0.6,0.0,0.004570960998535156,0.008877992630004883,0
1.8104643821716309,-0.015242328867316246,-0.014041991904377937,-0.5812448859214783,0.005352661385637088,-0.5517356977490605,-0.19642772833654232,-0.13425412916654955,-0.03476990890288075,0.0,0.0,-0.6,0.0,0.0010552406311035156,0.004951953887939453,0
1.8198442459106445,-0.016017302870750427,-0.013991173356771469,-0.5814937353134155,0.0054477969510886735,-0.5516046083655389,-0.22894841520540987,-0.08111835964771213,-0.03542060707684364,0.0,0.0,-0.6,0.0,0.004801750183105469,0.008882522583007812,0
1.8304436206817627,-0.016017302870750427,-0.013991173356771469,-0.5814937353134155,0.0054477969510886735,-0.5516046083655389,-0.22894841520540987,-0.08111835964771213,-0.03542060707684364,0.0,0.0,-0.6,0.0,0.0011489391326904297,0.005185604095458984,0
1.8398852348327637,-0.016758764162659645,-0.013794802129268646,-0.5816112160682678,0.005441074159282784,-0.5527361240791645,-0.27703966445365685,-0.0097437193165781,-0.035429598366366125,0.0,0.0,-0.6,0.0,0.004624128341674805,0.008808135986328125,0
1.850229263305664,-0.016758764162659645,-0.013794802129268646,-0.5816112160682678,0.005441074159282784,-0.5527361240791645,-0.27703966445365685,-0.0097437193165781,-0.035429598366366125,0.0,0.0,-0.6,0.0,0.001140594482421875,0.005131244659423828,0
1.8598542213439941,-0.017440278083086014,-0.013531065545976162,-0.5815889835357666,0.005200205296224326,-0.5527370488728592,-0.285064689943722,0.066714432517942,-0.03383353378912489,0.0,0.0,-0.6,0.0,0.004494905471801758,0.008390665054321289,0
1.8717451095581055,-0.017784742638468742,-0.01341776829212904,-0.5816136598587036,0.00510206894995363,-0.5530592973359694,-0.2872162994822884,0.10390532910765633,-0.033171838282919724,0.0,0.0,-0.6,0.0,0.0044116973876953125,0.008409261703491211,0
1.8823432922363281,-0.01853151246905327,-0.01322970725595951,-0.581734836101532,0.00494473683856403,-0.5532789965230249,-0.27150335540099485,0.162342327761941,-0.032070647011286535,0.0,0.0,-0.6,0.0,0.00434565544128418,0.008550643920898438,0
1.8927597999572754,-0.01853151246905327,-0.01322970725595951,-0.581734836101532,0.00494473683856403,-0.5532789965230249,-0.27150335540099485,0.162342327761941,-0.032070647011286535,0.0,0.0,-0.6,0.0,0.0011491775512695312,0.004781007766723633,0
1.8999972343444824,-0.01890724152326584,-0.0131521075963974,-0.5817978382110596,0.00482134745024206,-0.5531630185425024,-0.25775606898557407,0.18633634977150818,-0.031226584124864117,0.0,0.0,-0.6,0.0,0.00448918342590332,0.008400201797485352,0
1.909749984741211,-0.01890724152326584,-0.0131521075963974,-0.5817978382110596,0.00482134745024206,-0.5531630185425024,-0.25775606898557407,0.18633634977150818,-0.031226584124864117,0.0,0.0,-0.6,0.0,0.0010652542114257812,0.004853963851928711,0
1.919830322265625,-0.019699349999427795,-0.01299327239394188,-0.5819459557533264,0.004506822652555656,-0.5537158560559562,-0.23358950828563055,0.21659829882468526,-0.029144193865278945,0.0,0.0,-0.6,0.0,0.004472970962524414,0.008440494537353516,0
1.9307053089141846,-0.020086316391825676,-0.012894462794065475,-0.5820022821426392,0.004363691290130924,-0.5543622848787814,-0.2163490513885857,0.23293316489369167,-0.02817398072243497,0.0,0.0,-0.6,0.0,0.0047075748443603516,0.008675575256347656,0
1.9414305686950684,-0.020761853083968163,-0.012704878114163876,-0.5820828676223755,0.004103121503512376,-0.5535905544496275,-0.15999514007651078,0.25427604752739597,-0.026356646234518267,0.0,0.0,-0.6,0.0,0.004307985305786133,0.008304357528686523,0
1.9517114162445068,-0.020761853083968163,-0.012704878114163876,-0.5820828676223755,0.004103121503512376,-0.5535905544496275,-0.15999514007651078,0.25427604752739597,-0.026356646234518267,0.0,0.0,-0.6,0.0,0.0011179447174072266,0.00483393669128418,0
1.9603955745697021,-0.02138346992433071,-0.012544850818812847,-0.5822766423225403,0.003807014979927029,-0.5527814786369775,-0.11122571086902111,0.24829800956706663,-0.02438326907205342,0.0,0.0,-0.6,0.0,0.0042836666107177734,0.008024930953979492,0
1.969930648803711,-0.02138346992433071,-0.012544850818812847,-0.5822766423225403,0.003807014979927029,-0.5527814786369775,-0.11122571086902111,0.24829800956706663,-0.02438326907205342,0.0,0.0,-0.6,0.0,0.0010933876037597656,0.005151033401489258,0
1.9801199436187744,-0.021971534937620163,-0.012362600304186344,-0.5824829936027527,0.0034857753822107114,-0.5525536330957164,-0.07164959291994935,0.23516136972894566,-0.02228684612793194,0.0,0.0,-0.6,0.0,0.004414796829223633,0.008220434188842773,0
1.9911363124847412,-0.021971534937620163,-0.012362600304186344,-0.5824829936027527,0.0034857753822107114,-0.5525536330957164,-0.07164959291994935,0.23516136972894566,-0.02228684612793194,0.0,0.0,-0.6,0.0,0.0010938644409179688,0.005021095275878906,0
2.0006346702575684,-0.022473715245723724,-0.012143410742282867,-0.5826796889305115,0.0031084149592877602,-0.5521376002404846,-0.03631274438116436,0.23896666731311678,-0.0198363769099394,0.0,0.0,-0.6,0.0,0.004461526870727539,0.008268594741821289,0
2.0102880001068115,-0.022473715245723724,-0.012143410742282867,-0.5826796889305115,0.0031084149592877602,-0.5521376002404846,-0.03631274438116436,0.23896666731311678,-0.0198363769099394,0.0,0.0,-0.6,0.0,0.0010879039764404297,0.004753828048706055,0
2.0198755264282227,-0.02267647348344326,-0.01203290093690157,-0.5827940106391907,0.0029126491331252636,-0.55150573856878,-0.016180534679190117,0.23945077330275197,-0.018565518518332044,0.0,0.0,-0.6,0.0,0.004605770111083984,0.00880742073059082,0
2.0301096439361572,-0.02267647348344326,-0.01203290093690157,-0.5827940106391907,0.0029126491331252636,-0.55150573856878,-0.016180534679190117,0.23945077330275197,-0.018565518518332044,0.0,0.0,-0.6,0.0,0.0011143684387207031,0.005036354064941406,0
2.0409610271453857,-0.023195933550596237,-0.011685787700116634,-0.5833044648170471,0.0021989220884855816,-0.550312713761374,0.021207477899446943,0.21533922081983614,-0.01400236616457079,0.0,0.0,-0.6,0.0,0.004401683807373047,0.008768558502197266,0
2.0514438152313232,-0.023195933550596237,-0.011685787700116634,-0.5833044648170471,0.0021989220884855816,-0.550312713761374,0.021207477899446943,0.21533922081983614,-0.01400236616457079,0.0,0.0,-0.6,0.0,0.0011591911315917969,0.00550532341003418,0
2.0600359439849854,-0.023365827277302742,-0.011559470556676388,-0.5835108160972595,0.00189737080963252,-0.5503353646546474,0.026255328638292306,0.19399730919996708,-0.012083258214657153,0.0,0.0,-0.6,0.0,0.00442051887512207,0.008501052856445312,0
2.06992244720459,-0.023365827277302742,-0.011559470556676388,-0.5835108160972595,0.00189737080963252,-0.5503353646546474,0.026255328638292306,0.19399730919996708,-0.012083258214657153,0.0,0.0,-0.6,0.0,0.001081228256225586,0.0049555301666259766,0
2.079857349395752,-0.023659205064177513,-0.011270116083323956,-0.5839022994041443,0.0013779860274181898,-0.5506498788536185,0.02515799042443726,0.16142311978866924,-0.008786113626061909,0.0,0.0,-0.6,0.0,0.004425525665283203,0.00853872299194336,0
2.090604543685913,-0.023659205064177513,-0.011270116083323956,-0.5839022994041443,0.0013779860274181898,-0.5506498788536185,0.02515799042443726,0.16142311978866924,-0.008786113626061909,0.0,0.0,-0.6,0.0,0.001165628433227539,0.005342721939086914,0
2.0999197959899902,-0.023847226053476334,-0.010934006422758102,-0.5842596292495728,0.0009255027675690585,-0.5506731103791366,0.026994611564006395,0.13273313993188007,-0.0059000776690117055,0.0,0.0,-0.6,0.0,0.00449681282043457,0.008566141128540039,0
2.109950542449951,-0.023847226053476334,-0.010934006422758102,-0.5842596292495728,0.0009255027675690585,-0.5506731103791366,0.026994611564006395,0.13273313993188007,-0.0059000776690117055,0.0,0.0,-0.6,0.0,0.0010759830474853516,0.004840850830078125,0
2.1199283599853516,-0.023935284465551376,-0.010640121065080166,-0.5846755504608154,0.0004554889751249882,-0.5495374608966498,0.044453561521637514,0.09271435343018604,-0.0028781182078366587,0.0,0.0,-0.6,0.0,0.004510641098022461,0.008711099624633789,0
2.1302719116210938,-0.023935284465551376,-0.010640121065080166,-0.5846755504608154,0.0004554889751249882,-0.5495374608966498,0.044453561521637514,0.09271435343018604,-0.0028781182078366587,0.0,0.0,-0.6,0.0,0.0011947154998779297,0.005349636077880859,0
2.1398983001708984,-0.02398250810801983,-0.010400334373116493,-0.5852011442184448,6.699170422665946e-05,-0.5484866704412427,0.05376884499673588,0.037259606326932634,-0.0003793459875883376,0.0,0.0,-0.6,0.0,0.004544973373413086,0.008341550827026367,0
2.151761054992676,-0.023987632244825363,-0.010293912142515182,-0.58548903465271,-0.00022352892403703812,-0.5481396386567102,0.059803743823455796,0.014926261625147565,0.00148443133150161,0.0,0.0,-0.6,0.0,0.0035636425018310547,0.007746458053588867,0
2.1607062816619873,-0.023987632244825363,-0.010293912142515182,-0.58548903465271,-0.00022352892403703812,-0.5481396386567102,0.059803743823455796,0.014926261625147565,0.00148443133150161,0.0,0.0,-0.6,0.0,0.0010845661163330078,0.004868268966674805,0
2.1708195209503174,-0.02395227551460266,-0.009984336793422699,-0.5863349437713623,-0.001001321586431821,-0.54806596992108,0.05773911967813007,-0.054893373760838485,0.006469069547571647,0.0,0.0,-0.6,0.0,0.005311250686645508,0.010236501693725586,0
2.1837964057922363,-0.02395227551460266,-0.009984336793422699,-0.5863349437713623,-0.001001321586431821,-0.54806596992108,0.05773911967813007,-0.054893373760838485,0.006469069547571647,0.0,0.0,-0.6,0.0,0.0012676715850830078,0.005903005599975586,0
2.192401647567749,-0.02391793578863144,-0.00979408249258995,-0.5868489146232605,-0.001360930382275922,-0.5484593983882915,0.04653307154074782,-0.081993177038025,0.008763458004535016,0.0,0.0,-0.6,0.0,0.00574183464050293,0.009938240051269531,0
2.2042388916015625,-0.02391793578863144,-0.00979408249258995,-0.5868489146232605,-0.001360930382275922,-0.5484593983882915,0.04653307154074782,-0.081993177038025,0.008763458004535016,0.0,0.0,-0.6,0.0,0.0011894702911376953,0.00535893440246582,0
2.2119107246398926,-0.023898134008049965,-0.009715811349451542,-0.5870895385742188,-0.0015925360146134566,-0.5481790799313246,0.04357555867175813,-0.09227921505260676,0.010241090950381667,0.0,0.0,-0.6,0.0,0.004587411880493164,0.008836507797241211,0
2.223355293273926,-0.023847419768571854,-0.009609905071556568,-0.5876355767250061,-0.002132743496925766,-0.5471285139450005,0.04105404114472541,-0.10520431443812246,0.013687794021098723,0.0,0.0,-0.6,0.0,0.005854606628417969,0.010601520538330078,0
2.23612117767334,-0.023847419768571854,-0.009609905071556568,-0.5876355767250061,-0.002132743496925766,-0.5471285139450005,0.04105404114472541,-0.10520431443812246,0.013687794021098723,0.0,0.0,-0.6,0.0,0.0012733936309814453,0.005560636520385742,0
2.2443654537200928,-0.023856917396187782,-0.009545662440359592,-0.5882701873779297,-0.002675257484311938,-0.5463509106298666,0.030260460433317118,-0.1276035794453294,0.017154429077458566,0.0,0.0,-0.6,0.0,0.005595207214355469,0.010150432586669922,0
2.2560901641845703,-0.023856917396187782,-0.009545662440359592,-0.5882701873779297,-0.002675257484311938,-0.5463509106298666,0.030260460433317118,-0.1276035794453294,0.017154429077458566,0.0,0.0,-0.6,0.0,0.0011682510375976562,0.00536346435546875,0
2.264163017272949,-0.023965803906321526,-0.009497343562543392,-0.5889684557914734,-0.0032548442784734715,-0.5455933462989344,0.014942842575035408,-0.14298008028008483,0.020852772490214146,0.0,0.0,-0.6,0.0,0.004947662353515625,0.008852243423461914,0
2.2745018005371094,-0.023965803906321526,-0.009497343562543392,-0.5889684557914734,-0.0032548442784734715,-0.5455933462989344,0.014942842575035408,-0.14298008028008483,0.020852772490214146,0.0,0.0,-0.6,0.0,0.0015118122100830078,0.0062711238861083984,0
2.2830910682678223,-0.024107351899147034,-0.009436344727873802,-0.5896753668785095,-0.0038210062687295218,-0.5454243900021026,0.0024764388079395114,-0.1446849820718678,0.02446035734106948,0.0,0.0,-0.6,0.0,0.004729270935058594,0.008676290512084961,0
2.294543743133545,-0.024107351899147034,-0.009436344727873802,-0.5896753668785095,-0.0038210062687295218,-0.5454243900021026,0.0024764388079395114,-0.1446849820718678,0.02446035734106948,0.0,0.0,-0.6,0.0,0.0012042522430419922,0.006333589553833008,0
2.3038132190704346,-0.02423529513180256,-0.009331892244517803,-0.5902992486953735,-0.004323360465680085,-0.5460796242665482,-0.005929850011567566,-0.1335744141986765,0.027656301105824656,0.0,0.0,-0.6,0.0,0.00494384765625,0.010542869567871094,0
2.3161473274230957,-0.02423529513180256,-0.009331892244517803,-0.5902992486953735,-0.004323360465680085,-0.5460796242665482,-0.005929850011567566,-0.1335744141986765,0.027656301105824656,0.0,0.0,-0.6,0.0,0.001331329345703125,0.005556344985961914,0
2.324267864227295,-0.02432858757674694,-0.009254938922822475,-0.5909040570259094,-0.004792776937894275,-0.5450001551740927,0.011951170668967283,-0.12923908858283403,0.03064320322127201,0.0,0.0,-0.6,0.0,0.005310773849487305,0.010221481323242188,0
2.337055206298828,-0.02432858757674694,-0.009254938922822475,-0.5909040570259094,-0.004792776937894275,-0.5450001551740927,0.011951170668967283,-0.12923908858283403,0.03064320322127201,0.0,0.0,-0.6,0.0,0.0014095306396484375,0.0057926177978515625,0
2.3448903560638428,-0.02442193403840065,-0.009181350469589233,-0.5915420055389404,-0.005241982802961141,-0.5448829557401326,0.02347157721464074,-0.12567831894803447,0.033504050852302604,0.0,0.0,-0.6,0.0,0.005783796310424805,0.010253667831420898,0
2.3576958179473877,-0.02442193403840065,-0.009181350469589233,-0.5915420055389404,-0.005241982802961141,-0.5448829557401326,0.02347157721464074,-0.12567831894803447,0.033504050852302604,0.0,0.0,-0.6,0.0,0.0011835098266601562,0.005445241928100586,0
2.3662490844726562,-0.024536022916436195,-0.009127425961196423,-0.5921165943145752,-0.005656479426086061,-0.5452403146347599,0.02946985127498305,-0.11588153050672698,0.03614943476269617,0.0,0.0,-0.6,0.0,0.0044629573822021484,0.008747577667236328,0
2.377547264099121,-0.024536022916436195,-0.009127425961196423,-0.5921165943145752,-0.005656479426086061,-0.5452403146347599,0.02946985127498305,-0.11588153050672698,0.03614943476269617,0.0,0.0,-0.6,0.0,0.0016181468963623047,0.006582021713256836,0
2.3863303661346436,-0.02465730346739292,-0.00906453188508749,-0.5926263332366943,-0.00595456023492026,-0.5459348959231732,0.03867755903189224,-0.0877593799003468,0.03806320056488548,0.0,0.0,-0.6,0.0,0.005244731903076172,0.010532617568969727,0
2.399099826812744,-0.02465730346739292,-0.00906453188508749,-0.5926263332366943,-0.00595456023492026,-0.5459348959231732,0.03867755903189224,-0.0877593799003468,0.03806320056488548,0.0,0.0,-0.6,0.0,0.0010671615600585938,0.005926847457885742,0
2.4076998233795166,-0.024736763909459114,-0.00901093240827322,-0.5930057168006897,-0.006125859200754354,-0.5464709670705302,0.05712560446057845,-0.052266986741621724,0.03918544226081658,0.0,0.0,-0.6,0.0,0.0046198368072509766,0.00906991958618164,0
2.4182591438293457,-0.024736763909459114,-0.00901093240827322,-0.5930057168006897,-0.006125859200754354,-0.5464709670705302,0.05712560446057845,-0.052266986741621724,0.03918544226081658,0.0,0.0,-0.6,0.0,0.0010612010955810547,0.0049359798431396484,0
2.4255220890045166,-0.02476474829018116,-0.008978531695902348,-0.5932945013046265,-0.006220642062313279,-0.5468885179205931,0.07172636660372653,-0.024644772659503114,0.039824882313573166,0.0,0.0,-0.6,0.0,0.005079507827758789,0.00968623161315918,0
2.437297821044922,-0.02476474829018116,-0.008978531695902348,-0.5932945013046265,-0.006220642062313279,-0.5468885179205931,0.07172636660372653,-0.024644772659503114,0.039824882313573166,0.0,0.0,-0.6,0.0,0.0014171600341796875,0.006318807601928711,0
2.4462363719940186,-0.024792034178972244,-0.008960322476923466,-0.5934710502624512,-0.006376093407051009,-0.5477000898611758,0.07602166704843541,-0.011324029093015954,0.04084054283094115,0.0,0.0,-0.6,0.0,0.00467371940612793,0.009964942932128906,0
