time,x,y,z,yaw,throttle,roll_rate,pitch_rate,yaw_rate,x_ref,y_ref,z_ref,yaw_ref,mpc_time,ctrl_callback_time_history,metadata
3.337860107421875e-06,-0.05675703287124634,-0.05060599744319916,-0.24353648722171783,0.03651071378883331,-0.6352876859272044,0.24127623401031276,-0.3140036940256409,-0.23352486194922245,0.0,0.0,-0.6,0.0,0.01874709129333496,0.023056507110595703,Hardware
0.02433943748474121,-0.05675703287124634,-0.05060599744319916,-0.24353648722171783,0.03651071378883331,-0.6352876859272044,0.24127623401031276,-0.3140036940256409,-0.23352486194922245,0.0,0.0,-0.6,0.0,0.0010824203491210938,0.005105495452880859,1x Speed
0.031800270080566406,-0.05674152448773384,-0.050615277141332626,-0.24355201423168182,0.03655278329375064,-0.6352876858552433,0.2443672745153118,-0.31556960730946243,-0.2337955925254826,0.0,0.0,-0.6,0.0,0.007377147674560547,0.011304140090942383,Horizon:3.0
0.04452228546142578,-0.05674152448773384,-0.050615277141332626,-0.24355201423168182,0.03655278329375064,-0.6352876858552433,0.2443672745153118,-0.31556960730946243,-0.2337955925254826,0.0,0.0,-0.6,0.0,0.0011067390441894531,0.005086183547973633,Num Steps:20
0.05160403251647949,-0.056743163615465164,-0.05061909556388855,-0.2435574233531952,0.036499040120101,-0.6352876859305207,0.2419623167399665,-0.3119892190656218,-0.23344845288024874,0.0,0.0,-0.6,0.0,0.0074005126953125,0.011180639266967773,No Pyjoules
0.0659639835357666,-0.0567234605550766,-0.050627946853637695,-0.24357791244983673,0.03643005252985922,-0.6352876858427023,0.24336823049961384,-0.3153351491400648,-0.23300989679580916,0.0,0.0,-0.6,0.0,0.007372617721557617,0.011148691177368164,0
0.07906007766723633,-0.0567234605550766,-0.050627946853637695,-0.24357791244983673,0.03643005252985922,-0.6352876858427023,0.24336823049961384,-0.3153351491400648,-0.23300989679580916,0.0,0.0,-0.6,0.0,0.0010800361633300781,0.0050351619720458984,0
0.08592510223388672,-0.05671422928571701,-0.05063151940703392,-0.24361126124858856,0.03617615095232683,-0.6352876856729811,0.24029470701993338,-0.3147478545507549,-0.2313847064981225,0.0,0.0,-0.6,0.0,0.007575273513793945,0.011345863342285156,0
0.09921050071716309,-0.05671422928571701,-0.05063151940703392,-0.24361126124858856,0.03617615095232683,-0.6352876856729811,0.24029470701993338,-0.3147478545507549,-0.2313847064981225,0.0,0.0,-0.6,0.0,0.0011000633239746094,0.004967451095581055,0
0.10617995262145996,-0.0567089319229126,-0.05063605681061745,-0.24370165169239044,0.035861135972784036,-0.6352876849741982,0.2434936235952077,-0.3002710690590066,-0.22935878083746658,0.0,0.0,-0.6,0.0,0.007403850555419922,0.011175870895385742,0
0.11881470680236816,-0.0567089319229126,-0.05063605681061745,-0.24370165169239044,0.035861135972784036,-0.6352876849741982,0.2434936235952077,-0.3002710690590066,-0.22935878083746658,0.0,0.0,-0.6,0.0,0.001110076904296875,0.00497889518737793,0
0.12619495391845703,-0.056604430079460144,-0.05065466836094856,-0.24384655058383942,0.035852088129393736,-0.6352876845219896,0.26461877417779245,-0.264467865588031,-0.22925178326092097,0.0,0.0,-0.6,0.0,0.008780479431152344,0.01267862319946289,0
0.14023804664611816,-0.056604430079460144,-0.05065466836094856,-0.24384655058383942,0.035852088129393736,-0.6352876845219896,0.26461877417779245,-0.264467865588031,-0.22925178326092097,0.0,0.0,-0.6,0.0,0.001129150390625,0.005076169967651367,0
0.14958858489990234,-0.05634618178009987,-0.050682831555604935,-0.24400338530540466,0.03588509064510878,-0.6352876820309263,0.2647985575076971,-0.2242827148140596,-0.22942420895702725,0.0,0.0,-0.6,0.0,0.0076601505279541016,0.011581182479858398,0
0.16338706016540527,-0.05634618178009987,-0.050682831555604935,-0.24400338530540466,0.03588509064510878,-0.6352876820309263,0.2647985575076971,-0.2242827148140596,-0.22942420895702725,0.0,0.0,-0.6,0.0,0.0011494159698486328,0.005246162414550781,0
0.17066121101379395,-0.05591697245836258,-0.05067812278866768,-0.24433855712413788,0.035822512664874136,-0.6352876549141065,0.2214669077029031,-0.16534050283387017,-0.22898669089254697,0.0,0.0,-0.6,0.0,0.007429599761962891,0.011367321014404297,0
0.18445253372192383,-0.055192314088344574,-0.05063660070300102,-0.24509736895561218,0.03531516959111659,-0.6352875651352797,0.2168992969252254,-0.08066755521547543,-0.2256298163984058,0.0,0.0,-0.6,0.0,0.008744478225708008,0.01254415512084961,0
0.19835114479064941,-0.055192314088344574,-0.05063660070300102,-0.24509736895561218,0.03531516959111659,-0.6352875651352797,0.2168992969252254,-0.08066755521547543,-0.2256298163984058,0.0,0.0,-0.6,0.0,0.0011255741119384766,0.005202054977416992,0
0.20560765266418457,-0.05432283878326416,-0.05039576068520546,-0.24633945524692535,0.03460744603327051,-0.634201054674483,0.14876051368456691,-0.013252990217816396,-0.2210547807706868,0.0,0.0,-0.6,0.0,0.007538318634033203,0.011515140533447266,0
0.21910977363586426,-0.05432283878326416,-0.05039576068520546,-0.24633945524692535,0.03460744603327051,-0.634201054674483,0.14876051368456691,-0.013252990217816396,-0.2210547807706868,0.0,0.0,-0.6,0.0,0.0011348724365234375,0.00513148307800293,0
0.2262105941772461,-0.05339895561337471,-0.04999522119760513,-0.24808244407176971,0.033724401166279776,-0.6252753461042568,0.14739184097939473,0.10654709800361982,-0.21523417846089885,0.0,0.0,-0.6,0.0,0.0071637630462646484,0.010985612869262695,0
0.23908543586730957,-0.05339895561337471,-0.04999522119760513,-0.24808244407176971,0.033724401166279776,-0.6252753461042568,0.14739184097939473,0.10654709800361982,-0.21523417846089885,0.0,0.0,-0.6,0.0,0.0011258125305175781,0.004889726638793945,0
0.24599432945251465,-0.05224952846765518,-0.04961894080042839,-0.2508874237537384,0.03257371292345934,-0.6196863349462179,0.03509367171508752,0.25917398979682554,-0.2077912622036165,0.0,0.0,-0.6,0.0,0.007006168365478516,0.01103353500366211,0
0.25830936431884766,-0.05224952846765518,-0.04961894080042839,-0.2508874237537384,0.03257371292345934,-0.6196863349462179,0.03509367171508752,0.25917398979682554,-0.2077912622036165,0.0,0.0,-0.6,0.0,0.001104116439819336,0.004984617233276367,0
0.26632118225097656,-0.05114761367440224,-0.049114495515823364,-0.2544286549091339,0.03111713130660417,-0.6107854831442455,-0.07375125631823486,0.3497401780917199,-0.19848347799558613,0.0,0.0,-0.6,0.0,0.006837606430053711,0.010613441467285156,0
0.2782471179962158,-0.05114761367440224,-0.049114495515823364,-0.2544286549091339,0.03111713130660417,-0.6107854831442455,-0.07375125631823486,0.3497401780917199,-0.19848347799558613,0.0,0.0,-0.6,0.0,0.0010917186737060547,0.004985809326171875,0
0.285754919052124,-0.04992176592350006,-0.04849695414304733,-0.2589172124862671,0.029464039493282763,-0.602721038730733,-0.14026626083722474,0.4002609033956027,-0.1879028569397406,0.0,0.0,-0.6,0.0,0.005458354949951172,0.009451627731323242,0
0.29653000831604004,-0.04992176592350006,-0.04849695414304733,-0.2589172124862671,0.029464039493282763,-0.602721038730733,-0.14026626083722474,0.4002609033956027,-0.1879028569397406,0.0,0.0,-0.6,0.0,0.0012264251708984375,0.004965066909790039,0
0.30400824546813965,-0.048682816326618195,-0.04770730808377266,-0.2639981210231781,0.027825209684921783,-0.5936369395679428,-0.23810678391111584,0.4405180114067964,-0.1775204928788387,0.0,0.0,-0.6,0.0,0.006424903869628906,0.010324954986572266,0
0.31564950942993164,-0.048682816326618195,-0.04770730808377266,-0.2639981210231781,0.027825209684921783,-0.5936369395679428,-0.23810678391111584,0.4405180114067964,-0.1775204928788387,0.0,0.0,-0.6,0.0,0.0010821819305419922,0.004946231842041016,0
0.3229949474334717,-0.047373607754707336,-0.04688622057437897,-0.2699328660964966,0.02618066037110236,-0.5881175599806537,-0.3281309314079006,0.46262496187282937,-0.1671370600705771,0.0,0.0,-0.6,0.0,0.006331443786621094,0.010508537292480469,0
0.33484911918640137,-0.047373607754707336,-0.04688622057437897,-0.2699328660964966,0.02618066037110236,-0.5881175599806537,-0.3281309314079006,0.46262496187282937,-0.1671370600705771,0.0,0.0,-0.6,0.0,0.001066446304321289,0.0049321651458740234,0
0.34204959869384766,-0.04673195257782936,-0.04647846147418022,-0.27310431003570557,0.025346822388548074,-0.5837649391016316,-0.3520207425642407,0.49647253103885747,-0.16173668968881938,0.0,0.0,-0.6,0.0,0.006450176239013672,0.010360479354858398,0
0.35379767417907715,-0.04673195257782936,-0.04647846147418022,-0.27310431003570557,0.025346822388548074,-0.5837649391016316,-0.3520207425642407,0.49647253103885747,-0.16173668968881938,0.0,0.0,-0.6,0.0,0.0010938644409179688,0.005091190338134766,0
0.3614163398742676,-0.04538645222783089,-0.04568730294704437,-0.2801618278026581,0.023681854533588426,-0.5742105057290031,-0.37197633183322676,0.4836815550283097,-0.15111846335770082,0.0,0.0,-0.6,0.0,0.006444454193115234,0.010440826416015625,0
0.3737671375274658,-0.04538645222783089,-0.04568730294704437,-0.2801618278026581,0.023681854533588426,-0.5742105057290031,-0.37197633183322676,0.4836815550283097,-0.15111846335770082,0.0,0.0,-0.6,0.0,0.0010972023010253906,0.005019187927246094,0
0.3809390068054199,-0.043997835367918015,-0.044812798500061035,-0.2878599762916565,0.022261776702106703,-0.5659743297970092,-0.355818975819172,0.42764932305404907,-0.14209334465169496,0.0,0.0,-0.6,0.0,0.006298065185546875,0.010337591171264648,0
0.39312219619750977,-0.043997835367918015,-0.044812798500061035,-0.2878599762916565,0.022261776702106703,-0.5659743297970092,-0.355818975819172,0.42764932305404907,-0.14209334465169496,0.0,0.0,-0.6,0.0,0.0011026859283447266,0.004770517349243164,0
0.39989590644836426,-0.04255679249763489,-0.043879467993974686,-0.29610776901245117,0.020917356118615855,-0.5621344051775562,-0.3779842514169475,0.3547196609650562,-0.13369846438042748,0.0,0.0,-0.6,0.0,0.006603240966796875,0.01044607162475586,0
0.41173219680786133,-0.04255679249763489,-0.043879467993974686,-0.29610776901245117,0.020917356118615855,-0.5621344051775562,-0.3779842514169475,0.3547196609650562,-0.13369846438042748,0.0,0.0,-0.6,0.0,0.0010628700256347656,0.004693508148193359,0
0.41956353187561035,-0.04109619930386543,-0.042853523045778275,-0.304672509431839,0.019750493100496286,-0.5563272617349971,-0.3652775148607622,0.3360473085215645,-0.12618959049243963,0.0,0.0,-0.6,0.0,0.006654977798461914,0.010554075241088867,0
0.43167734146118164,-0.04109619930386543,-0.042853523045778275,-0.304672509431839,0.019750493100496286,-0.5563272617349971,-0.3652775148607622,0.3360473085215645,-0.12618959049243963,0.0,0.0,-0.6,0.0,0.0010819435119628906,0.004921436309814453,0
0.43958544731140137,-0.039645273238420486,-0.04187605530023575,-0.3136305510997772,0.018679523703472718,-0.5519027029173121,-0.3227610646071349,0.33755580971895416,-0.11921971357275568,0.0,0.0,-0.6,0.0,0.006375551223754883,0.010058403015136719,0
0.45098233222961426,-0.039645273238420486,-0.04187605530023575,-0.3136305510997772,0.018679523703472718,-0.5519027029173121,-0.3227610646071349,0.33755580971895416,-0.11921971357275568,0.0,0.0,-0.6,0.0,0.0010559558868408203,0.004514217376708984,0
0.4600799083709717,-0.03809014707803726,-0.04090709239244461,-0.3227351903915405,0.01746889624846327,-0.5469804675461819,-0.250198035597941,0.35226455786030686,-0.11136113013170124,0.0,0.0,-0.6,0.0,0.006627082824707031,0.01044774055480957,0
0.4718968868255615,-0.03809014707803726,-0.04090709239244461,-0.3227351903915405,0.01746889624846327,-0.5469804675461819,-0.250198035597941,0.35226455786030686,-0.11136113013170124,0.0,0.0,-0.6,0.0,0.0010924339294433594,0.00463414192199707,0
0.4797184467315674,-0.03652379289269447,-0.03998929262161255,-0.33198872208595276,0.016182326004796358,-0.5426144744941984,-0.17364316232688165,0.3298192473940093,-0.10317533337309358,0.0,0.0,-0.6,0.0,0.007560014724731445,0.011372089385986328,0
0.49234700202941895,-0.03652379289269447,-0.03998929262161255,-0.33198872208595276,0.016182326004796358,-0.5426144744941984,-0.17364316232688165,0.3298192473940093,-0.10317533337309358,0.0,0.0,-0.6,0.0,0.0011551380157470703,0.0048902034759521484,0
0.49978184700012207,-0.03489603102207184,-0.039016254246234894,-0.34122103452682495,0.014837500711844887,-0.5395524872320375,-0.13016824760301718,0.32461125488495807,-0.09464716231063737,0.0,0.0,-0.6,0.0,0.006574869155883789,0.01047825813293457,0
0.5121073722839355,-0.03489603102207184,-0.039016254246234894,-0.34122103452682495,0.014837500711844887,-0.5395524872320375,-0.13016824760301718,0.32461125488495807,-0.09464716231063737,0.0,0.0,-0.6,0.0,0.001087188720703125,0.005095243453979492,0
0.5194880962371826,-0.03324514999985695,-0.03796686977148056,-0.3504166901111603,0.01354891228444314,-0.5375081849443449,-0.09369778429797307,0.28103599995965906,-0.08651599956545278,0.0,0.0,-0.6,0.0,0.006529569625854492,0.010410547256469727,0
0.5313963890075684,-0.03324514999985695,-0.03796686977148056,-0.3504166901111603,0.01354891228444314,-0.5375081849443449,-0.09369778429797307,0.28103599995965906,-0.08651599956545278,0.0,0.0,-0.6,0.0,0.0011379718780517578,0.005013704299926758,0
0.539635181427002,-0.03168392553925514,-0.03685598075389862,-0.3595529794692993,0.012362743067694507,-0.5350345152824598,-0.05837491527772123,0.19900177537365024,-0.07902097114703381,0.0,0.0,-0.6,0.0,0.0065212249755859375,0.010373592376708984,0
0.5514078140258789,-0.03168392553925514,-0.03685598075389862,-0.3595529794692993,0.012362743067694507,-0.5350345152824598,-0.05837491527772123,0.19900177537365024,-0.07902097114703381,0.0,0.0,-0.6,0.0,0.0010950565338134766,0.004895448684692383,0
0.5600743293762207,-0.03023863211274147,-0.03575461357831955,-0.3685508072376251,0.01107395842534794,-0.5334284033990152,-0.022738517085365024,0.1167455825852648,-0.0708331057681996,0.0,0.0,-0.6,0.0,0.00654292106628418,0.01037740707397461,0
0.5717883110046387,-0.03023863211274147,-0.03575461357831955,-0.3685508072376251,0.01107395842534794,-0.5334284033990152,-0.022738517085365024,0.1167455825852648,-0.0708331057681996,0.0,0.0,-0.6,0.0,0.0010678768157958984,0.004907131195068359,0
0.5799410343170166,-0.028814001008868217,-0.03465381637215614,-0.3773782253265381,0.009764376655014315,-0.5320601196910479,0.002462901942690456,0.05989825172332292,-0.06248925211371662,0.0,0.0,-0.6,0.0,0.005417346954345703,0.009322643280029297,0
0.5912725925445557,-0.028098028153181076,-0.03410465270280838,-0.3817160427570343,0.009088727660626295,-0.5319780816210202,0.01542727680962831,0.036511560630777984,-0.0581814479251207,0.0,0.0,-0.6,0.0,0.0053462982177734375,0.009243249893188477,0
0.6028037071228027,-0.027371613308787346,-0.033568549901247025,-0.38599893450737,0.00840029272253748,-0.5313322229782443,0.032001771980489334,0.014784244885980253,-0.05379469384015001,0.0,0.0,-0.6,0.0,0.0055501461029052734,0.009504318237304688,0
0.6142666339874268,-0.027371613308787346,-0.033568549901247025,-0.38599893450737,0.00840029272253748,-0.5313322229782443,0.032001771980489334,0.014784244885980253,-0.05379469384015001,0.0,0.0,-0.6,0.0,0.0011165142059326172,0.004990816116333008,0
0.62131667137146,-0.025949571281671524,-0.03255750983953476,-0.3945043683052063,0.007094904898757506,-0.5296549026272368,0.05875805213548086,-0.036018022652087756,-0.0454634912160735,0.0,0.0,-0.6,0.0,0.0053806304931640625,0.009216547012329102,0
0.6325283050537109,-0.024589762091636658,-0.031588081270456314,-0.40283235907554626,0.0059357984138848205,-0.5288593570902442,0.08811886478474487,-0.08071567911564369,-0.0380714477928958,0.0,0.0,-0.6,0.0,0.0053863525390625,0.009390830993652344,0
0.6438117027282715,-0.024589762091636658,-0.031588081270456314,-0.40283235907554626,0.0059357984138848205,-0.5288593570902442,0.08811886478474487,-0.08071567911564369,-0.0380714477928958,0.0,0.0,-0.6,0.0,0.001123189926147461,0.004997730255126953,0
0.6508429050445557,-0.02395717054605484,-0.03111894242465496,-0.40691009163856506,0.005390447383949145,-0.5289258004087777,0.10879381899315177,-0.11215499953427252,-0.03459831807819109,0.0,0.0,-0.6,0.0,0.0054759979248046875,0.009412765502929688,0
0.6628036499023438,-0.022829867899417877,-0.03025422990322113,-0.41477641463279724,0.004330393082436828,-0.5286397231312701,0.15300931287761746,-0.16961294563053925,-0.027865121570923735,0.0,0.0,-0.6,0.0,0.005603313446044922,0.009717941284179688,0
0.6742465496063232,-0.022829867899417877,-0.03025422990322113,-0.41477641463279724,0.004330393082436828,-0.5286397231312701,0.15300931287761746,-0.16961294563053925,-0.027865121570923735,0.0,0.0,-0.6,0.0,0.0010781288146972656,0.00485682487487793,0
0.6811959743499756,-0.022326115518808365,-0.029855826869606972,-0.4186077117919922,0.003849918294278249,-0.5288739399370745,0.1682694016277747,-0.1838297564483559,-0.024818762294201966,0.0,0.0,-0.6,0.0,0.005537986755371094,0.009369373321533203,0
0.6925194263458252,-0.02141069620847702,-0.029119130223989487,-0.42604905366897583,0.002835291279742313,-0.5296695352151923,0.17333402723608465,-0.21340258386089814,-0.018337227508061105,0.0,0.0,-0.6,0.0,0.00541996955871582,0.009390592575073242,0
0.7037506103515625,-0.02141069620847702,-0.029119130223989487,-0.42604905366897583,0.002835291279742313,-0.5296695352151923,0.17333402723608465,-0.21340258386089814,-0.018337227508061105,0.0,0.0,-0.6,0.0,0.0010571479797363281,0.004882097244262695,0
0.7107460498809814,-0.020547283813357353,-0.02844417467713356,-0.4332638382911682,0.0018547457272404858,-0.5293298068987046,0.16573058293043474,-0.20281292912332938,-0.012074340722857771,0.0,0.0,-0.6,0.0,0.005435943603515625,0.009709358215332031,0
0.7216753959655762,-0.020547283813357353,-0.02844417467713356,-0.4332638382911682,0.0018547457272404858,-0.5293298068987046,0.16573058293043474,-0.20281292912332938,-0.012074340722857771,0.0,0.0,-0.6,0.0,0.0010950565338134766,0.0047283172607421875,0
0.7303938865661621,-0.01968221366405487,-0.02782648429274559,-0.4402286112308502,0.000955803034140261,-0.5306372710746927,0.14163854476049412,-0.19790920647329915,-0.006289835399998952,0.0,0.0,-0.6,0.0,0.005621910095214844,0.009482622146606445,0
0.741734504699707,-0.01968221366405487,-0.02782648429274559,-0.4402286112308502,0.000955803034140261,-0.5306372710746927,0.14163854476049412,-0.19790920647329915,-0.006289835399998952,0.0,0.0,-0.6,0.0,0.0011529922485351562,0.004729509353637695,0
0.7506840229034424,-0.01885770447552204,-0.02725367434322834,-0.44688165187835693,0.00014254619898543752,-0.5314961335078275,0.10752211196163776,-0.18721728796417436,-0.0010338594456120072,0.0,0.0,-0.6,0.0,0.005457401275634766,0.009452104568481445,0
0.7625055313110352,-0.01885770447552204,-0.02725367434322834,-0.44688165187835693,0.00014254619898543752,-0.5314961335078275,0.10752211196163776,-0.18721728796417436,-0.0010338594456120072,0.0,0.0,-0.6,0.0,0.001092672348022461,0.0049936771392822266,0
0.7701056003570557,-0.018468638882040977,-0.026981310918927193,-0.450123131275177,-0.00020698697142851186,-0.5314257634863211,0.10269624572656505,-0.1841948407424996,0.00120986548847276,0.0,0.0,-0.6,0.0,0.005341053009033203,0.00937032699584961,0
0.7814559936523438,-0.01810564659535885,-0.02672995999455452,-0.45331260561943054,-0.0005419784160288019,-0.5317136693205967,0.10413280103416706,-0.18699386371533996,0.003354268056526632,0.0,0.0,-0.6,0.0,0.0055849552154541016,0.00939321517944336,0
0.7934377193450928,-0.017459489405155182,-0.026286596432328224,-0.459515243768692,-0.0013145274032471705,-0.5325175479470566,0.10336595874212172,-0.18659265772889944,0.008301072730501487,0.0,0.0,-0.6,0.0,0.005463600158691406,0.009394407272338867,0
0.8041095733642578,-0.017459489405155182,-0.026286596432328224,-0.459515243768692,-0.0013145274032471705,-0.5325175479470566,0.10336595874212172,-0.18659265772889944,0.008301072730501487,0.0,0.0,-0.6,0.0,0.0010573863983154297,0.004848957061767578,0
0.8111295700073242,-0.017160287126898766,-0.026093238964676857,-0.46250659227371216,-0.0017318116703156103,-0.5327969381091747,0.10552796897659619,-0.17991917419005554,0.010971448891475357,0.0,0.0,-0.6,0.0,0.00552821159362793,0.009399890899658203,0
0.8224127292633057,-0.01663080044090748,-0.02575816586613655,-0.46830371022224426,-0.002456783397346592,-0.5332619817906721,0.10899769357214709,-0.1628562029997934,0.015618661331500036,0.0,0.0,-0.6,0.0,0.005354404449462891,0.009360074996948242,0
0.83380126953125,-0.01663080044090748,-0.02575816586613655,-0.46830371022224426,-0.002456783397346592,-0.5332619817906721,0.10899769357214709,-0.1628562029997934,0.015618661331500036,0.0,0.0,-0.6,0.0,0.0011017322540283203,0.004977703094482422,0
0.8407373428344727,-0.016408365219831467,-0.025604544207453728,-0.4710816442966461,-0.0028003930830783666,-0.5340277641068442,0.11108122660320716,-0.14743699910472072,0.017824843441290705,0.0,0.0,-0.6,0.0,0.005704402923583984,0.00958108901977539,0
0.8522129058837891,-0.016408365219831467,-0.025604544207453728,-0.4710816442966461,-0.0028003930830783666,-0.5340277641068442,0.11108122660320716,-0.14743699910472072,0.017824843441290705,0.0,0.0,-0.6,0.0,0.001110076904296875,0.0050201416015625,0
0.8604066371917725,-0.016026457771658897,-0.025322336703538895,-0.4763103425502777,-0.003363893696779446,-0.5350498388518611,0.11002044746869175,-0.10606216897892543,0.021461865273954925,0.0,0.0,-0.6,0.0,0.005496025085449219,0.009385108947753906,0
0.8717751502990723,-0.01572933979332447,-0.025106200948357582,-0.48123130202293396,-0.0037953902510354273,-0.5367671484799886,0.10050944941245081,-0.059077776415105795,0.024270925569116444,0.0,0.0,-0.6,0.0,0.005423545837402344,0.00955653190612793,0
0.8831992149353027,-0.01572933979332447,-0.025106200948357582,-0.48123130202293396,-0.0037953902510354273,-0.5367671484799886,0.10050944941245081,-0.059077776415105795,0.024270925569116444,0.0,0.0,-0.6,0.0,0.0010693073272705078,0.005178928375244141,0
0.8902649879455566,-0.015538153238594532,-0.02496258169412613,-0.4859125316143036,-0.004239246159801651,-0.5369693821941669,0.08809028354854453,-0.025527854621838323,0.027151848337209926,0.0,0.0,-0.6,0.0,0.00542449951171875,0.009294986724853516,0
0.9009695053100586,-0.015538153238594532,-0.02496258169412613,-0.4859125316143036,-0.004239246159801651,-0.5369693821941669,0.08809028354854453,-0.025527854621838323,0.027151848337209926,0.0,0.0,-0.6,0.0,0.0011086463928222656,0.004753828048706055,0
0.9094574451446533,-0.015472116880118847,-0.024928973987698555,-0.4882182478904724,-0.004489259278131071,-0.5369379204251024,0.07932703325728704,-0.006678936704496125,0.02877102396506946,0.0,0.0,-0.6,0.0,0.004563570022583008,0.008455753326416016,0
0.9199929237365723,-0.015416989102959633,-0.024908268824219704,-0.49048545956611633,-0.0046914475526427,-0.5370601600128997,0.06520050257140134,0.011505289868803795,0.030077793035090075,0.0,0.0,-0.6,0.0,0.0044705867767333984,0.008671045303344727,0
0.9300427436828613,-0.015416989102959633,-0.024908268824219704,-0.49048545956611633,-0.0046914475526427,-0.5370601600128997,0.06520050257140134,0.011505289868803795,0.030077793035090075,0.0,0.0,-0.6,0.0,0.0010633468627929688,0.0050203800201416016,0
0.9408628940582275,-0.015277373604476452,-0.024857275187969208,-0.49701496958732605,-0.005316195841109769,-0.5373084429895801,0.00596105818186388,0.06752410281051367,0.03408691536206882,0.0,0.0,-0.6,0.0,0.005997657775878906,0.010026931762695312,0
0.9524862766265869,-0.015277373604476452,-0.024857275187969208,-0.49701496958732605,-0.005316195841109769,-0.5373084429895801,0.00596105818186388,0.06752410281051367,0.03408691536206882,0.0,0.0,-0.6,0.0,0.0011818408966064453,0.0052525997161865234,0
1.2531592845916748,-0.01522888708859682,-0.02483917772769928,-0.4991084337234497,-0.00549316046369294,-0.537304886609587,-0.01858386561425116,0.08308672164304456,0.03521147658250238,0.0,0.0,-0.6,0.0,0.004554271697998047,0.008501768112182617,0
1.2642185688018799,-0.013896985910832882,-0.01900317892432213,-0.5479679703712463,-0.0057546864282203465,-0.5438790691923,-0.24736226955581228,-0.02381040664193216,0.036633097919873715,0.0,0.0,-0.6,0.0,0.004636526107788086,0.00852346420288086,0
1.2751927375793457,-0.013896985910832882,-0.01900317892432213,-0.5479679703712463,-0.0057546864282203465,-0.5438790691923,-0.24736226955581228,-0.02381040664193216,0.036633097919873715,0.0,0.0,-0.6,0.0,0.0011475086212158203,0.005241870880126953,0
1.2822647094726562,-0.013751416467130184,-0.018279248848557472,-0.5499669909477234,-0.005458543627779139,-0.5443407418612508,-0.2805495496631367,-0.005559287758444841,0.034758240244308125,0.0,0.0,-0.6,0.0,0.004602670669555664,0.00841975212097168,0
1.2926831245422363,-0.013751416467130184,-0.018279248848557472,-0.5499669909477234,-0.005458543627779139,-0.5443407418612508,-0.2805495496631367,-0.005559287758444841,0.034758240244308125,0.0,0.0,-0.6,0.0,0.0011665821075439453,0.004950761795043945,0
1.2996795177459717,-0.013681124895811081,-0.017900869250297546,-0.5509201288223267,-0.005295351607818557,-0.5444036788737769,-0.29729941987247066,0.0033108723223814656,0.03372638751603851,0.0,0.0,-0.6,0.0,0.004582405090332031,0.008538246154785156,0
1.3102099895477295,-0.013605906628072262,-0.017520232126116753,-0.5518547892570496,-0.0051024847628781764,-0.5445150041307291,-0.3121356723622582,0.014809932499303817,0.03251115095182444,0.0,0.0,-0.6,0.0,0.0043964385986328125,0.008571624755859375,0
1.3206181526184082,-0.013605906628072262,-0.017520232126116753,-0.5518547892570496,-0.0051024847628781764,-0.5445150041307291,-0.3121356723622582,0.014809932499303817,0.03251115095182444,0.0,0.0,-0.6,0.0,0.001153707504272461,0.005163669586181641,0
1.3296031951904297,-0.013431983068585396,-0.016764745116233826,-0.5536597371101379,-0.004798602128064135,-0.5448874039192568,-0.33395188151764094,0.04136636704872173,0.03061674193016344,0.0,0.0,-0.6,0.0,0.004605531692504883,0.008449316024780273,0
1.3400862216949463,-0.013327540829777718,-0.01639626733958721,-0.5545158982276917,-0.0047318610386023596,-0.5454715112196372,-0.33811072813193116,0.051666559323654215,0.030208978904196597,0.0,0.0,-0.6,0.0,0.0046117305755615234,0.008521318435668945,0
1.3508110046386719,-0.013220553286373615,-0.016041774302721024,-0.5553295612335205,-0.004599605639747924,-0.5458121623553457,-0.3335967259576001,0.06241614991089544,0.029383066039879273,0.0,0.0,-0.6,0.0,0.004559516906738281,0.008409500122070312,0
1.3616087436676025,-0.01298796758055687,-0.015386843122541904,-0.5568705201148987,-0.00419689872406455,-0.5469909153105478,-0.30659869347418783,0.08458688589440215,0.026840105242228775,0.0,0.0,-0.6,0.0,0.004651546478271484,0.009018182754516602,0
1.3725330829620361,-0.01298796758055687,-0.015386843122541904,-0.5568705201148987,-0.00419689872406455,-0.5469909153105478,-0.30659869347418783,0.08458688589440215,0.026840105242228775,0.0,0.0,-0.6,0.0,0.0010554790496826172,0.005117177963256836,0
1.3796098232269287,-0.01277313381433487,-0.014826186001300812,-0.5582244396209717,-0.0037349350634781277,-0.5477716275773333,-0.24362478173389296,0.07673973824758963,0.023873567644309132,0.0,0.0,-0.6,0.0,0.00458073616027832,0.008333683013916016,0
1.390815258026123,-0.012695652432739735,-0.014583172276616096,-0.558836042881012,-0.0034921962321713663,-0.5481822416201945,-0.20515567283292044,0.07008335649614572,0.0223173922079759,0.0,0.0,-0.6,0.0,0.004677534103393555,0.008475542068481445,0
1.401123046875,-0.012695652432739735,-0.014583172276616096,-0.558836042881012,-0.0034921962321713663,-0.5481822416201945,-0.20515567283292044,0.07008335649614572,0.0223173922079759,0.0,0.0,-0.6,0.0,0.0010900497436523438,0.0048198699951171875,0
1.410644769668579,-0.012585881166160107,-0.014137177728116512,-0.5599309206008911,-0.002970984831711544,-0.5493713783642132,-0.13283352699789705,0.05338920437997686,0.018981375886750314,0.0,0.0,-0.6,0.0,0.004557132720947266,0.008476734161376953,0
1.4211220741271973,-0.012585881166160107,-0.014137177728116512,-0.5599309206008911,-0.002970984831711544,-0.5493713783642132,-0.13283352699789705,0.05338920437997686,0.018981375886750314,0.0,0.0,-0.6,0.0,0.001165151596069336,0.005135536193847656,0
1.4301810264587402,-0.012525061145424843,-0.013723662123084068,-0.5608899593353271,-0.002572442221067903,-0.5503054275960234,-0.05700996654931975,0.04014757107649059,0.016443787035030057,0.0,0.0,-0.6,0.0,0.00457763671875,0.008499860763549805,0
1.440117359161377,-0.012525061145424843,-0.013723662123084068,-0.5608899593353271,-0.002572442221067903,-0.5503054275960234,-0.05700996654931975,0.04014757107649059,0.016443787035030057,0.0,0.0,-0.6,0.0,0.0010712146759033203,0.0047833919525146484,0
1.4494733810424805,-0.012471770867705345,-0.013319230638444424,-0.5617718696594238,-0.002227644065074433,-0.5508340267650502,0.016620551529458093,0.029693085240868115,0.014252923183902812,0.0,0.0,-0.6,0.0,0.004624128341674805,0.008463621139526367,0
1.461183786392212,-0.012471770867705345,-0.013319230638444424,-0.5617718696594238,-0.002227644065074433,-0.5508340267650502,0.016620551529458093,0.029693085240868115,0.014252923183902812,0.0,0.0,-0.6,0.0,0.0011715888977050781,0.005026817321777344,0
1.4701685905456543,-0.01240682415664196,-0.012919208034873009,-0.5625718832015991,-0.0018884490701374908,-0.551941614957461,0.08108125121863083,0.013002512775854413,0.012100779107721732,0.0,0.0,-0.6,0.0,0.00459599494934082,0.008542299270629883,0
1.480147123336792,-0.01240682415664196,-0.012919208034873009,-0.5625718832015991,-0.0018884490701374908,-0.551941614957461,0.08108125121863083,0.013002512775854413,0.012100779107721732,0.0,0.0,-0.6,0.0,0.0010612010955810547,0.005085468292236328,0
1.4903695583343506,-0.012357665225863457,-0.012510322965681553,-0.5632764101028442,-0.0015534327728766184,-0.5527894433516548,0.12519245338126983,-0.01410057974070642,0.009987555076112887,0.0,0.0,-0.6,0.0,0.004572868347167969,0.008623123168945312,0
1.5004794597625732,-0.012357665225863457,-0.012510322965681553,-0.5632764101028442,-0.0015534327728766184,-0.5527894433516548,0.12519245338126983,-0.01410057974070642,0.009987555076112887,0.0,0.0,-0.6,0.0,0.0011458396911621094,0.005109071731567383,0
1.5095326900482178,-0.012317516840994358,-0.01210086327046156,-0.5639469623565674,-0.0011517483968724053,-0.552976462443089,0.15169359163219667,-0.047760960428975735,0.007464877522453567,0.0,0.0,-0.6,0.0,0.004645347595214844,0.008458137512207031,0
1.5207602977752686,-0.012310467660427094,-0.011900076642632484,-0.5642852783203125,-0.0009713357205383943,-0.5528302342442089,0.16105648023300237,-0.06734051463607853,0.006339961243850185,0.0,0.0,-0.6,0.0,0.004639148712158203,0.008557319641113281,0
1.5311453342437744,-0.012310467660427094,-0.011900076642632484,-0.5642852783203125,-0.0009713357205383943,-0.5528302342442089,0.16105648023300237,-0.06734051463607853,0.006339961243850185,0.0,0.0,-0.6,0.0,0.001055002212524414,0.005078315734863281,0
1.5402402877807617,-0.012289587408304214,-0.011525418609380722,-0.5649925470352173,-0.0007767461197316652,-0.551955562466016,0.17227277528701876,-0.08704085548025343,0.005131320051365143,0.0,0.0,-0.6,0.0,0.00440526008605957,0.008418798446655273,0
1.5500469207763672,-0.012289587408304214,-0.011525418609380722,-0.5649925470352173,-0.0007767461197316652,-0.551955562466016,0.17227277528701876,-0.08704085548025343,0.005131320051365143,0.0,0.0,-0.6,0.0,0.001102447509765625,0.0050754547119140625,0
1.5600361824035645,-0.012284011580049992,-0.011353779584169388,-0.5653815865516663,-0.0006734431789141624,-0.5517781577356311,0.16502662401029874,-0.10150246585722628,0.004492895901481246,0.0,0.0,-0.6,0.0,0.004517793655395508,0.008455276489257812,0
1.5698068141937256,-0.012284011580049992,-0.011353779584169388,-0.5653815865516663,-0.0006734431789141624,-0.5517781577356311,0.16502662401029874,-0.10150246585722628,0.004492895901481246,0.0,0.0,-0.6,0.0,0.0011143684387207031,0.0052568912506103516,0
1.5798020362854004,-0.012293352745473385,-0.010856932029128075,-0.566534161567688,-0.0006190556969758779,-0.5509327517966666,0.1478647611384192,-0.13518985011461945,0.0041862581974288,0.0,0.0,-0.6,0.0,0.004675149917602539,0.008739948272705078,0
1.5898187160491943,-0.012293352745473385,-0.010856932029128075,-0.566534161567688,-0.0006190556969758779,-0.5509327517966666,0.1478647611384192,-0.13518985011461945,0.0041862581974288,0.0,0.0,-0.6,0.0,0.0010759830474853516,0.004957914352416992,0
1.6000664234161377,-0.012318776920437813,-0.010615884326398373,-0.5673742294311523,-0.0005542763477401798,-0.5504838554649457,0.13774334306734598,-0.14935925328910035,0.0037794240754130794,0.0,0.0,-0.6,0.0,0.004654645919799805,0.008617401123046875,0
1.6101131439208984,-0.012318776920437813,-0.010615884326398373,-0.5673742294311523,-0.0005542763477401798,-0.5504838554649457,0.13774334306734598,-0.14935925328910035,0.0037794240754130794,0.0,0.0,-0.6,0.0,0.001093149185180664,0.005126953125,0
1.6197853088378906,-0.012414226308465004,-0.010445508174598217,-0.5682023167610168,-0.0004420636386879093,-0.5504084092050009,0.13271641471061862,-0.16230383705053888,0.0030570445609532514,0.0,0.0,-0.6,0.0,0.004464864730834961,0.00842738151550293,0
1.629631757736206,-0.012414226308465004,-0.010445508174598217,-0.5682023167610168,-0.0004420636386879093,-0.5504084092050009,0.13271641471061862,-0.16230383705053888,0.0030570445609532514,0.0,0.0,-0.6,0.0,0.0010821819305419922,0.00506591796875,0
1.6400268077850342,-0.012617912143468857,-0.010349052958190441,-0.5690059065818787,-0.0004285315446294092,-0.5510214330834012,0.1307906964672279,-0.15443544415848928,0.0029421409406312294,0.0,0.0,-0.6,0.0,0.004457712173461914,0.008260250091552734,0
1.649583101272583,-0.012617912143468857,-0.010349052958190441,-0.5690059065818787,-0.0004285315446294092,-0.5510214330834012,0.1307906964672279,-0.15443544415848928,0.0029421409406312294,0.0,0.0,-0.6,0.0,0.0011363029479980469,0.005181074142456055,0
1.6601037979125977,-0.012736610136926174,-0.010315493680536747,-0.5693797469139099,-0.0004343518542327951,-0.5510323067931971,0.13463606264479022,-0.13991694877616528,0.002962340622339477,0.0,0.0,-0.6,0.0,0.004826068878173828,0.008837699890136719,0
1.6703414916992188,-0.012736610136926174,-0.010315493680536747,-0.5693797469139099,-0.0004343518542327951,-0.5510323067931971,0.13463606264479022,-0.13991694877616528,0.002962340622339477,0.0,0.0,-0.6,0.0,0.0011281967163085938,0.00532078742980957,0
1.679673194885254,-0.012956355698406696,-0.010298075154423714,-0.5700933933258057,-0.0004084876004076503,-0.5513361811052845,0.14080182331290467,-0.09155534435537163,0.002767730802281393,0.0,0.0,-0.6,0.0,0.004644155502319336,0.008625030517578125,0
1.6896307468414307,-0.012956355698406696,-0.010298075154423714,-0.5700933933258057,-0.0004084876004076503,-0.5513361811052845,0.14080182331290467,-0.09155534435537163,0.002767730802281393,0.0,0.0,-0.6,0.0,0.0011610984802246094,0.004925727844238281,0
1.6998558044433594,-0.013231937773525715,-0.010401381179690361,-0.5710875391960144,-0.0003599956449549178,-0.5514553604663301,0.15745524526866517,-0.00844453601969636,0.002480953471485099,0.0,0.0,-0.6,0.0,0.005706787109375,0.010362863540649414,0
1.7128829956054688,-0.013231937773525715,-0.010401381179690361,-0.5710875391960144,-0.0003599956449549178,-0.5514553604663301,0.15745524526866517,-0.00844453601969636,0.002480953471485099,0.0,0.0,-0.6,0.0,0.0011336803436279297,0.005417585372924805,0
1.7201125621795654,-0.01344442181289196,-0.010518287308514118,-0.5716965794563293,-0.00032820034926132484,-0.5516715738483646,0.15297272152266558,0.05056511298023784,0.0023093343297954884,0.0,0.0,-0.6,0.0,0.004523754119873047,0.008382320404052734,0
1.7304039001464844,-0.01344442181289196,-0.010518287308514118,-0.5716965794563293,-0.00032820034926132484,-0.5516715738483646,0.15297272152266558,0.05056511298023784,0.0023093343297954884,0.0,0.0,-0.6,0.0,0.0011057853698730469,0.005191326141357422,0
1.7406466007232666,-0.013660372234880924,-0.010637368075549603,-0.5722045302391052,-0.0002525525559773789,-0.5523942901879189,0.14348346177655208,0.10921812461249626,0.0018646058597985046,0.0,0.0,-0.6,0.0,0.004675626754760742,0.008620500564575195,0
1.750589370727539,-0.013660372234880924,-0.010637368075549603,-0.5722045302391052,-0.0002525525559773789,-0.5523942901879189,0.14348346177655208,0.10921812461249626,0.0018646058597985046,0.0,0.0,-0.6,0.0,0.0011131763458251953,0.005155801773071289,0
1.760141372680664,-0.013856872916221619,-0.010768821462988853,-0.572570264339447,-0.00029810276040746867,-0.5534127714291398,0.13097998173438144,0.15463698515758162,0.0021956800801550508,0.0,0.0,-0.6,0.0,0.0046083927154541016,0.008526325225830078,0
1.769984245300293,-0.013856872916221619,-0.010768821462988853,-0.572570264339447,-0.00029810276040746867,-0.5534127714291398,0.13097998173438144,0.15463698515758162,0.0021956800801550508,0.0,0.0,-0.6,0.0,0.0010836124420166016,0.004945039749145508,0
1.780601978302002,-0.014032416976988316,-0.010928306728601456,-0.5728239417076111,-0.0002629658539891308,-0.553983101103871,0.10800663802097278,0.1908947455908321,0.001992035879762395,0.0,0.0,-0.6,0.0,0.004647731781005859,0.008669614791870117,0
1.7906334400177002,-0.014032416976988316,-0.010928306728601456,-0.5728239417076111,-0.0002629658539891308,-0.553983101103871,0.10800663802097278,0.1908947455908321,0.001992035879762395,0.0,0.0,-0.6,0.0,0.0010828971862792969,0.0048367977142333984,0
1.7999036312103271,-0.01415917370468378,-0.011125477962195873,-0.5730245113372803,-0.00026010952396297475,-0.5537453869714627,0.08428997932250293,0.20936905520070667,0.001986339312878033,0.0,0.0,-0.6,0.0,0.004593372344970703,0.008591175079345703,0
1.809755563735962,-0.01415917370468378,-0.011125477962195873,-0.5730245113372803,-0.00026010952396297475,-0.5537453869714627,0.08428997932250293,0.20936905520070667,0.001986339312878033,0.0,0.0,-0.6,0.0,0.0010955333709716797,0.004937648773193359,0
1.819993495941162,-0.014265131205320358,-0.011374985799193382,-0.573277473449707,-0.0001997703811843186,-0.5529511147291136,0.056866719125610546,0.20789221387458176,0.0015852969641938575,0.0,0.0,-0.6,0.0,0.0044934749603271484,0.008593559265136719,0
1.8299026489257812,-0.014265131205320358,-0.011374985799193382,-0.573277473449707,-0.0001997703811843186,-0.5529511147291136,0.056866719125610546,0.20789221387458176,0.0015852969641938575,0.0,0.0,-0.6,0.0,0.0010373592376708984,0.0051882266998291016,0
1.8398723602294922,-0.014373867772519588,-0.011629273183643818,-0.5735711455345154,-0.00015887985559027957,-0.5525047457683121,0.017696210906984994,0.1721297207154266,0.0012478934698978935,0.0,0.0,-0.6,0.0,0.0044231414794921875,0.008521318435668945,0
1.849684715270996,-0.014373867772519588,-0.011629273183643818,-0.5735711455345154,-0.00015887985559027957,-0.5525047457683121,0.017696210906984994,0.1721297207154266,0.0012478934698978935,0.0,0.0,-0.6,0.0,0.0011034011840820312,0.004828453063964844,0
1.8600947856903076,-0.014522630721330643,-0.011867988854646683,-0.5738855600357056,2.8654710952457325e-07,-0.5513793348521799,-0.020999692771387163,0.12806572406765732,0.00013583630878590225,0.0,0.0,-0.6,0.0,0.00462794303894043,0.00850057601928711,0
1.8699300289154053,-0.014522630721330643,-0.011867988854646683,-0.5738855600357056,2.8654710952457325e-07,-0.5513793348521799,-0.020999692771387163,0.12806572406765732,0.00013583630878590225,0.0,0.0,-0.6,0.0,0.0010693073272705078,0.0049326419830322266,0
1.8806571960449219,-0.014670907519757748,-0.012068862095475197,-0.5742824673652649,0.00021891580847065942,-0.5506382760876531,-0.06801580318883935,0.0925644997026497,-0.0013553918561531604,0.0,0.0,-0.6,0.0,0.004739046096801758,0.008789539337158203,0
1.8908703327178955,-0.014670907519757748,-0.012068862095475197,-0.5742824673652649,0.00021891580847065942,-0.5506382760876531,-0.06801580318883935,0.0925644997026497,-0.0013553918561531604,0.0,0.0,-0.6,0.0,0.0011224746704101562,0.005455493927001953,0
1.8995511531829834,-0.014727091416716576,-0.012142829596996307,-0.5745017528533936,0.0002673717035835601,-0.5503887902658693,-0.09356066714728081,0.07913281699151992,-0.0017036285210572549,0.0,0.0,-0.6,0.0,0.004580974578857422,0.008397340774536133,0
1.9099786281585693,-0.014810465276241302,-0.01225217990577221,-0.5749799013137817,0.00039591278157947096,-0.5499293248357799,-0.13619419625376683,0.0486960210736259,-0.0025908113792714542,0.0,0.0,-0.6,0.0,0.004504680633544922,0.008607149124145508,0
1.9200053215026855,-0.014810465276241302,-0.01225217990577221,-0.5749799013137817,0.00039591278157947096,-0.5499293248357799,-0.13619419625376683,0.0486960210736259,-0.0025908113792714542,0.0,0.0,-0.6,0.0,0.0010907649993896484,0.004998922348022461,0
1.9296436309814453,-0.014857138507068157,-0.012323613278567791,-0.5754772424697876,0.0005132568415702655,-0.5496422948703925,-0.1699971685843521,0.027830140049857344,-0.003375036246098399,0.0,0.0,-0.6,0.0,0.0046498775482177734,0.008778810501098633,0
1.9397799968719482,-0.014857138507068157,-0.012323613278567791,-0.5754772424697876,0.0005132568415702655,-0.5496422948703925,-0.1699971685843521,0.027830140049857344,-0.003375036246098399,0.0,0.0,-0.6,0.0,0.0010769367218017578,0.004876136779785156,0
1.949610710144043,-0.014891224913299084,-0.012413306161761284,-0.57603919506073,0.0007362870344016384,-0.548443106712586,-0.17226275205405667,-0.01429695382444934,-0.004854487170383674,0.0,0.0,-0.6,0.0,0.004345893859863281,0.008382081985473633,0
1.9613733291625977,-0.014913368038833141,-0.012469585053622723,-0.5763543248176575,0.0008895824079042488,-0.548061983239575,-0.1712541815861681,-0.0306735108573592,-0.005853024103356123,0.0,0.0,-0.6,0.0,0.004676342010498047,0.008665084838867188,0
1.971919059753418,-0.014913368038833141,-0.012469585053622723,-0.5763543248176575,0.0008895824079042488,-0.548061983239575,-0.1712541815861681,-0.0306735108573592,-0.005853024103356123,0.0,0.0,-0.6,0.0,0.0010540485382080078,0.004918336868286133,0
1.9796538352966309,-0.014979958534240723,-0.01258394867181778,-0.5770039558410645,0.0012612693373248581,-0.5482436474266715,-0.15872409113589328,-0.06408992953026565,-0.008264303986008964,0.0,0.0,-0.6,0.0,0.0035789012908935547,0.007673025131225586,0
1.99045991897583,-0.015020511113107204,-0.012634080834686756,-0.5773118734359741,0.0013879817902831839,-0.5484107492134602,-0.14744584273344233,-0.07694769069364447,-0.009081740153682646,0.0,0.0,-0.6,0.0,0.003603219985961914,0.007606029510498047,0
2.000680923461914,-0.015056109987199306,-0.012680371291935444,-0.5776189565658569,0.0014573387183558217,-0.5484961443748007,-0.1382876190310722,-0.08644968795945991,-0.00952577788838731,0.0,0.0,-0.6,0.0,0.003576993942260742,0.007602214813232422,0
2.009648084640503,-0.015056109987199306,-0.012680371291935444,-0.5776189565658569,0.0014573387183558217,-0.5484961443748007,-0.1382876190310722,-0.08644968795945991,-0.00952577788838731,0.0,0.0,-0.6,0.0,0.00113677978515625,0.005016326904296875,0
2.0195939540863037,-0.015100711025297642,-0.012730058282613754,-0.5782263278961182,0.0016819951923509545,-0.5488133115550321,-0.12680484610149087,-0.09942505166645499,-0.010956238291699536,0.0,0.0,-0.6,0.0,0.004651784896850586,0.008550167083740234,0
2.029566526412964,-0.015100711025297642,-0.012730058282613754,-0.5782263278961182,0.0016819951923509545,-0.5488133115550321,-0.12680484610149087,-0.09942505166645499,-0.010956238291699536,0.0,0.0,-0.6,0.0,0.0011959075927734375,0.005032777786254883,0
2.0396158695220947,-0.015123261138796806,-0.012714252807199955,-0.5787506103515625,0.0019020000616591496,-0.5500538920091749,-0.11779427547427622,-0.11566601881646961,-0.012364631344198667,0.0,0.0,-0.6,0.0,0.0045413970947265625,0.008451461791992188,0
2.050959348678589,-0.015142615884542465,-0.012685070745646954,-0.578959047794342,0.0020438742189046546,-0.550822494224276,-0.11426249717976429,-0.12535254976253737,-0.013274034107265388,0.0,0.0,-0.6,0.0,0.004440784454345703,0.008684635162353516,0
2.061967611312866,-0.015142615884542465,-0.012685070745646954,-0.578959047794342,0.0020438742189046546,-0.550822494224276,-0.11426249717976429,-0.12535254976253737,-0.013274034107265388,0.0,0.0,-0.6,0.0,0.0010905265808105469,0.0052106380462646484,0
2.0702638626098633,-0.015194926410913467,-0.012586579658091068,-0.5792953372001648,0.002417342159295653,-0.5517455364821247,-0.11042395108755287,-0.13500771738775524,-0.015653150377312058,0.0,0.0,-0.6,0.0,0.004391193389892578,0.008432626724243164,0
2.080075740814209,-0.015194926410913467,-0.012586579658091068,-0.5792953372001648,0.002417342159295653,-0.5517455364821247,-0.11042395108755287,-0.13500771738775524,-0.015653150377312058,0.0,0.0,-0.6,0.0,0.0010883808135986328,0.004872322082519531,0
2.0902011394500732,-0.015274162404239178,-0.012412820011377335,-0.5795270800590515,0.0027984493653962555,-0.5523395547748958,-0.11092164817589402,-0.14180909991249258,-0.018081690217531372,0.0,0.0,-0.6,0.0,0.004639625549316406,0.008546113967895508,0
2.10013484954834,-0.015274162404239178,-0.012412820011377335,-0.5795270800590515,0.0027984493653962555,-0.5523395547748958,-0.11092164817589402,-0.14180909991249258,-0.018081690217531372,0.0,0.0,-0.6,0.0,0.0010676383972167969,0.0048291683197021484,0
2.1096324920654297,-0.015382125973701477,-0.012147241272032261,-0.5796931385993958,0.0029883491377798274,-0.5524439753374822,-0.1151300330420625,-0.12685991125659665,-0.019276728237267286,0.0,0.0,-0.6,0.0,0.004704713821411133,0.00857996940612793,0
2.119569778442383,-0.015382125973701477,-0.012147241272032261,-0.5796931385993958,0.0029883491377798274,-0.5524439753374822,-0.1151300330420625,-0.12685991125659665,-0.019276728237267286,0.0,0.0,-0.6,0.0,0.001089334487915039,0.004794120788574219,0
2.1295278072357178,-0.015444714576005936,-0.011788569390773773,-0.5798026919364929,0.0031644101011258606,-0.5528239192861906,-0.119357085514568,-0.08846799303974867,-0.02038051402983346,0.0,0.0,-0.6,0.0,0.0045871734619140625,0.008319854736328125,0
2.140601396560669,-0.015442796051502228,-0.011584042571485043,-0.5798283219337463,0.0032180049005334885,-0.552928233553572,-0.11201709217947041,-0.060183325547711504,-0.020705917236606548,0.0,0.0,-0.6,0.0,0.0048885345458984375,0.00901174545288086,0
2.1509037017822266,-0.015442796051502228,-0.011584042571485043,-0.5798283219337463,0.0032180049005334885,-0.552928233553572,-0.11201709217947041,-0.060183325547711504,-0.020705917236606548,0.0,0.0,-0.6,0.0,0.001115560531616211,0.00490260124206543,0
2.160036325454712,-0.015405992977321148,-0.011202958412468433,-0.5798326134681702,0.003387088482447066,-0.5530073273840556,-0.07996916839765757,-0.024104335035898792,-0.02174903173153793,0.0,0.0,-0.6,0.0,0.004677534103393555,0.008554220199584961,0
2.1699957847595215,-0.015405992977321148,-0.011202958412468433,-0.5798326134681702,0.003387088482447066,-0.5530073273840556,-0.07996916839765757,-0.024104335035898792,-0.02174903173153793,0.0,0.0,-0.6,0.0,0.0010676383972167969,0.0052030086517333984,0
2.179680347442627,-0.015427912585437298,-0.010893180035054684,-0.579852819442749,0.0037578376495693328,-0.5533830600999488,-0.05450369032938667,-0.010868089786418025,-0.024090332775000164,0.0,0.0,-0.6,0.0,0.004931211471557617,0.00929117202758789,0
2.190495729446411,-0.015427912585437298,-0.010893180035054684,-0.579852819442749,0.0037578376495693328,-0.5533830600999488,-0.05450369032938667,-0.010868089786418025,-0.024090332775000164,0.0,0.0,-0.6,0.0,0.0010714530944824219,0.005244255065917969,0
2.1999566555023193,-0.015552501194179058,-0.010646885260939598,-0.5798254013061523,0.004114936757546386,-0.5540539573366212,-0.029356974417659106,0.002271798947733121,-0.026335039949909496,0.0,0.0,-0.6,0.0,0.004547119140625,0.008580923080444336,0
2.209890365600586,-0.015552501194179058,-0.010646885260939598,-0.5798254013061523,0.004114936757546386,-0.5540539573366212,-0.029356974417659106,0.002271798947733121,-0.026335039949909496,0.0,0.0,-0.6,0.0,0.0011162757873535156,0.005038022994995117,0
2.2196061611175537,-0.015726901590824127,-0.010419744066894054,-0.5797058343887329,0.004364743649706119,-0.5545223689432539,-0.0004980262611473755,0.016604301410407186,-0.027882759707179083,0.0,0.0,-0.6,0.0,0.004984855651855469,0.008972406387329102,0
2.230158805847168,-0.015726901590824127,-0.010419744066894054,-0.5797058343887329,0.004364743649706119,-0.5545223689432539,-0.0004980262611473755,0.016604301410407186,-0.027882759707179083,0.0,0.0,-0.6,0.0,0.0011451244354248047,0.005147457122802734,0
2.2395572662353516,-0.015885742381215096,-0.010206719860434532,-0.579512357711792,0.004610677891265338,-0.5551436809825968,0.03222039561871551,0.039974321109827585,-0.029397254673485067,0.0,0.0,-0.6,0.0,0.00461268424987793,0.008623600006103516,0
2.24955677986145,-0.015885742381215096,-0.010206719860434532,-0.579512357711792,0.004610677891265338,-0.5551436809825968,0.03222039561871551,0.039974321109827585,-0.029397254673485067,0.0,0.0,-0.6,0.0,0.0011470317840576172,0.004830837249755859,0
2.2608096599578857,-0.015980174764990807,-0.01004358846694231,-0.5792996287345886,0.004772933769097395,-0.5550015479476085,0.07054341177279785,0.06262851854707545,-0.030367714720505107,0.0,0.0,-0.6,0.0,0.004611968994140625,0.00849151611328125,0
2.2706964015960693,-0.015980174764990807,-0.01004358846694231,-0.5792996287345886,0.004772933769097395,-0.5550015479476085,0.07054341177279785,0.06262851854707545,-0.030367714720505107,0.0,0.0,-0.6,0.0,0.0010614395141601562,0.005136728286743164,0
2.2801592350006104,-0.016046909615397453,-0.009934836067259312,-0.5791046619415283,0.005056652424228838,-0.5552422412871463,0.0954896291906265,0.08425921885829732,-0.032138724848426926,0.0,0.0,-0.6,0.0,0.004531383514404297,0.008725643157958984,0
2.2901580333709717,-0.016046909615397453,-0.009934836067259312,-0.5791046619415283,0.005056652424228838,-0.5552422412871463,0.0954896291906265,0.08425921885829732,-0.032138724848426926,0.0,0.0,-0.6,0.0,0.0010883808135986328,0.005106449127197266,0
2.29984188079834,-0.01614486053586006,-0.009864152409136295,-0.5788755416870117,0.005312687393666776,-0.5557856438616803,0.11630324004833055,0.09106339545390296,-0.03374237514789678,0.0,0.0,-0.6,0.0,0.004595279693603516,0.008541345596313477,0
2.3096442222595215,-0.01614486053586006,-0.009864152409136295,-0.5788755416870117,0.005312687393666776,-0.5557856438616803,0.11630324004833055,0.09106339545390296,-0.03374237514789678,0.0,0.0,-0.6,0.0,0.001157999038696289,0.004935026168823242,0
2.319847345352173,-0.016275251284241676,-0.009826929308474064,-0.5785696506500244,0.005446166176346112,-0.555940318024541,0.13555510667560175,0.102620890530489,-0.034576290905395955,0.0,0.0,-0.6,0.0,0.004616260528564453,0.00863957405090332,0
2.329799175262451,-0.016275251284241676,-0.009826929308474064,-0.5785696506500244,0.005446166176346112,-0.555940318024541,0.13555510667560175,0.102620890530489,-0.034576290905395955,0.0,0.0,-0.6,0.0,0.0010907649993896484,0.004736423492431641,0
2.3397138118743896,-0.016391148790717125,-0.009795679710805416,-0.5782312154769897,0.0055365390419528275,-0.5559521288766945,0.14379234114422632,0.11913754351746814,-0.03515879930615603,0.0,0.0,-0.6,0.0,0.004676103591918945,0.00873565673828125,0
2.3497328758239746,-0.016391148790717125,-0.009795679710805416,-0.5782312154769897,0.0055365390419528275,-0.5559521288766945,0.14379234114422632,0.11913754351746814,-0.03515879930615603,0.0,0.0,-0.6,0.0,0.001107931137084961,0.004848957061767578,0
2.3600142002105713,-0.016448242589831352,-0.009769528172910213,-0.5778507590293884,0.005428430475829475,-0.556260353803642,0.1426201749139649,0.13989074449999575,-0.03448558799626454,0.0,0.0,-0.6,0.0,0.004591226577758789,0.008542060852050781,0
2.3701930046081543,-0.016448242589831352,-0.009769528172910213,-0.5778507590293884,0.005428430475829475,-0.556260353803642,0.1426201749139649,0.13989074449999575,-0.03448558799626454,0.0,0.0,-0.6,0.0,0.0010912418365478516,0.00488734245300293,0
2.3795530796051025,-0.016440153121948242,-0.009761865250766277,-0.5774373412132263,0.005483063082200676,-0.5561957808581562,0.14062029489840236,0.1680599165161746,-0.03484695397164448,0.0,0.0,-0.6,0.0,0.004624128341674805,0.008381128311157227,0
2.3910412788391113,-0.016428329050540924,-0.009776300750672817,-0.5772141218185425,0.005521051516222666,-0.5565075804964005,0.14332185659181068,0.17175985296964624,-0.035084850562143305,0.0,0.0,-0.6,0.0,0.004690647125244141,0.00842595100402832,0
2.400712251663208,-0.016428329050540924,-0.009776300750672817,-0.5772141218185425,0.005521051516222666,-0.5565075804964005,0.14332185659181068,0.17175985296964624,-0.035084850562143305,0.0,0.0,-0.6,0.0,0.0011818408966064453,0.005032539367675781,0
2.4103572368621826,-0.016422586515545845,-0.00985273439437151,-0.5767608284950256,0.005580447175755184,-0.5565367374993345,0.14220268777844708,0.17195969098719313,-0.03546558247378496,0.0,0.0,-0.6,0.0,0.004706144332885742,0.00858306884765625,0
2.4202675819396973,-0.016422586515545845,-0.00985273439437151,-0.5767608284950256,0.005580447175755184,-0.5565367374993345,0.14220268777844708,0.17195969098719313,-0.03546558247378496,0.0,0.0,-0.6,0.0,0.001131296157836914,0.004832267761230469,0
2.4302189350128174,-0.01641720160841942,-0.009953631088137627,-0.576278030872345,0.005669809152478952,-0.5568721600318233,0.1290912186979699,0.16625970480097724,-0.03605614947839683,0.0,0.0,-0.6,0.0,0.004624605178833008,0.008540868759155273,0
2.4399936199188232,-0.01641720160841942,-0.009953631088137627,-0.576278030872345,0.005669809152478952,-0.5568721600318233,0.1290912186979699,0.16625970480097724,-0.03605614947839683,0.0,0.0,-0.6,0.0,0.0011086463928222656,0.004739046096801758,0
2.4500794410705566,-0.016377011314034462,-0.010064349509775639,-0.5757411122322083,0.005721985718596135,-0.5576614394720525,0.11051622967798247,0.15492551863898527,-0.036418796623681984,0.0,0.0,-0.6,0.0,0.004688262939453125,0.00851583480834961,0
2.460479736328125,-0.016377011314034462,-0.010064349509775639,-0.5757411122322083,0.005721985718596135,-0.5576614394720525,0.11051622967798247,0.15492551863898527,-0.036418796623681984,0.0,0.0,-0.6,0.0,0.0010602474212646484,0.0048694610595703125,0
2.4701671600341797,-0.016222525388002396,-0.010210562497377396,-0.5751404166221619,0.005623483170732915,-0.5580092330949052,0.10330134709306552,0.13882862655866526,-0.035808206090778436,0.0,0.0,-0.6,0.0,0.004705667495727539,0.008813142776489258,0
2.48036789894104,-0.016222525388002396,-0.010210562497377396,-0.5751404166221619,0.005623483170732915,-0.5580092330949052,0.10330134709306552,0.13882862655866526,-0.035808206090778436,0.0,0.0,-0.6,0.0,0.00112152099609375,0.005317211151123047,0
2.489567279815674,-0.015975546091794968,-0.010440734215080738,-0.5745862126350403,0.005601887419594253,-0.557252911054031,0.10157138858773918,0.10004962673695375,-0.03570254176513754,0.0,0.0,-0.6,0.0,0.004933834075927734,0.008974313735961914,0
2.5000226497650146,-0.015975546091794968,-0.010440734215080738,-0.5745862126350403,0.005601887419594253,-0.557252911054031,0.10157138858773918,0.10004962673695375,-0.03570254176513754,0.0,0.0,-0.6,0.0,0.0011816024780273438,0.005631923675537109,0
2.509556531906128,-0.01572941057384014,-0.010731774382293224,-0.5740853548049927,0.005518819716577382,-0.557395993647332,0.08870360062534946,0.02966604098105061,-0.035239291727347966,0.0,0.0,-0.6,0.0,0.004739999771118164,0.008666276931762695,0
2.519888401031494,-0.01572941057384014,-0.010731774382293224,-0.5740853548049927,0.005518819716577382,-0.557395993647332,0.08870360062534946,0.02966604098105061,-0.035239291727347966,0.0,0.0,-0.6,0.0,0.0011234283447265625,0.005156040191650391,0
2.5295348167419434,-0.015520049259066582,-0.011036145500838757,-0.5735799670219421,0.0055214441219511735,-0.5578232910019271,0.053885307894931074,-0.026909145208068773,-0.035334607798128526,0.0,0.0,-0.6,0.0,0.004670381546020508,0.008645057678222656,0
2.539752721786499,-0.015520049259066582,-0.011036145500838757,-0.5735799670219421,0.0055214441219511735,-0.5578232910019271,0.053885307894931074,-0.026909145208068773,-0.035334607798128526,0.0,0.0,-0.6,0.0,0.0011703968048095703,0.005193233489990234,0
2.549647569656372,-0.015243111178278923,-0.011325323022902012,-0.5730740427970886,0.00560433025034833,-0.5575968654201191,0.026470429511188692,-0.05990550601560632,-0.03592019957785812,0.0,0.0,-0.6,0.0,0.0048220157623291016,0.009153127670288086,0
2.5608468055725098,-0.015243111178278923,-0.011325323022902012,-0.5730740427970886,0.00560433025034833,-0.5575968654201191,0.026470429511188692,-0.05990550601560632,-0.03592019957785812,0.0,0.0,-0.6,0.0,0.001218557357788086,0.005342721939086914,0
2.5695717334747314,-0.014908441342413425,-0.011661766096949577,-0.5726955533027649,0.00557837682378475,-0.5559689123172775,0.013324461508550114,-0.0951230047257378,-0.0358062812678633,0.0,0.0,-0.6,0.0,0.0047130584716796875,0.008629083633422852,0
2.5796825885772705,-0.014908441342413425,-0.011661766096949577,-0.5726955533027649,0.00557837682378475,-0.5559689123172775,0.013324461508550114,-0.0951230047257378,-0.0358062812678633,0.0,0.0,-0.6,0.0,0.0010857582092285156,0.004966020584106445,0
2.5895636081695557,-0.014620124362409115,-0.012022026814520359,-0.5725152492523193,0.005510857735804104,-0.5549409111726828,-0.014279663658538631,-0.14568292510617314,-0.035434487247858366,0.0,0.0,-0.6,0.0,0.004729509353637695,0.008625268936157227,0
2.599639415740967,-0.014620124362409115,-0.012022026814520359,-0.5725152492523193,0.005510857735804104,-0.5549409111726828,-0.014279663658538631,-0.14568292510617314,-0.035434487247858366,0.0,0.0,-0.6,0.0,0.0011272430419921875,0.005202054977416992,0
2.6095736026763916,-0.014405176043510437,-0.012290160171687603,-0.5723901391029358,0.005366626112714717,-0.5548294526562355,-0.05275246748315507,-0.168947623229421,-0.03453875201162357,0.0,0.0,-0.6,0.0,0.004676103591918945,0.008340835571289062,0
2.6208198070526123,-0.014273354783654213,-0.012396154925227165,-0.5723468661308289,0.005281418686095068,-0.5544249976725104,-0.06179361682599993,-0.1630424497111667,-0.0339882931723289,0.0,0.0,-0.6,0.0,0.0048675537109375,0.008746623992919922,0
2.6309781074523926,-0.014273354783654213,-0.012396154925227165,-0.5723468661308289,0.005281418686095068,-0.5544249976725104,-0.06179361682599993,-0.1630424497111667,-0.0339882931723289,0.0,0.0,-0.6,0.0,0.0010907649993896484,0.005038022994995117,0
2.639591932296753,-0.013963976874947548,-0.012629070319235325,-0.5723556280136108,0.005143165426991257,-0.5534167449367166,-0.05789920097522181,-0.17333001030523587,-0.033120708773167945,0.0,0.0,-0.6,0.0,0.004500389099121094,0.008430004119873047,0
2.6514625549316406,-0.013823028653860092,-0.01275018323212862,-0.5723850131034851,0.005044884028873898,-0.5532948904765638,-0.05200426173889006,-0.17695710781387786,-0.03249794771915484,0.0,0.0,-0.6,0.0,0.004700183868408203,0.008791685104370117,0
2.662226438522339,-0.013823028653860092,-0.01275018323212862,-0.5723850131034851,0.005044884028873898,-0.5532948904765638,-0.05200426173889006,-0.17695710781387786,-0.03249794771915484,0.0,0.0,-0.6,0.0,0.0010640621185302734,0.0047566890716552734,0
2.6708180904388428,-0.013601340353488922,-0.01299465075135231,-0.5724640488624573,0.0048993146447155475,-0.5536239304560019,-0.044670950387905965,-0.19280526965640535,-0.03158408604785134,0.0,0.0,-0.6,0.0,0.0047037601470947266,0.008452653884887695,0
2.6805903911590576,-0.013601340353488922,-0.01299465075135231,-0.5724640488624573,0.0048993146447155475,-0.5536239304560019,-0.044670950387905965,-0.19280526965640535,-0.03158408604785134,0.0,0.0,-0.6,0.0,0.0010693073272705078,0.004956960678100586,0
2.6896493434906006,-0.01343545038253069,-0.013187873177230358,-0.5725005865097046,0.0046685747443338645,-0.5534448225915362,-0.05298336414166507,-0.17601842529014644,-0.0300879855899118,0.0,0.0,-0.6,0.0,0.0046770572662353516,0.0087127685546875,0
2.6998066902160645,-0.01343545038253069,-0.013187873177230358,-0.5725005865097046,0.0046685747443338645,-0.5534448225915362,-0.05298336414166507,-0.17601842529014644,-0.0300879855899118,0.0,0.0,-0.6,0.0,0.0011682510375976562,0.005079984664916992,0
2.7096621990203857,-0.013258992694318295,-0.013363387435674667,-0.5726048946380615,0.004505425540299857,-0.5520150133661488,-0.025087179469513214,-0.15575911869342302,-0.029004059327094264,0.0,0.0,-0.6,0.0,0.0048067569732666016,0.008877754211425781,0
