time,x,y,z,yaw,throttle,roll_rate,pitch_rate,yaw_rate,x_ref,y_ref,z_ref,yaw_ref,mpc_time,ctrl_callback_time_history,metadata
3.337860107421875e-06,-0.056378595530986786,0.033909521996974945,-0.24109120666980743,0.0193540328087148,-0.635287686466304,-0.3075801213908324,-0.3099237065830795,-0.12409597306209573,0.0,0.0,-0.6,0.0,0.01654815673828125,0.02064347267150879,Hardware
0.02247786521911621,-0.05639895051717758,0.03390482813119888,-0.24110634624958038,0.01935262727493471,-0.6352876864579746,-0.30765080810883366,-0.31187366554997414,-0.12408611034003708,0.0,0.0,-0.6,0.0,0.00727391242980957,0.011014461517333984,2x Speed
0.03561115264892578,-0.05639895051717758,0.03390482813119888,-0.24110634624958038,0.01935262727493471,-0.6352876864579746,-0.30765080810883366,-0.31187366554997414,-0.12408611034003708,0.0,0.0,-0.6,0.0,0.0011036396026611328,0.004634380340576172,Horizon:3.0
0.042121171951293945,-0.056413352489471436,0.03391231223940849,-0.24111723899841309,0.019343743842027673,-0.6352876864888206,-0.31311053153712165,-0.31467651687141657,-0.12403455088123476,0.0,0.0,-0.6,0.0,0.007466554641723633,0.011375188827514648,Num Steps:20
0.0548861026763916,-0.056413352489471436,0.03391231223940849,-0.24111723899841309,0.019343743842027673,-0.6352876864888206,-0.31311053153712165,-0.31467651687141657,-0.12403455088123476,0.0,0.0,-0.6,0.0,0.0010879039764404297,0.004817485809326172,No Pyjoules
0.06199789047241211,-0.05641902610659599,0.033906761556863785,-0.24116301536560059,0.01929799002378775,-0.6352876857619757,-0.3133254308550026,-0.31279889518791426,-0.12373643815585122,0.0,0.0,-0.6,0.0,0.007216930389404297,0.011370182037353516,0
0.07471466064453125,-0.05641902610659599,0.033906761556863785,-0.24116301536560059,0.01929799002378775,-0.6352876857619757,-0.3133254308550026,-0.31279889518791426,-0.12373643815585122,0.0,0.0,-0.6,0.0,0.0011050701141357422,0.004835367202758789,0
0.08196711540222168,-0.056426167488098145,0.0339043028652668,-0.24127209186553955,0.019335474697464144,-0.6352876857886656,-0.3106869442898702,-0.2969564000270324,-0.12397469112052502,0.0,0.0,-0.6,0.0,0.007245540618896484,0.011307716369628906,0
0.09448075294494629,-0.056426167488098145,0.0339043028652668,-0.24127209186553955,0.019335474697464144,-0.6352876857886656,-0.3106869442898702,-0.2969564000270324,-0.12397469112052502,0.0,0.0,-0.6,0.0,0.0011420249938964844,0.004702091217041016,0
0.10166406631469727,-0.0563126876950264,0.03386325761675835,-0.24141548573970795,0.0187186427875122,-0.6352876857731755,-0.2876367908879359,-0.23992456911003124,-0.12000193349837715,0.0,0.0,-0.6,0.0,0.008551359176635742,0.012202024459838867,0
0.1157224178314209,-0.0563126876950264,0.03386325761675835,-0.24141548573970795,0.0187186427875122,-0.6352876857731755,-0.2876367908879359,-0.23992456911003124,-0.12000193349837715,0.0,0.0,-0.6,0.0,0.0010800361633300781,0.00474095344543457,0
0.12236571311950684,-0.05597972124814987,0.03374958038330078,-0.2416953593492508,0.018741403241350305,-0.635287684109521,-0.2485118238906123,-0.18303017931046725,-0.12012177013070116,0.0,0.0,-0.6,0.0,0.008542299270629883,0.012824058532714844,0
0.13709402084350586,-0.05597972124814987,0.03374958038330078,-0.2416953593492508,0.018741403241350305,-0.635287684109521,-0.2485118238906123,-0.18303017931046725,-0.12012177013070116,0.0,0.0,-0.6,0.0,0.0010972023010253906,0.004877567291259766,0
0.1437854766845703,-0.055398259311914444,0.03349274396896362,-0.24218060076236725,0.01911529527354034,-0.6352876602909966,-0.19393584275623696,-0.086566859023582,-0.12246774789494874,0.0,0.0,-0.6,0.0,0.00783395767211914,0.011699914932250977,0
0.1569347381591797,-0.055398259311914444,0.03349274396896362,-0.24218060076236725,0.01911529527354034,-0.6352876602909966,-0.19393584275623696,-0.086566859023582,-0.12246774789494874,0.0,0.0,-0.6,0.0,0.0010738372802734375,0.0047779083251953125,0
0.16434097290039062,-0.054592691361904144,0.032981567084789276,-0.24310776591300964,0.019546858993336986,-0.6352874767547428,-0.12193752605916496,0.042431403818574465,-0.1251768962882549,0.0,0.0,-0.6,0.0,0.008467912673950195,0.012397050857543945,0
0.17811298370361328,-0.054592691361904144,0.032981567084789276,-0.24310776591300964,0.019546858993336986,-0.6352874767547428,-0.12193752605916496,0.042431403818574465,-0.1251768962882549,0.0,0.0,-0.6,0.0,0.0010745525360107422,0.004693746566772461,0
0.18543291091918945,-0.05352938175201416,0.03226105868816376,-0.24471057951450348,0.020003870951666166,-0.6297063380959204,-0.022132291749488837,0.19649743255214802,-0.12802909325193323,0.0,0.0,-0.6,0.0,0.006696224212646484,0.010632991790771484,0
0.1973869800567627,-0.05352938175201416,0.03226105868816376,-0.24471057951450348,0.020003870951666166,-0.6297063380959204,-0.022132291749488837,0.19649743255214802,-0.12802909325193323,0.0,0.0,-0.6,0.0,0.0010881423950195312,0.004637002944946289,0
0.20493292808532715,-0.05222834274172783,0.03128410875797272,-0.24722956120967865,0.020372303852866966,-0.6209816579756245,0.0940986665864886,0.32545184012145056,-0.13030889760096892,0.0,0.0,-0.6,0.0,0.0067179203033447266,0.01035761833190918,0
0.21663308143615723,-0.05222834274172783,0.03128410875797272,-0.24722956120967865,0.020372303852866966,-0.6209816579756245,0.0940986665864886,0.32545184012145056,-0.13030889760096892,0.0,0.0,-0.6,0.0,0.0010750293731689453,0.0045604705810546875,0
0.22351479530334473,-0.050776220858097076,0.03013855218887329,-0.2506714165210724,0.020734265428788833,-0.6121775269513646,0.22055614765753648,0.45828683681958093,-0.1325317336394791,0.0,0.0,-0.6,0.0,0.006518125534057617,0.01020359992980957,0
0.23499393463134766,-0.050776220858097076,0.03013855218887329,-0.2506714165210724,0.020734265428788833,-0.6121775269513646,0.22055614765753648,0.45828683681958093,-0.1325317336394791,0.0,0.0,-0.6,0.0,0.0011157989501953125,0.00530695915222168,0
0.2423250675201416,-0.04907451570034027,0.028772039338946342,-0.2549791932106018,0.021039522591850303,-0.6049583074887237,0.38305220075327634,0.5349308360658241,-0.13419963496929854,0.0,0.0,-0.6,0.0,0.006612062454223633,0.010545969009399414,0
0.2546260356903076,-0.04907451570034027,0.028772039338946342,-0.2549791932106018,0.021039522591850303,-0.6049583074887237,0.38305220075327634,0.5349308360658241,-0.13419963496929854,0.0,0.0,-0.6,0.0,0.0010747909545898438,0.0048406124114990234,0
0.2614758014678955,-0.0472731813788414,0.027204254642128944,-0.2602756917476654,0.021208011675025437,-0.5950924034956169,0.44472316579956733,0.589631760050374,-0.13522479136807916,0.0,0.0,-0.6,0.0,0.005702495574951172,0.009590625762939453,0
0.27291226387023926,-0.0472731813788414,0.027204254642128944,-0.2602756917476654,0.021208011675025437,-0.5950924034956169,0.44472316579956733,0.589631760050374,-0.13522479136807916,0.0,0.0,-0.6,0.0,0.001071929931640625,0.004739999771118164,0
0.2796473503112793,-0.045376431196928024,0.02568677067756653,-0.2664775550365448,0.02103482620158849,-0.588955871736991,0.467803254502716,0.6728564997108875,-0.13418865523157902,0.0,0.0,-0.6,0.0,0.006476640701293945,0.010208606719970703,0
0.2917344570159912,-0.045376431196928024,0.02568677067756653,-0.2664775550365448,0.02103482620158849,-0.588955871736991,0.467803254502716,0.6728564997108875,-0.13418865523157902,0.0,0.0,-0.6,0.0,0.0010633468627929688,0.004651784896850586,0
0.2995445728302002,-0.044461194425821304,0.024971166625618935,-0.2697279453277588,0.020778971451608817,-0.5847839487158614,0.5076207565110255,0.704810093574429,-0.13245852215395695,0.0,0.0,-0.6,0.0,0.007487773895263672,0.011241436004638672,0
0.31205296516418457,-0.044461194425821304,0.024971166625618935,-0.2697279453277588,0.020778971451608817,-0.5847839487158614,0.5076207565110255,0.704810093574429,-0.13245852215395695,0.0,0.0,-0.6,0.0,0.0010597705841064453,0.005066633224487305,0
0.3196101188659668,-0.04163374751806259,0.022607851773500443,-0.2808363735675812,0.019656649338652,-0.5720849419969606,0.5572723329138959,0.6891869005150382,-0.1250896896635493,0.0,0.0,-0.6,0.0,0.006662845611572266,0.010375499725341797,0
0.33137965202331543,-0.04163374751806259,0.022607851773500443,-0.2808363735675812,0.019656649338652,-0.5720849419969606,0.5572723329138959,0.6891869005150382,-0.1250896896635493,0.0,0.0,-0.6,0.0,0.001102447509765625,0.00496363639831543,0
0.33931899070739746,-0.03968644142150879,0.02095392346382141,-0.2890707552433014,0.01857477636863615,-0.564850698372508,0.5409911334782822,0.739546652027854,-0.11831820748545877,0.0,0.0,-0.6,0.0,0.008380889892578125,0.012447357177734375,0
0.35312366485595703,-0.03968644142150879,0.02095392346382141,-0.2890707552433014,0.01857477636863615,-0.564850698372508,0.5409911334782822,0.739546652027854,-0.11831820748545877,0.0,0.0,-0.6,0.0,0.0011720657348632812,0.0050203800201416016,0
0.36036133766174316,-0.03766094148159027,0.019317829981446266,-0.2978213429450989,0.01720661044078372,-0.5579975994273347,0.4815624952446215,0.6614701597102428,-0.10956163883572718,0.0,0.0,-0.6,0.0,0.006587982177734375,0.010184526443481445,0
0.3719360828399658,-0.03766094148159027,0.019317829981446266,-0.2978213429450989,0.01720661044078372,-0.5579975994273347,0.4815624952446215,0.6614701597102428,-0.10956163883572718,0.0,0.0,-0.6,0.0,0.0010554790496826172,0.004779815673828125,0
0.37892985343933105,-0.0356309711933136,0.01783454604446888,-0.3068928122520447,0.015829951972229406,-0.5529649287507205,0.35624514701375853,0.606681293445232,-0.10088850532363551,0.0,0.0,-0.6,0.0,0.00665283203125,0.01043081283569336,0
0.3907320499420166,-0.0356309711933136,0.01783454604446888,-0.3068928122520447,0.015829951972229406,-0.5529649287507205,0.35624514701375853,0.606681293445232,-0.10088850532363551,0.0,0.0,-0.6,0.0,0.0011212825775146484,0.005013227462768555,0
0.40007615089416504,-0.03352361544966698,0.0163267832249403,-0.31630733609199524,0.014480012188436952,-0.5469105465251994,0.29401169733383214,0.6247029730903411,-0.09219203619820558,0.0,0.0,-0.6,0.0,0.006431102752685547,0.010236978530883789,0
0.41184449195861816,-0.03352361544966698,0.0163267832249403,-0.31630733609199524,0.014480012188436952,-0.5469105465251994,0.29401169733383214,0.6247029730903411,-0.09219203619820558,0.0,0.0,-0.6,0.0,0.0011091232299804688,0.0053098201751708984,0
0.4194624423980713,-0.03141431882977486,0.014689401723444462,-0.32598593831062317,0.013130230021458007,-0.5406166360196042,0.2540914321601253,0.5461315423715839,-0.0834366323030925,0.0,0.0,-0.6,0.0,0.0066070556640625,0.010436058044433594,0
0.43128180503845215,-0.03141431882977486,0.014689401723444462,-0.32598593831062317,0.013130230021458007,-0.5406166360196042,0.2540914321601253,0.5461315423715839,-0.0834366323030925,0.0,0.0,-0.6,0.0,0.0011670589447021484,0.0047986507415771484,0
0.43990349769592285,-0.029430042952299118,0.01298515684902668,-0.33593595027923584,0.011920034935924799,-0.5367882487882176,0.18282707991155409,0.41809471332671433,-0.07571788743775863,0.0,0.0,-0.6,0.0,0.0065844058990478516,0.010367631912231445,0
0.45159173011779785,-0.029430042952299118,0.01298515684902668,-0.33593595027923584,0.011920034935924799,-0.5367882487882176,0.18282707991155409,0.41809471332671433,-0.07571788743775863,0.0,0.0,-0.6,0.0,0.0011341571807861328,0.004851818084716797,0
0.4590604305267334,-0.02843097597360611,0.012147437781095505,-0.34089040756225586,0.011407294801397348,-0.5345662438732642,0.15998643768076423,0.38135995786567084,-0.07243597556944817,0.0,0.0,-0.6,0.0,0.00647425651550293,0.010371208190917969,0
0.4713582992553711,-0.026418928056955338,0.010395721532404423,-0.3508360981941223,0.010540972490275111,-0.5320817235414829,0.1144690589417539,0.2495822843780949,-0.0670493638015205,0.0,0.0,-0.6,0.0,0.0065364837646484375,0.010593175888061523,0
0.48323845863342285,-0.026418928056955338,0.010395721532404423,-0.3508360981941223,0.010540972490275111,-0.5320817235414829,0.1144690589417539,0.2495822843780949,-0.0670493638015205,0.0,0.0,-0.6,0.0,0.0011072158813476562,0.004943370819091797,0
0.4903733730316162,-0.024562321603298187,0.008626893162727356,-0.3606925308704376,0.009841038863214805,-0.5304182719859638,0.049960788573788745,0.11342661611110309,-0.06280420154573836,0.0,0.0,-0.6,0.0,0.006532430648803711,0.010302305221557617,0
0.5027120113372803,-0.024562321603298187,0.008626893162727356,-0.3606925308704376,0.009841038863214805,-0.5304182719859638,0.049960788573788745,0.11342661611110309,-0.06280420154573836,0.0,0.0,-0.6,0.0,0.0010759830474853516,0.005014657974243164,0
0.5099732875823975,-0.02277940884232521,0.006962386891245842,-0.37046220898628235,0.009288356483227976,-0.528059503479097,-0.029196682025589588,0.015128707749158848,-0.05939842983161809,0.0,0.0,-0.6,0.0,0.006766557693481445,0.01063084602355957,0
0.5221421718597412,-0.02277940884232521,0.006962386891245842,-0.37046220898628235,0.009288356483227976,-0.528059503479097,-0.029196682025589588,0.015128707749158848,-0.05939842983161809,0.0,0.0,-0.6,0.0,0.0011017322540283203,0.005189657211303711,0
0.5300145149230957,-0.021019713953137398,0.005363304167985916,-0.3801824152469635,0.008800392528205931,-0.5252039566052763,-0.06393475125478724,-0.10258189912560074,-0.05655164069555229,0.0,0.0,-0.6,0.0,0.006367921829223633,0.01048421859741211,0
0.5418188571929932,-0.021019713953137398,0.005363304167985916,-0.3801824152469635,0.008800392528205931,-0.5252039566052763,-0.06393475125478724,-0.10258189912560074,-0.05655164069555229,0.0,0.0,-0.6,0.0,0.001123666763305664,0.00493621826171875,0
0.5492129325866699,-0.01944381184875965,0.003803536295890808,-0.3898126482963562,0.008388208826319,-0.5236210381330915,-0.11399461616943582,-0.2199670856591562,-0.05417820611058307,0.0,0.0,-0.6,0.0,0.006530046463012695,0.010129690170288086,0
0.5608127117156982,-0.01944381184875965,0.003803536295890808,-0.3898126482963562,0.008388208826319,-0.5236210381330915,-0.11399461616943582,-0.2199670856591562,-0.05417820611058307,0.0,0.0,-0.6,0.0,0.0011174678802490234,0.004902839660644531,0
0.5689258575439453,-0.018697138875722885,0.0030695274472236633,-0.3945389688014984,0.008175173981005328,-0.5226572733337713,-0.15048050450204037,-0.24969696552591533,-0.052814232120889655,0.0,0.0,-0.6,0.0,0.005586147308349609,0.009369134902954102,0
0.5802929401397705,-0.017261536791920662,0.0016788566717877984,-0.4038647413253784,0.007608876386955565,-0.5197070189083163,-0.19386614096943322,-0.28243239562356687,-0.04916334441819878,0.0,0.0,-0.6,0.0,0.006505250930786133,0.010169267654418945,0
0.5918564796447754,-0.017261536791920662,0.0016788566717877984,-0.4038647413253784,0.007608876386955565,-0.5197070189083163,-0.19386614096943322,-0.28243239562356687,-0.04916334441819878,0.0,0.0,-0.6,0.0,0.0010609626770019531,0.005089759826660156,0
0.5999369621276855,-0.015973780304193497,0.000340134633006528,-0.41320744156837463,0.006920536777052941,-0.5181666713072788,-0.2416831385677973,-0.33679233978011947,-0.044760476505693404,0.0,0.0,-0.6,0.0,0.006572246551513672,0.010470867156982422,0
0.6116845607757568,-0.015973780304193497,0.000340134633006528,-0.41320744156837463,0.006920536777052941,-0.5181666713072788,-0.2416831385677973,-0.33679233978011947,-0.044760476505693404,0.0,0.0,-0.6,0.0,0.0010807514190673828,0.0047833919525146484,0
0.6187958717346191,-0.014993765391409397,-0.0008071576012298465,-0.4223341643810272,0.006231293083978666,-0.5182378441239309,-0.3111570189751894,-0.40572198443819907,-0.04031021982424744,0.0,0.0,-0.6,0.0,0.00653839111328125,0.010375738143920898,0
0.6305725574493408,-0.014993765391409397,-0.0008071576012298465,-0.4223341643810272,0.006231293083978666,-0.5182378441239309,-0.3111570189751894,-0.40572198443819907,-0.04031021982424744,0.0,0.0,-0.6,0.0,0.0010571479797363281,0.0050661563873291016,0
0.6388700008392334,-0.014253310859203339,-0.0017573643708601594,-0.4311695396900177,0.005449272102101496,-0.5174462835102208,-0.3754284740283947,-0.4683002484333306,-0.035251279434754826,0.0,0.0,-0.6,0.0,0.00657200813293457,0.01048588752746582,0
0.6506197452545166,-0.014253310859203339,-0.0017573643708601594,-0.4311695396900177,0.005449272102101496,-0.5174462835102208,-0.3754284740283947,-0.4683002484333306,-0.035251279434754826,0.0,0.0,-0.6,0.0,0.001094818115234375,0.004948616027832031,0
0.6588776111602783,-0.01367927249521017,-0.0025528010446578264,-0.4398243725299835,0.0046707229354918875,-0.5158750957873067,-0.4013590536106317,-0.5290112364167594,-0.030362089792464516,0.0,0.0,-0.6,0.0,0.006658792495727539,0.010576248168945312,0
0.6707973480224609,-0.01367927249521017,-0.0025528010446578264,-0.4398243725299835,0.0046707229354918875,-0.5158750957873067,-0.4013590536106317,-0.5290112364167594,-0.030362089792464516,0.0,0.0,-0.6,0.0,0.001077890396118164,0.004919290542602539,0
0.6795132160186768,-0.013286592438817024,-0.003302333876490593,-0.4483087360858917,0.0038115163527753858,-0.5157733183116182,-0.4055321939077966,-0.6064429512737407,-0.02510010111703515,0.0,0.0,-0.6,0.0,0.00682830810546875,0.010622024536132812,0
0.691439151763916,-0.013286592438817024,-0.003302333876490593,-0.4483087360858917,0.0038115163527753858,-0.5157733183116182,-0.4055321939077966,-0.6064429512737407,-0.02510010111703515,0.0,0.0,-0.6,0.0,0.0010876655578613281,0.004900932312011719,0
0.700110912322998,-0.012997276149690151,-0.003988111391663551,-0.45647093653678894,0.0029820209423731983,-0.5156563671350185,-0.3667941435327911,-0.6339767246577249,-0.020007243124899335,0.0,0.0,-0.6,0.0,0.006503582000732422,0.010279655456542969,0
0.7116773128509521,-0.012997276149690151,-0.003988111391663551,-0.45647093653678894,0.0029820209423731983,-0.5156563671350185,-0.3667941435327911,-0.6339767246577249,-0.020007243124899335,0.0,0.0,-0.6,0.0,0.0010690689086914062,0.004835844039916992,0
0.7198100090026855,-0.012749752029776573,-0.004677196964621544,-0.4645013213157654,0.002098488456456099,-0.5150319515582146,-0.29875615547380413,-0.6467707762925871,-0.014561052510596289,0.0,0.0,-0.6,0.0,0.0070459842681884766,0.010689496994018555,0
0.7318782806396484,-0.012749752029776573,-0.004677196964621544,-0.4645013213157654,0.002098488456456099,-0.5150319515582146,-0.29875615547380413,-0.6467707762925871,-0.014561052510596289,0.0,0.0,-0.6,0.0,0.0010564327239990234,0.004857301712036133,0
0.7388200759887695,-0.012620029039680958,-0.005326586775481701,-0.47217893600463867,0.001180000814870139,-0.5164257660597062,-0.2583650512099394,-0.5975541035879295,-0.008554603515475372,0.0,0.0,-0.6,0.0,0.0064449310302734375,0.010317087173461914,0
0.7509133815765381,-0.012620029039680958,-0.005326586775481701,-0.47217893600463867,0.001180000814870139,-0.5164257660597062,-0.2583650512099394,-0.5975541035879295,-0.008554603515475372,0.0,0.0,-0.6,0.0,0.001058816909790039,0.0049648284912109375,0
0.7593069076538086,-0.01252823881804943,-0.0059050205163657665,-0.479521781206131,0.0002587925759296991,-0.5150409473031626,-0.20547749067002238,-0.4646202786863323,-0.002350845962987921,0.0,0.0,-0.6,0.0,0.006683826446533203,0.010436058044433594,0
0.7716622352600098,-0.01252823881804943,-0.0059050205163657665,-0.479521781206131,0.0002587925759296991,-0.5150409473031626,-0.20547749067002238,-0.4646202786863323,-0.002350845962987921,0.0,0.0,-0.6,0.0,0.0010957717895507812,0.005053520202636719,0
0.7794241905212402,-0.012458081357181072,-0.0063599226996302605,-0.48655346035957336,-0.0005944958041596864,-0.5172854469396494,-0.15384470889944607,-0.3487924023440065,0.003346283704606952,0.0,0.0,-0.6,0.0,0.005414724349975586,0.009400606155395508,0
0.7900264263153076,-0.012458081357181072,-0.0063599226996302605,-0.48655346035957336,-0.0005944958041596864,-0.5172854469396494,-0.15384470889944607,-0.3487924023440065,0.003346283704606952,0.0,0.0,-0.6,0.0,0.0011026859283447266,0.0049419403076171875,0
0.7994468212127686,-0.012531155720353127,-0.00677375216037035,-0.49309056997299194,-0.0013100516262674732,-0.5200516773980384,-0.06467934341009389,-0.24681807802841807,0.008051268464154899,0.0,0.0,-0.6,0.0,0.005673885345458984,0.009696245193481445,0
0.8104560375213623,-0.012531155720353127,-0.00677375216037035,-0.49309056997299194,-0.0013100516262674732,-0.5200516773980384,-0.06467934341009389,-0.24681807802841807,0.008051268464154899,0.0,0.0,-0.6,0.0,0.001051187515258789,0.005007028579711914,0
0.8188266754150391,-0.01269688829779625,-0.007192833349108696,-0.499213308095932,-0.0020389628513172295,-0.5217776791404277,0.02137950103092987,-0.14592959135852562,0.012877886088165025,0.0,0.0,-0.6,0.0,0.005867958068847656,0.009928703308105469,0
0.830169677734375,-0.01269688829779625,-0.007192833349108696,-0.499213308095932,-0.0020389628513172295,-0.5217776791404277,0.02137950103092987,-0.14592959135852562,0.012877886088165025,0.0,0.0,-0.6,0.0,0.00110626220703125,0.005041599273681641,0
0.8390882015228271,-0.012830576859414577,-0.00755542516708374,-0.5050607919692993,-0.0026019525264163296,-0.5222226746761556,0.08743906317450229,-0.02415681199936505,0.01669356279660156,0.0,0.0,-0.6,0.0,0.0055468082427978516,0.009469985961914062,0
0.8499557971954346,-0.012830576859414577,-0.00755542516708374,-0.5050607919692993,-0.0026019525264163296,-0.5222226746761556,0.08743906317450229,-0.02415681199936505,0.01669356279660156,0.0,0.0,-0.6,0.0,0.0011124610900878906,0.005091667175292969,0
0.858884334564209,-0.012877566739916801,-0.007764413952827454,-0.5106348395347595,-0.002978901260479072,-0.5231573637496378,0.13453659667565013,0.08375719382170127,0.019287156312248133,0.0,0.0,-0.6,0.0,0.005591869354248047,0.009891986846923828,0
0.8701775074005127,-0.012877566739916801,-0.007764413952827454,-0.5106348395347595,-0.002978901260479072,-0.5231573637496378,0.13453659667565013,0.08375719382170127,0.019287156312248133,0.0,0.0,-0.6,0.0,0.0011475086212158203,0.005181074142456055,0
0.8788919448852539,-0.012929941527545452,-0.007853643037378788,-0.5158608555793762,-0.0032293130055285526,-0.5249826209436533,0.17278071132116363,0.17090067851962226,0.021037801933056034,0.0,0.0,-0.6,0.0,0.0054705142974853516,0.00940251350402832,0
0.8895797729492188,-0.012929941527545452,-0.007853643037378788,-0.5158608555793762,-0.0032293130055285526,-0.5249826209436533,0.17278071132116363,0.17090067851962226,0.021037801933056034,0.0,0.0,-0.6,0.0,0.0010886192321777344,0.004778861999511719,0
0.9002060890197754,-0.013076456263661385,-0.007895328104496002,-0.5207191109657288,-0.0033849768328316674,-0.5273345882319825,0.18889520732841855,0.22227632365331548,0.022129679371583135,0.0,0.0,-0.6,0.0,0.005539655685424805,0.009874343872070312,0
0.9115695953369141,-0.013076456263661385,-0.007895328104496002,-0.5207191109657288,-0.0033849768328316674,-0.5273345882319825,0.18889520732841855,0.22227632365331548,0.022129679371583135,0.0,0.0,-0.6,0.0,0.0012080669403076172,0.005376338958740234,0
0.9192798137664795,-0.013302373699843884,-0.00791720300912857,-0.5252572894096375,-0.0035596462177214946,-0.5290803224137773,0.18454186495234054,0.2687004674403838,0.02326916429967967,0.0,0.0,-0.6,0.0,0.005600690841674805,0.009369134902954102,0
0.929889440536499,-0.013302373699843884,-0.00791720300912857,-0.5252572894096375,-0.0035596462177214946,-0.5290803224137773,0.18454186495234054,0.2687004674403838,0.02326916429967967,0.0,0.0,-0.6,0.0,0.0011055469512939453,0.004965543746948242,0
0.9391636848449707,-0.013546900823712349,-0.007947512902319431,-0.5295680165290833,-0.003768247107334252,-0.5298213910833861,0.1721507585665331,0.31156805907815194,0.02458671111485534,0.0,0.0,-0.6,0.0,0.0045664310455322266,0.008541584014892578,0
0.9496595859527588,-0.013546900823712349,-0.007947512902319431,-0.5295680165290833,-0.003768247107334252,-0.5298213910833861,0.1721507585665331,0.31156805907815194,0.02458671111485534,0.0,0.0,-0.6,0.0,0.0011963844299316406,0.005335807800292969,0
0.9591612815856934,-0.01376580074429512,-0.007968932390213013,-0.5336691737174988,-0.003928958766446534,-0.5312864887606839,0.13815857580195892,0.34227676874428353,0.025531497410809127,0.0,0.0,-0.6,0.0,0.005490541458129883,0.009252548217773438,0
0.9697020053863525,-0.01376580074429512,-0.007968932390213013,-0.5336691737174988,-0.003928958766446534,-0.5312864887606839,0.13815857580195892,0.34227676874428353,0.025531497410809127,0.0,0.0,-0.6,0.0,0.0011446475982666016,0.0052716732025146484,0
0.9789705276489258,-0.013959458097815514,-0.007997842505574226,-0.537539541721344,-0.004032780637567765,-0.5320867197682424,0.11590702724350777,0.35730414836359636,0.02616323032325032,0.0,0.0,-0.6,0.0,0.005532979965209961,0.009499788284301758,0
0.9897606372833252,-0.013959458097815514,-0.007997842505574226,-0.537539541721344,-0.004032780637567765,-0.5320867197682424,0.11590702724350777,0.35730414836359636,0.02616323032325032,0.0,0.0,-0.6,0.0,0.0011014938354492188,0.004782676696777344,0
0.9994349479675293,-0.014092210680246353,-0.008040151558816433,-0.541239321231842,-0.004165532040069622,-0.5326786100367207,0.0872069859384217,0.3628268559766491,0.026964036831310885,0.0,0.0,-0.6,0.0,0.005444049835205078,0.009469985961914062,0
1.010422945022583,-0.014092210680246353,-0.008040151558816433,-0.541239321231842,-0.004165532040069622,-0.5326786100367207,0.0872069859384217,0.3628268559766491,0.026964036831310885,0.0,0.0,-0.6,0.0,0.0011925697326660156,0.005471467971801758,0
1.0190885066986084,-0.014137877151370049,-0.008103934116661549,-0.5447548031806946,-0.004233259119783923,-0.5328201837565348,0.06760790230750145,0.3612324945398217,0.027383279557492653,0.0,0.0,-0.6,0.0,0.005495309829711914,0.009702205657958984,0
1.030076026916504,-0.014137877151370049,-0.008103934116661549,-0.5447548031806946,-0.004233259119783923,-0.5328201837565348,0.06760790230750145,0.3612324945398217,0.027383279557492653,0.0,0.0,-0.6,0.0,0.0010809898376464844,0.004935264587402344,0
1.0388281345367432,-0.014059013687074184,-0.008210265077650547,-0.5480876564979553,-0.004341242764446791,-0.5332455852067591,0.055710701023011504,0.3578777059744964,0.02807958920402125,0.0,0.0,-0.6,0.0,0.005597829818725586,0.009578466415405273,0
1.049741506576538,-0.014059013687074184,-0.008210265077650547,-0.5480876564979553,-0.004341242764446791,-0.5332455852067591,0.055710701023011504,0.3578777059744964,0.02807958920402125,0.0,0.0,-0.6,0.0,0.0011217594146728516,0.004955768585205078,0
1.0588936805725098,-0.013837294653058052,-0.008340510539710522,-0.5512669682502747,-0.004294578121468568,-0.5334776141888128,0.039598045000883916,0.34957718512213626,0.027772860091628274,0.0,0.0,-0.6,0.0,0.0059871673583984375,0.009896516799926758,0
1.070197343826294,-0.013837294653058052,-0.008340510539710522,-0.5512669682502747,-0.004294578121468568,-0.5334776141888128,0.039598045000883916,0.34957718512213626,0.027772860091628274,0.0,0.0,-0.6,0.0,0.001071929931640625,0.005075216293334961,0
1.0789649486541748,-0.013500985689461231,-0.008420695550739765,-0.5541772246360779,-0.004083415278113357,-0.5348181340382105,0.0200720543269424,0.3194618249697075,0.0264062443003186,0.0,0.0,-0.6,0.0,0.00492095947265625,0.00903940200805664,0
1.0894217491149902,-0.013500985689461231,-0.008420695550739765,-0.5541772246360779,-0.004083415278113357,-0.5348181340382105,0.0200720543269424,0.3194618249697075,0.0264062443003186,0.0,0.0,-0.6,0.0,0.0011129379272460938,0.005224466323852539,0
1.1001410484313965,-0.013118935748934746,-0.00853673741221428,-0.556938886642456,-0.003826410760407866,-0.5358430909567589,0.020941523471432955,0.27315274728844524,0.024757360427009045,0.0,0.0,-0.6,0.0,0.004845380783081055,0.008692264556884766,0
1.1103239059448242,-0.013118935748934746,-0.00853673741221428,-0.556938886642456,-0.003826410760407866,-0.5358430909567589,0.020941523471432955,0.27315274728844524,0.024757360427009045,0.0,0.0,-0.6,0.0,0.0010828971862792969,0.00530695915222168,0
1.1188039779663086,-0.012717793695628643,-0.008696361444890499,-0.5594795942306519,-0.003607060108599162,-0.5371546516062788,0.015067090461253181,0.22370671326420216,0.02331745171350792,0.0,0.0,-0.6,0.0,0.004427194595336914,0.008280515670776367,0
1.1299879550933838,-0.01250496692955494,-0.00879073329269886,-0.5606575608253479,-0.00346713166003079,-0.5380135762569633,0.004968152638055735,0.20312002115479091,0.022394431794023954,0.0,0.0,-0.6,0.0,0.0045125484466552734,0.008236885070800781,0
1.1396641731262207,-0.01250496692955494,-0.00879073329269886,-0.5606575608253479,-0.00346713166003079,-0.5380135762569633,0.004968152638055735,0.20312002115479091,0.022394431794023954,0.0,0.0,-0.6,0.0,0.0010516643524169922,0.004893064498901367,0
1.1488471031188965,-0.012049499899148941,-0.008978758938610554,-0.5627980828285217,-0.00322910219905681,-0.5401052232879369,-0.005369937050801977,0.16722079781332913,0.02083242938220555,0.0,0.0,-0.6,0.0,0.005014896392822266,0.009044408798217773,0
1.1595098972320557,-0.012049499899148941,-0.008978758938610554,-0.5627980828285217,-0.00322910219905681,-0.5401052232879369,-0.005369937050801977,0.16722079781332913,0.02083242938220555,0.0,0.0,-0.6,0.0,0.0011599063873291016,0.00536799430847168,0
1.1694061756134033,-0.011533421464264393,-0.009197555482387543,-0.5646462440490723,-0.0029462105482581597,-0.5419879218949594,-0.024764493912019646,0.1425568118138448,0.01898788163492463,0.0,0.0,-0.6,0.0,0.004433155059814453,0.00848078727722168,0
1.1792869567871094,-0.011533421464264393,-0.009197555482387543,-0.5646462440490723,-0.0029462105482581597,-0.5419879218949594,-0.024764493912019646,0.1425568118138448,0.01898788163492463,0.0,0.0,-0.6,0.0,0.0010609626770019531,0.005187511444091797,0
1.188856840133667,-0.01092787366360426,-0.009396903216838837,-0.5662462711334229,-0.0024318443741854334,-0.5430478071529553,-0.0473952879649185,0.13666518055612809,0.015692677323667747,0.0,0.0,-0.6,0.0,0.0047533512115478516,0.008620262145996094,0
1.1994202136993408,-0.01092787366360426,-0.009396903216838837,-0.5662462711334229,-0.0024318443741854334,-0.5430478071529553,-0.0473952879649185,0.13666518055612809,0.015692677323667747,0.0,0.0,-0.6,0.0,0.0011484622955322266,0.005019187927246094,0
1.209198236465454,-0.010252812877297401,-0.009573625400662422,-0.567694902420044,-0.002104934605127021,-0.5439701597819592,-0.06969593399478322,0.12317540384245455,0.013595000870117682,0.0,0.0,-0.6,0.0,0.004595279693603516,0.008426189422607422,0
1.218947410583496,-0.010252812877297401,-0.009573625400662422,-0.567694902420044,-0.002104934605127021,-0.5439701597819592,-0.06969593399478322,0.12317540384245455,0.013595000870117682,0.0,0.0,-0.6,0.0,0.0010576248168945312,0.004815101623535156,0
1.2290136814117432,-0.00953875482082367,-0.00971731636673212,-0.5690630674362183,-0.0017589240632912564,-0.5440868044165451,-0.09098551698938243,0.10421296365044498,0.011375789086388439,0.0,0.0,-0.6,0.0,0.004597902297973633,0.008391380310058594,0
1.2400496006011963,-0.009182292968034744,-0.009761529043316841,-0.5697510242462158,-0.0015886368709146074,-0.5440955349681321,-0.10333203051060616,0.08539641820258351,0.010274620314452367,0.0,0.0,-0.6,0.0,0.0046274662017822266,0.008538007736206055,0
1.249877691268921,-0.009182292968034744,-0.009761529043316841,-0.5697510242462158,-0.0015886368709146074,-0.5440955349681321,-0.10333203051060616,0.08539641820258351,0.010274620314452367,0.0,0.0,-0.6,0.0,0.0011026859283447266,0.004936933517456055,0
1.2587904930114746,-0.00851262453943491,-0.00980907678604126,-0.5711238980293274,-0.0012406825083240626,-0.5440900935377083,-0.11481635208721085,0.04058441893735015,0.008016281619580354,0.0,0.0,-0.6,0.0,0.004700660705566406,0.00848388671875,0
1.2701637744903564,-0.008204266428947449,-0.009824241511523724,-0.5717745423316956,-0.0010426706061681084,-0.5441101380967238,-0.1169842713061948,0.014889162467864168,0.006729232330052727,0.0,0.0,-0.6,0.0,0.004743814468383789,0.008618593215942383,0
1.2801580429077148,-0.008204266428947449,-0.009824241511523724,-0.5717745423316956,-0.0010426706061681084,-0.5441101380967238,-0.1169842713061948,0.014889162467864168,0.006729232330052727,0.0,0.0,-0.6,0.0,0.0010752677917480469,0.0051043033599853516,0
1.2888720035552979,-0.007664123550057411,-0.009818159975111485,-0.5730146169662476,-0.0006077806306174226,-0.5451156574742877,-0.12779694644558187,-0.034053651299852467,0.003920337861732291,0.0,0.0,-0.6,0.0,0.004871368408203125,0.008969545364379883,0
1.2999484539031982,-0.007664123550057411,-0.009818159975111485,-0.5730146169662476,-0.0006077806306174226,-0.5451156574742877,-0.12779694644558187,-0.034053651299852467,0.003920337861732291,0.0,0.0,-0.6,0.0,0.0011143684387207031,0.005203723907470703,0
1.3089179992675781,-0.007190005388110876,-0.009762072935700417,-0.5741565227508545,-0.0002656246622316366,-0.5456502733819644,-0.14326487620493453,-0.06850967770720712,0.001733310196704024,0.0,0.0,-0.6,0.0,0.004767894744873047,0.008769750595092773,0
1.31919527053833,-0.007190005388110876,-0.009762072935700417,-0.5741565227508545,-0.0002656246622316366,-0.5456502733819644,-0.14326487620493453,-0.06850967770720712,0.001733310196704024,0.0,0.0,-0.6,0.0,0.0011196136474609375,0.005381345748901367,0
1.3288822174072266,-0.006787901744246483,-0.009692746214568615,-0.5752336382865906,-7.928879238743264e-05,-0.5455646509819603,-0.14341134712826814,-0.09990188919909118,0.0005359285733566162,0.0,0.0,-0.6,0.0,0.0048253536224365234,0.008885860443115234,0
1.3393135070800781,-0.006787901744246483,-0.009692746214568615,-0.5752336382865906,-7.928879238743264e-05,-0.5455646509819603,-0.14341134712826814,-0.09990188919909118,0.0005359285733566162,0.0,0.0,-0.6,0.0,0.0011708736419677734,0.0055429935455322266,0
1.3488783836364746,-0.006433452479541302,-0.00959592405706644,-0.5763369202613831,0.00023177843231490702,-0.5455947790882415,-0.14645484332650346,-0.1280319125044784,-0.0014534983149249085,0.0,0.0,-0.6,0.0,0.004950761795043945,0.008968114852905273,0
1.3593554496765137,-0.006433452479541302,-0.00959592405706644,-0.5763369202613831,0.00023177843231490702,-0.5455947790882415,-0.14645484332650346,-0.1280319125044784,-0.0014534983149249085,0.0,0.0,-0.6,0.0,0.001115560531616211,0.005319356918334961,0
1.3688411712646484,-0.006189317908138037,-0.009499930776655674,-0.5773834586143494,0.0005603218597050098,-0.5458504768046039,-0.134201814883974,-0.17821652131509666,-0.0035857503665202824,0.0,0.0,-0.6,0.0,0.004606008529663086,0.00864100456237793,0
1.3789734840393066,-0.006189317908138037,-0.009499930776655674,-0.5773834586143494,0.0005603218597050098,-0.5458504768046039,-0.134201814883974,-0.17821652131509666,-0.0035857503665202824,0.0,0.0,-0.6,0.0,0.0011296272277832031,0.005387783050537109,0
1.3888614177703857,-0.00607009744271636,-0.009372367523610592,-0.5783476829528809,0.000821744183754064,-0.5466646955726651,-0.12622195136453,-0.20847966403439835,-0.005258272086341981,0.0,0.0,-0.6,0.0,0.004771232604980469,0.008816242218017578,0
1.399775743484497,-0.00607009744271636,-0.009372367523610592,-0.5783476829528809,0.000821744183754064,-0.5466646955726651,-0.12622195136453,-0.20847966403439835,-0.005258272086341981,0.0,0.0,-0.6,0.0,0.0011508464813232422,0.005220890045166016,0
1.4089770317077637,-0.006020895671099424,-0.009207386523485184,-0.5791938304901123,0.0011206124076207434,-0.5481935125423157,-0.11096198083619228,-0.2281123886394659,-0.007165850972084057,0.0,0.0,-0.6,0.0,0.0046520233154296875,0.008641719818115234,0
1.4189634323120117,-0.006020895671099424,-0.009207386523485184,-0.5791938304901123,0.0011206124076207434,-0.5481935125423157,-0.11096198083619228,-0.2281123886394659,-0.007165850972084057,0.0,0.0,-0.6,0.0,0.0010633468627929688,0.005243778228759766,0
1.4288578033447266,-0.006003757938742638,-0.009015949442982674,-0.5798851251602173,0.0013291983732707353,-0.5489461078852204,-0.08355044017818924,-0.24402317947960134,-0.008506789872004542,0.0,0.0,-0.6,0.0,0.004426717758178711,0.00855112075805664,0
1.4402544498443604,-0.0060215722769498825,-0.008928289636969566,-0.5802205801010132,0.0014541329583423399,-0.548973670261312,-0.06887045046085512,-0.25378217665888153,-0.009306769507773132,0.0,0.0,-0.6,0.0,0.0048639774322509766,0.008755683898925781,0
1.450352430343628,-0.0060215722769498825,-0.008928289636969566,-0.5802205801010132,0.0014541329583423399,-0.548973670261312,-0.06887045046085512,-0.25378217665888153,-0.009306769507773132,0.0,0.0,-0.6,0.0,0.0010762214660644531,0.005055427551269531,0
1.4588918685913086,-0.006118069868534803,-0.008728357031941414,-0.5809016823768616,0.0018860196123032986,-0.5485519307487426,-0.04883162223967607,-0.27854776254582775,-0.01205927541721465,0.0,0.0,-0.6,0.0,0.0047380924224853516,0.008601188659667969,0
1.4688732624053955,-0.006118069868534803,-0.008728357031941414,-0.5809016823768616,0.0018860196123032986,-0.5485519307487426,-0.04883162223967607,-0.27854776254582775,-0.01205927541721465,0.0,0.0,-0.6,0.0,0.001171112060546875,0.005056142807006836,0
1.4789631366729736,-0.006342239677906036,-0.008517897687852383,-0.5815920829772949,0.002325878958378176,-0.5480292497549307,-0.008565945333176036,-0.2863401468185644,-0.014863355094432878,0.0,0.0,-0.6,0.0,0.004706621170043945,0.00889897346496582,0
1.4892868995666504,-0.006342239677906036,-0.008517897687852383,-0.5815920829772949,0.002325878958378176,-0.5480292497549307,-0.008565945333176036,-0.2863401468185644,-0.014863355094432878,0.0,0.0,-0.6,0.0,0.0012280941009521484,0.0055658817291259766,0
1.49940824508667,-0.00661911116912961,-0.008290293626487255,-0.5822760462760925,0.002655582022700943,-0.5478254893534292,0.02990122739874314,-0.25534187629824406,-0.016946159399793444,0.0,0.0,-0.6,0.0,0.004626035690307617,0.008618593215942383,0
1.5093159675598145,-0.00661911116912961,-0.008290293626487255,-0.5822760462760925,0.002655582022700943,-0.5478254893534292,0.02990122739874314,-0.25534187629824406,-0.016946159399793444,0.0,0.0,-0.6,0.0,0.0010831356048583984,0.004805088043212891,0
1.518991470336914,-0.006749273277819157,-0.008169461041688919,-0.5826311707496643,0.002807591559714892,-0.5475051446545571,0.048187043820535805,-0.23016599447856473,-0.01790706030693575,0.0,0.0,-0.6,0.0,0.004549503326416016,0.008785009384155273,0
1.5298218727111816,-0.006995498668402433,-0.007911410182714462,-0.5833765268325806,0.0030586719836574777,-0.5475311474428342,0.07675089605409706,-0.1765738691091293,-0.01949360350567936,0.0,0.0,-0.6,0.0,0.004698991775512695,0.008395910263061523,0
1.5401873588562012,-0.006995498668402433,-0.007911410182714462,-0.5833765268325806,0.0030586719836574777,-0.5475311474428342,0.07675089605409706,-0.1765738691091293,-0.01949360350567936,0.0,0.0,-0.6,0.0,0.0010707378387451172,0.005074024200439453,0
1.548954963684082,-0.007268463261425495,-0.0076509322971105576,-0.5841524004936218,0.003336994324118435,-0.5468211198371064,0.09771383151823507,-0.108786519223951,-0.021262524621024362,0.0,0.0,-0.6,0.0,0.004515171051025391,0.00840449333190918,0
1.5609984397888184,-0.007400601636618376,-0.007523624692112207,-0.5845469832420349,0.0035220022147019,-0.5470774436330047,0.10936959082461988,-0.06418803938222356,-0.02244289635962235,0.0,0.0,-0.6,0.0,0.005209922790527344,0.009259462356567383,0
1.5715067386627197,-0.007400601636618376,-0.007523624692112207,-0.5845469832420349,0.0035220022147019,-0.5470774436330047,0.10936959082461988,-0.06418803938222356,-0.02244289635962235,0.0,0.0,-0.6,0.0,0.0011625289916992188,0.005034685134887695,0
1.5797264575958252,-0.007657678797841072,-0.007290136069059372,-0.5852486491203308,0.004041202904357249,-0.5472375611895434,0.14144268492186957,0.013407067435439032,-0.02573274863772537,0.0,0.0,-0.6,0.0,0.004480123519897461,0.008264780044555664,0
1.589371919631958,-0.007657678797841072,-0.007290136069059372,-0.5852486491203308,0.004041202904357249,-0.5472375611895434,0.14144268492186957,0.013407067435439032,-0.02573274863772537,0.0,0.0,-0.6,0.0,0.0010917186737060547,0.0051059722900390625,0
1.6000723838806152,-0.007885551080107689,-0.0071418737061321735,-0.5859257578849792,0.004455222512154116,-0.5469282931940133,0.1754192603181651,0.08150811252686282,-0.028316768375909507,0.0,0.0,-0.6,0.0,0.004372835159301758,0.008333206176757812,0
1.609678030014038,-0.007885551080107689,-0.0071418737061321735,-0.5859257578849792,0.004455222512154116,-0.5469282931940133,0.1754192603181651,0.08150811252686282,-0.028316768375909507,0.0,0.0,-0.6,0.0,0.0011134147644042969,0.004857063293457031,0
1.619356393814087,-0.008064783178269863,-0.007079839240759611,-0.5865735411643982,0.004853557214458677,-0.5466809971110508,0.19469181359496532,0.14146091309591732,-0.03078476614794671,0.0,0.0,-0.6,0.0,0.004441022872924805,0.008170604705810547,0
1.6289191246032715,-0.008064783178269863,-0.007079839240759611,-0.5865735411643982,0.004853557214458677,-0.5466809971110508,0.19469181359496532,0.14146091309591732,-0.03078476614794671,0.0,0.0,-0.6,0.0,0.0010666847229003906,0.004770517349243164,0
1.638998031616211,-0.008224494755268097,-0.0070318058133125305,-0.5871397256851196,0.00514179373397529,-0.546843509211429,0.17653365171505006,0.19526462514977438,-0.032594702898049686,0.0,0.0,-0.6,0.0,0.0050580501556396484,0.009357452392578125,0
1.6497790813446045,-0.008224494755268097,-0.0070318058133125305,-0.5871397256851196,0.00514179373397529,-0.546843509211429,0.17653365171505006,0.19526462514977438,-0.032594702898049686,0.0,0.0,-0.6,0.0,0.001220703125,0.005089521408081055,0
1.6590666770935059,-0.008413653820753098,-0.006970193702727556,-0.5876124501228333,0.005429642811833244,-0.5471359606477255,0.13670194086969326,0.2285930489399457,-0.03445165937880488,0.0,0.0,-0.6,0.0,0.004699230194091797,0.008892536163330078,0
1.669372797012329,-0.008413653820753098,-0.006970193702727556,-0.5876124501228333,0.005429642811833244,-0.5471359606477255,0.13670194086969326,0.2285930489399457,-0.03445165937880488,0.0,0.0,-0.6,0.0,0.0011663436889648438,0.005125284194946289,0
1.6789495944976807,-0.008635800331830978,-0.006884703878313303,-0.5880531668663025,0.005745779961634967,-0.5470323682099987,0.09010873003069743,0.2556928065856757,-0.03651574766109385,0.0,0.0,-0.6,0.0,0.004868507385253906,0.008888483047485352,0
1.689178705215454,-0.008635800331830978,-0.006884703878313303,-0.5880531668663025,0.005745779961634967,-0.5470323682099987,0.09010873003069743,0.2556928065856757,-0.03651574766109385,0.0,0.0,-0.6,0.0,0.0011487007141113281,0.005071163177490234,0
1.7001457214355469,-0.008856342174112797,-0.006792675703763962,-0.5884990692138672,0.005904726547149302,-0.546683520022852,0.041889862959528595,0.26957857146998143,-0.037579414577965535,0.0,0.0,-0.6,0.0,0.00507044792175293,0.009232759475708008,0
1.7108674049377441,-0.008856342174112797,-0.006792675703763962,-0.5884990692138672,0.005904726547149302,-0.546683520022852,0.041889862959528595,0.26957857146998143,-0.037579414577965535,0.0,0.0,-0.6,0.0,0.0010864734649658203,0.005079984664916992,0
1.7188720703125,-0.009023570455610752,-0.00671191094443202,-0.588948667049408,0.005932079927180744,-0.5466539165995002,-0.0016060466062086385,0.2832055562345651,-0.03778049314515026,0.0,0.0,-0.6,0.0,0.004610538482666016,0.008680582046508789,0
1.7289271354675293,-0.009023570455610752,-0.00671191094443202,-0.588948667049408,0.005932079927180744,-0.5466539165995002,-0.0016060466062086385,0.2832055562345651,-0.03778049314515026,0.0,0.0,-0.6,0.0,0.0011200904846191406,0.0049479007720947266,0
1.7391417026519775,-0.00911618396639824,-0.006663977634161711,-0.5894060730934143,0.005958310423000762,-0.5466142764044399,-0.028909979974156702,0.2711768095813447,-0.037945231689469054,0.0,0.0,-0.6,0.0,0.004599809646606445,0.00838780403137207,0
1.7488420009613037,-0.00911618396639824,-0.006663977634161711,-0.5894060730934143,0.005958310423000762,-0.5466142764044399,-0.028909979974156702,0.2711768095813447,-0.037945231689469054,0.0,0.0,-0.6,0.0,0.0010724067687988281,0.0050890445709228516,0
1.75888991355896,-0.009203891269862652,-0.006662487052381039,-0.5898985266685486,0.00599456842729591,-0.5465763827095826,-0.05182536906944402,0.22690340924057645,-0.03819871500555978,0.0,0.0,-0.6,0.0,0.004748106002807617,0.008838176727294922,0
1.7691864967346191,-0.009203891269862652,-0.006662487052381039,-0.5898985266685486,0.00599456842729591,-0.5465763827095826,-0.05182536906944402,0.22690340924057645,-0.03819871500555978,0.0,0.0,-0.6,0.0,0.0012063980102539062,0.00524449348449707,0
1.7789242267608643,-0.00932769663631916,-0.006687418092042208,-0.5903729200363159,0.006039057496184842,-0.5474010356375456,-0.06754236256663114,0.16160907895590007,-0.0385303171938894,0.0,0.0,-0.6,0.0,0.004729032516479492,0.008654117584228516,0
1.78902268409729,-0.00932769663631916,-0.006687418092042208,-0.5903729200363159,0.006039057496184842,-0.5474010356375456,-0.06754236256663114,0.16160907895590007,-0.0385303171938894,0.0,0.0,-0.6,0.0,0.0011606216430664062,0.0053424835205078125,0
1.8000948429107666,-0.009423167444765568,-0.00672943377867341,-0.590766429901123,0.006101850056452846,-0.5475489692938417,-0.0751211439855653,0.12126902458207045,-0.038953337960976,0.0,0.0,-0.6,0.0,0.0045125484466552734,0.008397102355957031,0
1.8099255561828613,-0.009423167444765568,-0.00672943377867341,-0.590766429901123,0.006101850056452846,-0.5475489692938417,-0.0751211439855653,0.12126902458207045,-0.038953337960976,0.0,0.0,-0.6,0.0,0.0011396408081054688,0.00501561164855957,0
1.818969488143921,-0.009427424520254135,-0.006789032835513353,-0.5911722183227539,0.006027360495963948,-0.5473363811143744,-0.0650495890526983,0.07083039482137297,-0.03850510859633624,0.0,0.0,-0.6,0.0,0.0045545101165771484,0.008319854736328125,0
1.8301045894622803,-0.009416447952389717,-0.006835056934505701,-0.5913974642753601,0.006009573820301452,-0.5467516530038761,-0.057829366178217705,0.035241255268932556,-0.03842145858404583,0.0,0.0,-0.6,0.0,0.003522157669067383,0.0073621273040771484,0
1.8388826847076416,-0.009416447952389717,-0.006835056934505701,-0.5913974642753601,0.006009573820301452,-0.5467516530038761,-0.057829366178217705,0.035241255268932556,-0.03842145858404583,0.0,0.0,-0.6,0.0,0.0010466575622558594,0.004801273345947266,0
1.8489439487457275,-0.009416356682777405,-0.006911981850862503,-0.5918899178504944,0.005991899570782659,-0.5467770498777295,-0.05851893339978244,-0.04677372222116169,-0.038387082294468286,0.0,0.0,-0.6,0.0,0.0047206878662109375,0.008478164672851562,0
1.858872652053833,-0.009416356682777405,-0.006911981850862503,-0.5918899178504944,0.005991899570782659,-0.5467770498777295,-0.05851893339978244,-0.04677372222116169,-0.038387082294468286,0.0,0.0,-0.6,0.0,0.001112222671508789,0.005155801773071289,0
1.8688654899597168,-0.009447924792766571,-0.0069175600074231625,-0.5922733545303345,0.005999786350275606,-0.5475758791466244,-0.08459286731979035,-0.09715172255436232,-0.03847013441620742,0.0,0.0,-0.6,0.0,0.004812002182006836,0.008586645126342773,0
1.8788673877716064,-0.009447924792766571,-0.0069175600074231625,-0.5922733545303345,0.005999786350275606,-0.5475758791466244,-0.08459286731979035,-0.09715172255436232,-0.03847013441620742,0.0,0.0,-0.6,0.0,0.00113677978515625,0.005588531494140625,0
1.8888812065124512,-0.009390769526362419,-0.006933197844773531,-0.5926860570907593,0.005949118902587418,-0.5464093298715793,-0.07650589812027918,-0.11094251088198133,-0.03813968788014709,0.0,0.0,-0.6,0.0,0.0046787261962890625,0.008497238159179688,0
1.900818109512329,-0.00935754831880331,-0.006967831403017044,-0.592949628829956,0.005886631847292947,-0.5456895360257973,-0.06941701808228994,-0.13098868233803862,-0.03775113138215349,0.0,0.0,-0.6,0.0,0.0035822391510009766,0.0075762271881103516,0
1.9097113609313965,-0.00935754831880331,-0.006967831403017044,-0.592949628829956,0.005886631847292947,-0.5456895360257973,-0.06941701808228994,-0.13098868233803862,-0.03775113138215349,0.0,0.0,-0.6,0.0,0.001140594482421875,0.004823923110961914,0
1.9189708232879639,-0.009356462396681309,-0.007014556787908077,-0.5935158133506775,0.005720031515961486,-0.5458788530598894,-0.08139362928892081,-0.16295353554762934,-0.0366819639613193,0.0,0.0,-0.6,0.0,0.004838228225708008,0.009257316589355469,0
1.9296088218688965,-0.009356462396681309,-0.007014556787908077,-0.5935158133506775,0.005720031515961486,-0.5458788530598894,-0.08139362928892081,-0.16295353554762934,-0.0366819639613193,0.0,0.0,-0.6,0.0,0.0012345314025878906,0.0054395198822021484,0
1.939028263092041,-0.009326654486358166,-0.006993513088673353,-0.5940085649490356,0.005531184480158997,-0.5459395937926932,-0.09132571266553961,-0.15755321605374384,-0.035444891690879866,0.0,0.0,-0.6,0.0,0.004469394683837891,0.00845646858215332,0
1.9490184783935547,-0.009326654486358166,-0.006993513088673353,-0.5940085649490356,0.005531184480158997,-0.5459395937926932,-0.09132571266553961,-0.15755321605374384,-0.035444891690879866,0.0,0.0,-0.6,0.0,0.0012023448944091797,0.0052378177642822266,0
1.9589085578918457,-0.009227016009390354,-0.006979437544941902,-0.5945451259613037,0.0053090700692787285,-0.5451942069850703,-0.08422057765560022,-0.1704064486937758,-0.034022114444255624,0.0,0.0,-0.6,0.0,0.00447845458984375,0.008795499801635742,0
1.9692168235778809,-0.009227016009390354,-0.006979437544941902,-0.5945451259613037,0.0053090700692787285,-0.5451942069850703,-0.08422057765560022,-0.1704064486937758,-0.034022114444255624,0.0,0.0,-0.6,0.0,0.0012042522430419922,0.00551295280456543,0
1.9790401458740234,-0.009174393489956856,-0.006941614672541618,-0.5950791239738464,0.005078128207297992,-0.5456113954796777,-0.08727456470206653,-0.18973391462477662,-0.03254119993356925,0.0,0.0,-0.6,0.0,0.004538536071777344,0.0084381103515625,0
1.9888546466827393,-0.009174393489956856,-0.006941614672541618,-0.5950791239738464,0.005078128207297992,-0.5456113954796777,-0.08727456470206653,-0.18973391462477662,-0.03254119993356925,0.0,0.0,-0.6,0.0,0.0011188983917236328,0.005670070648193359,0
2.0001420974731445,-0.009139888919889927,-0.006872415076941252,-0.5955469012260437,0.004761810258409163,-0.5458424901372834,-0.08639099158647214,-0.17099640177870304,-0.030499070466769578,0.0,0.0,-0.6,0.0,0.004329681396484375,0.00818324089050293,0
2.0096778869628906,-0.009139888919889927,-0.006872415076941252,-0.5955469012260437,0.004761810258409163,-0.5458424901372834,-0.08639099158647214,-0.17099640177870304,-0.030499070466769578,0.0,0.0,-0.6,0.0,0.0011043548583984375,0.005066394805908203,0
2.018899440765381,-0.00911420676857233,-0.006802916992455721,-0.5959987640380859,0.004575619184972428,-0.5455234931377836,-0.07472327179131823,-0.14464286952083666,-0.029292221231715806,0.0,0.0,-0.6,0.0,0.0045320987701416016,0.008523941040039062,0
2.0300559997558594,-0.009123086929321289,-0.00676776422187686,-0.5962356925010681,0.004567699503597152,-0.5451639811243819,-0.06131905740796779,-0.13481014044227463,-0.029234811286839513,0.0,0.0,-0.6,0.0,0.004334688186645508,0.00841212272644043,0
2.0398783683776855,-0.009123086929321289,-0.00676776422187686,-0.5962356925010681,0.004567699503597152,-0.5451639811243819,-0.06131905740796779,-0.13481014044227463,-0.029234811286839513,0.0,0.0,-0.6,0.0,0.0010571479797363281,0.00482940673828125,0
2.0489351749420166,-0.009211868047714233,-0.006731883157044649,-0.5967176556587219,0.0045062175915802855,-0.5450692713605206,-0.02614091122825702,-0.1131824717553455,-0.028817312796784633,0.0,0.0,-0.6,0.0,0.004743337631225586,0.008750677108764648,0
2.0591628551483154,-0.009211868047714233,-0.006731883157044649,-0.5967176556587219,0.0045062175915802855,-0.5450692713605206,-0.02614091122825702,-0.1131824717553455,-0.028817312796784633,0.0,0.0,-0.6,0.0,0.0011153221130371094,0.005063295364379883,0
2.0689492225646973,-0.009366496466100216,-0.006729727610945702,-0.5971643924713135,0.004383374918548338,-0.5447507057185493,0.019112287344934725,-0.07120839542673776,-0.027995290683331113,0.0,0.0,-0.6,0.0,0.0046138763427734375,0.00854182243347168,0
2.0790719985961914,-0.009366496466100216,-0.006729727610945702,-0.5971643924713135,0.004383374918548338,-0.5447507057185493,0.019112287344934725,-0.07120839542673776,-0.027995290683331113,0.0,0.0,-0.6,0.0,0.0011756420135498047,0.005536794662475586,0
2.0888848304748535,-0.00953940860927105,-0.006755361333489418,-0.5976710915565491,0.004341835501265232,-0.5439553126983793,0.062103165261532804,-0.03435345814780462,-0.027686230442927496,0.0,0.0,-0.6,0.0,0.004621267318725586,0.00858306884765625,0
2.0995473861694336,-0.00953940860927105,-0.006755361333489418,-0.5976710915565491,0.004341835501265232,-0.5439553126983793,0.062103165261532804,-0.03435345814780462,-0.027686230442927496,0.0,0.0,-0.6,0.0,0.0011074542999267578,0.005221366882324219,0
2.1088435649871826,-0.009731387719511986,-0.006804955657571554,-0.5981878042221069,0.00434232379455111,-0.5438684391202665,0.10863055769027034,-0.0005804689414901107,-0.027633521741300023,0.0,0.0,-0.6,0.0,0.004530668258666992,0.008451223373413086,0
2.119981527328491,-0.009837265126407146,-0.006832855753600597,-0.5984227061271667,0.00439545164687231,-0.5439908468209932,0.1262904198492066,0.015756430800112287,-0.027947123129163403,0.0,0.0,-0.6,0.0,0.0046274662017822266,0.008454322814941406,0
2.129807710647583,-0.009837265126407146,-0.006832855753600597,-0.5984227061271667,0.00439545164687231,-0.5439908468209932,0.1262904198492066,0.015756430800112287,-0.027947123129163403,0.0,0.0,-0.6,0.0,0.0010912418365478516,0.005013227462768555,0
2.1388843059539795,-0.01008018758147955,-0.006877199746668339,-0.5988299250602722,0.004518297067409124,-0.5443672493800491,0.15972618511777675,0.038424214576924215,-0.028672411313380577,0.0,0.0,-0.6,0.0,0.004502296447753906,0.008438348770141602,0
2.1507408618927,-0.010223600082099438,-0.006893791723996401,-0.5989932417869568,0.004502331181487155,-0.5447401647007905,0.17332952986425032,0.04554114337599168,-0.028541782346788048,0.0,0.0,-0.6,0.0,0.004512310028076172,0.008547067642211914,0
2.161201000213623,-0.010381577536463737,-0.0069129387848079205,-0.5991432070732117,0.004427583681676099,-0.5446619095601029,0.18740068335577453,0.049068448921764735,-0.02803272028448284,0.0,0.0,-0.6,0.0,0.004442930221557617,0.008296489715576172,0
2.1709330081939697,-0.010381577536463737,-0.0069129387848079205,-0.5991432070732117,0.004427583681676099,-0.5446619095601029,0.18740068335577453,0.049068448921764735,-0.02803272028448284,0.0,0.0,-0.6,0.0,0.0010535717010498047,0.005103588104248047,0
2.1791939735412598,-0.01072612963616848,-0.0069505381397902966,-0.5993538498878479,0.004308836888883141,-0.5458522442692771,0.20176650818993844,0.06841978510141837,-0.027242595773093313,0.0,0.0,-0.6,0.0,0.0042569637298583984,0.008294343948364258,0
2.18884539604187,-0.01072612963616848,-0.0069505381397902966,-0.5993538498878479,0.004308836888883141,-0.5458522442692771,0.20176650818993844,0.06841978510141837,-0.027242595773093313,0.0,0.0,-0.6,0.0,0.0011038780212402344,0.004823923110961914,0
2.1998329162597656,-0.011037799529731274,-0.007014341652393341,-0.599439799785614,0.004210778764121429,-0.5469017918463629,0.20972194394564847,0.10978974879259089,-0.02660366079315196,0.0,0.0,-0.6,0.0,0.004700899124145508,0.008632659912109375,0
2.2098705768585205,-0.011037799529731274,-0.007014341652393341,-0.599439799785614,0.004210778764121429,-0.5469017918463629,0.20972194394564847,0.10978974879259089,-0.02660366079315196,0.0,0.0,-0.6,0.0,0.00110626220703125,0.004929542541503906,0
2.2192981243133545,-0.011269431561231613,-0.007104001007974148,-0.5994130373001099,0.004143922565647571,-0.5479788535430611,0.20465332385676085,0.1459562300379093,-0.02617026409382885,0.0,0.0,-0.6,0.0,0.0043866634368896484,0.008445501327514648,0
2.2292022705078125,-0.011269431561231613,-0.007104001007974148,-0.5994130373001099,0.004143922565647571,-0.5479788535430611,0.20465332385676085,0.1459562300379093,-0.02617026409382885,0.0,0.0,-0.6,0.0,0.0011410713195800781,0.005116701126098633,0
2.2389609813690186,-0.01143729593604803,-0.007254724390804768,-0.5993289947509766,0.004143950582424782,-0.5485662633384716,0.19878064063127882,0.16717338082315886,-0.026154292736339325,0.0,0.0,-0.6,0.0,0.0048449039459228516,0.008871316909790039,0
2.2491471767425537,-0.01143729593604803,-0.007254724390804768,-0.5993289947509766,0.004143950582424782,-0.5485662633384716,0.19878064063127882,0.16717338082315886,-0.026154292736339325,0.0,0.0,-0.6,0.0,0.0011353492736816406,0.005021333694458008,0
2.2589972019195557,-0.011582628823816776,-0.007457849103957415,-0.599193811416626,0.004137585669245968,-0.5491785983426843,0.18652542499028613,0.18045646693218773,-0.026105683616961677,0.0,0.0,-0.6,0.0,0.004858970642089844,0.00875401496887207,0
2.2691619396209717,-0.011582628823816776,-0.007457849103957415,-0.599193811416626,0.004137585669245968,-0.5491785983426843,0.18652542499028613,0.18045646693218773,-0.026105683616961677,0.0,0.0,-0.6,0.0,0.0011315345764160156,0.0049860477447509766,0
2.279003620147705,-0.011693721637129784,-0.0077128023840487,-0.5990079641342163,0.003974553117931931,-0.5496496985553909,0.17237688970002968,0.1828340406380456,-0.02505830690082042,0.0,0.0,-0.6,0.0,0.004859209060668945,0.00882577896118164,0
2.289215326309204,-0.011693721637129784,-0.0077128023840487,-0.5990079641342163,0.003974553117931931,-0.5496496985553909,0.17237688970002968,0.1828340406380456,-0.02505830690082042,0.0,0.0,-0.6,0.0,0.0011408329010009766,0.005257606506347656,0
2.299419403076172,-0.011743263341486454,-0.007985296659171581,-0.5987845659255981,0.003927187378590005,-0.5500014142685629,0.14013551608084296,0.18540712244942165,-0.024778351053113847,0.0,0.0,-0.6,0.0,0.00474238395690918,0.008735895156860352,0
2.3095178604125977,-0.011743263341486454,-0.007985296659171581,-0.5987845659255981,0.003927187378590005,-0.5500014142685629,0.14013551608084296,0.18540712244942165,-0.024778351053113847,0.0,0.0,-0.6,0.0,0.0010917186737060547,0.005014181137084961,0
2.3189048767089844,-0.011714010499417782,-0.008276896551251411,-0.5985442996025085,0.004030863789661384,-0.5503103703676975,0.10947850541752845,0.17732247620358352,-0.02546545633027535,0.0,0.0,-0.6,0.0,0.004536867141723633,0.008571624755859375,0
2.328937292098999,-0.011714010499417782,-0.008276896551251411,-0.5985442996025085,0.004030863789661384,-0.5503103703676975,0.10947850541752845,0.17732247620358352,-0.02546545633027535,0.0,0.0,-0.6,0.0,0.0010902881622314453,0.005254268646240234,0
2.3389270305633545,-0.011630183085799217,-0.008595419116318226,-0.5982741117477417,0.004106489829202486,-0.5506935973098351,0.07643553209670914,0.15232904828048743,-0.025996594330406696,0.0,0.0,-0.6,0.0,0.004481315612792969,0.00841379165649414,0
2.349869966506958,-0.011566821485757828,-0.008762922137975693,-0.598139762878418,0.0041209169876979925,-0.5505116038009571,0.06183265302892689,0.14151898543323105,-0.026111469411975608,0.0,0.0,-0.6,0.0,0.004385948181152344,0.008277654647827148,0
2.359583616256714,-0.011566821485757828,-0.008762922137975693,-0.598139762878418,0.0041209169876979925,-0.5505116038009571,0.06183265302892689,0.14151898543323105,-0.026111469411975608,0.0,0.0,-0.6,0.0,0.001065969467163086,0.004960536956787109,0
2.3688933849334717,-0.011382484808564186,-0.009116215631365776,-0.5979077219963074,0.004219716766152022,-0.5506787899077658,0.039799641662101426,0.11124606481311922,-0.0267939766852751,0.0,0.0,-0.6,0.0,0.004887104034423828,0.00874781608581543,0
2.3790972232818604,-0.011382484808564186,-0.009116215631365776,-0.5979077219963074,0.004219716766152022,-0.5506787899077658,0.039799641662101426,0.11124606481311922,-0.0267939766852751,0.0,0.0,-0.6,0.0,0.0011005401611328125,0.005124092102050781,0
2.3888678550720215,-0.011221230030059814,-0.009500009939074516,-0.59761643409729,0.004262468500274055,-0.5515637828777481,0.021256497099689617,0.0535337107361089,-0.027166190420381965,0.0,0.0,-0.6,0.0,0.00511932373046875,0.009123086929321289,0
2.400202751159668,-0.011221230030059814,-0.009500009939074516,-0.59761643409729,0.004262468500274055,-0.5515637828777481,0.021256497099689617,0.0535337107361089,-0.027166190420381965,0.0,0.0,-0.6,0.0,0.0011255741119384766,0.004903078079223633,0
2.4088821411132812,-0.011078285984694958,-0.00987393967807293,-0.59721839427948,0.004443398681328779,-0.5524906740961087,-0.01498361765991339,0.015615897115473593,-0.028415508565463505,0.0,0.0,-0.6,0.0,0.0048067569732666016,0.00879216194152832,0
