time,x,y,z,yaw,throttle,roll_rate,pitch_rate,yaw_rate,x_ref,y_ref,z_ref,yaw_ref,mpc_time,ctrl_callback_time_history,metadata
3.0994415283203125e-06,-0.22430415451526642,0.014769796282052994,-0.2409784346818924,0.0607683571694953,-0.5911144746757676,-0.22505661182098885,-0.7999999999924854,-0.3805677703100938,0.0,0.0,-0.6,0.0,0.02036595344543457,0.0253446102142334,Hardware
0.02687978744506836,-0.22430415451526642,0.014769796282052994,-0.2409784346818924,0.0607683571694953,-0.5911144746757676,-0.22505661182098885,-0.7999999999924854,-0.3805677703100938,0.0,0.0,-0.6,0.0,0.001443624496459961,0.006108522415161133,1x Speed
0.03616976737976074,-0.22429713606834412,0.014761964790523052,-0.24093124270439148,0.060804677825266655,-0.5912570716070996,-0.22474629098817608,-0.7999999999928413,-0.3808257565365681,0.0,0.0,-0.6,0.0,0.008092164993286133,0.013163566589355469,Horizon:3.0
0.0511631965637207,-0.22429713606834412,0.014761964790523052,-0.24093124270439148,0.060804677825266655,-0.5912570716070996,-0.22474629098817608,-0.7999999999928413,-0.3808257565365681,0.0,0.0,-0.6,0.0,0.0013470649719238281,0.005902528762817383,Num Steps:20
0.06012916564941406,-0.2243027240037918,0.014767435379326344,-0.24090944230556488,0.060821446475856175,-0.5910068458428045,-0.22881529543511403,-0.7999999999928614,-0.38070148131705456,0.0,0.0,-0.6,0.0,0.009357929229736328,0.013953685760498047,No Pyjoules
0.07753729820251465,-0.22429707646369934,0.014761239290237427,-0.24090811610221863,0.06097234013911912,-0.5910679226726797,-0.2217682662330409,-0.7999999999945299,-0.38200572004470795,0.0,0.0,-0.6,0.0,0.00964808464050293,0.01456141471862793,0
0.09466671943664551,-0.22429707646369934,0.014761239290237427,-0.24090811610221863,0.06097234013911912,-0.5910679226726797,-0.2217682662330409,-0.7999999999945299,-0.38200572004470795,0.0,0.0,-0.6,0.0,0.0015819072723388672,0.006192445755004883,0
0.10288643836975098,-0.22423943877220154,0.014779548160731792,-0.24099156260490417,0.06015068523381527,-0.5904341631440395,-0.22273906511956065,-0.7999999999556743,-0.3773655559198904,0.0,0.0,-0.6,0.0,0.009867191314697266,0.014762163162231445,0
0.1195380687713623,-0.22423943877220154,0.014779548160731792,-0.24099156260490417,0.06015068523381527,-0.5904341631440395,-0.22273906511956065,-0.7999999999556743,-0.3773655559198904,0.0,0.0,-0.6,0.0,0.0012655258178710938,0.005443096160888672,0
0.12762451171875,-0.22392472624778748,0.014759200625121593,-0.241119384765625,0.05912568279641521,-0.5898336178966442,-0.1957850956016542,-0.799999998947212,-0.37287412293316496,0.0,0.0,-0.6,0.0,0.009793758392333984,0.014559507369995117,0
0.14394736289978027,-0.22392472624778748,0.014759200625121593,-0.241119384765625,0.05912568279641521,-0.5898336178966442,-0.1957850956016542,-0.799999998947212,-0.37287412293316496,0.0,0.0,-0.6,0.0,0.0011756420135498047,0.005587577819824219,0
0.1520707607269287,-0.22270609438419342,0.014561188407242298,-0.24170826375484467,0.05962996303720751,-0.5859617922293163,-0.18899424019949115,-0.7999999995558627,-0.37793261920944177,0.0,0.0,-0.6,0.0,0.01249074935913086,0.017088890075683594,0
0.17234206199645996,-0.22270609438419342,0.014561188407242298,-0.24170826375484467,0.05962996303720751,-0.5859617922293163,-0.18899424019949115,-0.7999999995558627,-0.37793261920944177,0.0,0.0,-0.6,0.0,0.0016067028045654297,0.005522251129150391,0
0.18048691749572754,-0.22121691703796387,0.01427456084638834,-0.2426738291978836,0.05925348959754866,-0.5794179258920383,-0.12605006438543306,-0.7672514559561489,-0.37871115627689084,0.0,0.0,-0.6,0.0,0.009707212448120117,0.014452934265136719,0
0.19698214530944824,-0.219188392162323,0.013874686323106289,-0.24455058574676514,0.05870647567335515,-0.5735632949604921,-0.09177091648971593,-0.5850098542210583,-0.3752757321937147,0.0,0.0,-0.6,0.0,0.007777214050292969,0.011870861053466797,0
0.21070361137390137,-0.219188392162323,0.013874686323106289,-0.24455058574676514,0.05870647567335515,-0.5735632949604921,-0.09177091648971593,-0.5850098542210583,-0.3752757321937147,0.0,0.0,-0.6,0.0,0.0011196136474609375,0.004889965057373047,0
0.21961569786071777,-0.21667563915252686,0.01341987680643797,-0.24719418585300446,0.05796300250173087,-0.5651291756894359,-0.02334356514730493,-0.3440696695531282,-0.37040610052019435,0.0,0.0,-0.6,0.0,0.010275125503540039,0.013826370239257812,0
0.2348463535308838,-0.21667563915252686,0.01341987680643797,-0.24719418585300446,0.05796300250173087,-0.5651291756894359,-0.02334356514730493,-0.3440696695531282,-0.37040610052019435,0.0,0.0,-0.6,0.0,0.0011305809020996094,0.004964590072631836,0
0.2426002025604248,-0.21195252239704132,0.012393486686050892,-0.252898246049881,0.05616525647760933,-0.5558980429643406,0.14924703616948362,0.07638138811825651,-0.358403850684339,0.0,0.0,-0.6,0.0,0.009514570236206055,0.014703512191772461,0
0.2594010829925537,-0.21195252239704132,0.012393486686050892,-0.252898246049881,0.05616525647760933,-0.5558980429643406,0.14924703616948362,0.07638138811825651,-0.358403850684339,0.0,0.0,-0.6,0.0,0.0011126995086669922,0.005036115646362305,0
0.27037715911865234,-0.20653751492500305,0.011330136097967625,-0.26026126742362976,0.053849355082886005,-0.5444786592487475,0.21721945849461483,0.46390834988314233,-0.34315241187362855,0.0,0.0,-0.6,0.0,0.013209819793701172,0.017162322998046875,0
0.28962111473083496,-0.20653751492500305,0.011330136097967625,-0.26026126742362976,0.053849355082886005,-0.5444786592487475,0.21721945849461483,0.46390834988314233,-0.34315241187362855,0.0,0.0,-0.6,0.0,0.0012938976287841797,0.005460262298583984,0
0.3000204563140869,-0.20248179137706757,0.010541287250816822,-0.2663053572177887,0.05188425661338714,-0.5348825367800168,0.3282263765013438,0.7790631026698916,-0.3299195581670133,0.0,0.0,-0.6,0.0,0.012591361999511719,0.01697540283203125,0
0.319793701171875,-0.1981412023305893,0.00984030868858099,-0.27299410104751587,0.049689277799551373,-0.5264314742103949,0.30212085634536834,0.7999999999999925,-0.3129933239276174,0.0,0.0,-0.6,0.0,0.01093745231628418,0.015219449996948242,0
0.3375823497772217,-0.1934603452682495,0.009141071699559689,-0.2803225517272949,0.04709198361622227,-0.5172798060521421,0.33482815682077044,0.7999999978081648,-0.28897370790920557,0.0,0.0,-0.6,0.0,0.01190185546875,0.015984535217285156,0
0.3550393581390381,-0.1934603452682495,0.009141071699559689,-0.2803225517272949,0.04709198361622227,-0.5172798060521421,0.33482815682077044,0.7999999978081648,-0.28897370790920557,0.0,0.0,-0.6,0.0,0.001237630844116211,0.005449056625366211,0
0.36388325691223145,-0.18839283287525177,0.008387301117181778,-0.2881683111190796,0.044098004154140225,-0.5099336873045566,0.30898057071334406,0.7999999999999997,-0.26602395310766336,0.0,0.0,-0.6,0.0,0.012200355529785156,0.016576766967773438,0
0.3838324546813965,-0.18010777235031128,0.007288823835551739,-0.3008710741996765,0.039135887284474924,-0.5004075270691739,0.2381315371517683,0.7999999999999944,-0.23081647739921918,0.0,0.0,-0.6,0.0,0.012824773788452148,0.017667293548583984,0
0.40375518798828125,-0.18010777235031128,0.007288823835551739,-0.3008710741996765,0.039135887284474924,-0.5004075270691739,0.2381315371517683,0.7999999999999944,-0.23081647739921918,0.0,0.0,-0.6,0.0,0.001163482666015625,0.0053386688232421875,0
0.4119303226470947,-0.17096973955631256,0.0061965202912688255,-0.3142687678337097,0.03409269000423372,-0.4935065645394955,0.14439962780978524,0.7999999999999895,-0.20290913316446055,0.0,0.0,-0.6,0.0,0.016278982162475586,0.02017807960510254,0
0.43361330032348633,-0.17096973955631256,0.0061965202912688255,-0.3142687678337097,0.03409269000423372,-0.4935065645394955,0.14439962780978524,0.7999999999999895,-0.20290913316446055,0.0,0.0,-0.6,0.0,0.001247406005859375,0.005654573440551758,0
0.4423329830169678,-0.1610967516899109,0.005090110003948212,-0.32806524634361267,0.02916131294673142,-0.4907633564356081,-0.001373811879566119,0.7999999999999923,-0.17801116048769572,0.0,0.0,-0.6,0.0,0.01453542709350586,0.01923823356628418,0
0.4641456604003906,-0.1610967516899109,0.005090110003948212,-0.32806524634361267,0.02916131294673142,-0.4907633564356081,-0.001373811879566119,0.7999999999999923,-0.17801116048769572,0.0,0.0,-0.6,0.0,0.0014088153839111328,0.006342411041259766,0
0.473081111907959,-0.15040495991706848,0.00395537493750453,-0.341965913772583,0.024654068328688845,-0.48483917860163506,-0.008307965872027465,0.7999999999999069,-0.1447561802648632,0.0,0.0,-0.6,0.0,0.013367176055908203,0.018119335174560547,0
0.4935183525085449,-0.15040495991706848,0.00395537493750453,-0.341965913772583,0.024654068328688845,-0.48483917860163506,-0.008307965872027465,0.7999999999999069,-0.1447561802648632,0.0,0.0,-0.6,0.0,0.0013666152954101562,0.006360292434692383,0
0.5022685527801514,-0.13921627402305603,0.00291200983338058,-0.3555808365345001,0.02055770510979688,-0.48688662731909693,-0.11103167086762969,0.799999999594185,-0.12383642080974647,0.0,0.0,-0.6,0.0,0.011740684509277344,0.016155004501342773,0
0.5203680992126465,-0.13921627402305603,0.00291200983338058,-0.3555808365345001,0.02055770510979688,-0.48688662731909693,-0.11103167086762969,0.799999999594185,-0.12383642080974647,0.0,0.0,-0.6,0.0,0.0015642642974853516,0.0057830810546875,0
0.5302033424377441,-0.1313641369342804,0.002200706861913204,-0.36459943652153015,0.018121422139785362,-0.4843593210789048,-0.1114802788526709,0.7999999323536985,-0.10814810415298481,0.0,0.0,-0.6,0.0,0.009283781051635742,0.01446986198425293,0
0.5466959476470947,-0.12344413995742798,0.0014688948867842555,-0.37355318665504456,0.015892865435677788,-0.4843743206431379,-0.13791169602323103,0.7999999993700385,-0.0959066269872718,0.0,0.0,-0.6,0.0,0.01117396354675293,0.015622615814208984,0
0.5650627613067627,-0.12344413995742798,0.0014688948867842555,-0.37355318665504456,0.015892865435677788,-0.4843743206431379,-0.13791169602323103,0.7999999993700385,-0.0959066269872718,0.0,0.0,-0.6,0.0,0.0017342567443847656,0.006181478500366211,0
0.5737230777740479,-0.11137080192565918,0.00046886238851584494,-0.38658854365348816,0.012755864009519667,-0.4828735626219436,-0.13923694257786778,0.7999999999876178,-0.07584826843845505,0.0,0.0,-0.6,0.0,0.011183738708496094,0.01597142219543457,0
0.5915019512176514,-0.11137080192565918,0.00046886238851584494,-0.38658854365348816,0.012755864009519667,-0.4828735626219436,-0.13923694257786778,0.7999999999876178,-0.07584826843845505,0.0,0.0,-0.6,0.0,0.0015468597412109375,0.006343841552734375,0
0.6008939743041992,-0.09908220916986465,-0.0005639158189296722,-0.39946645498275757,0.010237083637985821,-0.479846496325663,-0.09658033016148045,0.7999999999988984,-0.059844263317595424,0.0,0.0,-0.6,0.0,0.009995698928833008,0.014305353164672852,0
0.6171698570251465,-0.09908220916986465,-0.0005639158189296722,-0.39946645498275757,0.010237083637985821,-0.479846496325663,-0.09658033016148045,0.7999999999988984,-0.059844263317595424,0.0,0.0,-0.6,0.0,0.0016088485717773438,0.006637096405029297,0
0.6260378360748291,-0.09099414199590683,-0.0012531279353424907,-0.4078695774078369,0.008736127557424157,-0.47956895332062255,-0.06322037719111075,0.7999999999947622,-0.05114543085905344,0.0,0.0,-0.6,0.0,0.0091552734375,0.01374363899230957,0
0.6421482563018799,-0.09099414199590683,-0.0012531279353424907,-0.4078695774078369,0.008736127557424157,-0.47956895332062255,-0.06322037719111075,0.7999999999947622,-0.05114543085905344,0.0,0.0,-0.6,0.0,0.0013599395751953125,0.0062940120697021484,0
0.6509711742401123,-0.07914148271083832,-0.0022465840447694063,-0.4200019836425781,0.006684075197138109,-0.4801821476152608,-0.026550637349154648,0.7999997726144614,-0.040333917261354824,0.0,0.0,-0.6,0.0,0.00995635986328125,0.014075517654418945,0
0.6671719551086426,-0.07914148271083832,-0.0022465840447694063,-0.4200019836425781,0.006684075197138109,-0.4801821476152608,-0.026550637349154648,0.7999997726144614,-0.040333917261354824,0.0,0.0,-0.6,0.0,0.001102447509765625,0.00641322135925293,0
0.6765909194946289,-0.07150266319513321,-0.0028154593892395496,-0.4276776611804962,0.005200408880516448,-0.48122591606742904,-0.026797175810976633,0.7837566165210197,-0.032305171303683884,0.0,0.0,-0.6,0.0,0.012560844421386719,0.016805410385131836,0
0.6952803134918213,-0.07150266319513321,-0.0028154593892395496,-0.4276776611804962,0.005200408880516448,-0.48122591606742904,-0.026797175810976633,0.7837566165210197,-0.032305171303683884,0.0,0.0,-0.6,0.0,0.0013856887817382812,0.006423234939575195,0
0.7047350406646729,-0.060425981879234314,-0.0034463396295905113,-0.43857043981552124,0.003340322158630641,-0.48127147957383143,-0.049318856556974586,0.5798791461861378,-0.020641428251792156,0.0,0.0,-0.6,0.0,0.007786273956298828,0.012314081192016602,0
0.7192127704620361,-0.060425981879234314,-0.0034463396295905113,-0.43857043981552124,0.003340322158630641,-0.48127147957383143,-0.049318856556974586,0.5798791461861378,-0.020641428251792156,0.0,0.0,-0.6,0.0,0.0013203620910644531,0.00611567497253418,0
0.7281568050384521,-0.05340924486517906,-0.003780029946938157,-0.44542863965034485,0.002274746048656611,-0.48139032247894253,-0.06285995341207924,0.40227279133087895,-0.013934779469032045,0.0,0.0,-0.6,0.0,0.006791830062866211,0.011490821838378906,0
0.7417325973510742,-0.046802736818790436,-0.0040881154127418995,-0.4519456624984741,0.0012583397241002414,-0.48203342002077054,-0.0842398443419434,0.19983540791863466,-0.007437166160512993,0.0,0.0,-0.6,0.0,0.006282806396484375,0.010803699493408203,0
0.7552249431610107,-0.046802736818790436,-0.0040881154127418995,-0.4519456624984741,0.0012583397241002414,-0.48203342002077054,-0.0842398443419434,0.19983540791863466,-0.007437166160512993,0.0,0.0,-0.6,0.0,0.001180410385131836,0.005439043045043945,0
0.7628364562988281,-0.040581170469522476,-0.0043831635266542435,-0.4581511318683624,0.0003213771832479002,-0.4823520201123557,-0.09772689106197587,0.007094045302412806,-0.0014246427301610148,0.0,0.0,-0.6,0.0,0.006999969482421875,0.011649370193481445,0
0.776547908782959,-0.040581170469522476,-0.0043831635266542435,-0.4581511318683624,0.0003213771832479002,-0.4823520201123557,-0.09772689106197587,0.007094045302412806,-0.0014246427301610148,0.0,0.0,-0.6,0.0,0.0011653900146484375,0.005217075347900391,0
0.7848896980285645,-0.03475514426827431,-0.004675229080021381,-0.46404093503952026,-0.0006731137454295304,-0.4826289918454242,-0.09753270088343885,-0.16709848517790624,0.00490613586953968,0.0,0.0,-0.6,0.0,0.006566047668457031,0.011383533477783203,0
0.7979714870452881,-0.03475514426827431,-0.004675229080021381,-0.46404093503952026,-0.0006731137454295304,-0.4826289918454242,-0.09753270088343885,-0.16709848517790624,0.00490613586953968,0.0,0.0,-0.6,0.0,0.0013468265533447266,0.006256580352783203,0
0.8072247505187988,-0.029308153316378593,-0.004957285709679127,-0.46966469287872314,-0.0015003220262747347,-0.4822897994955433,-0.0713273042981662,-0.32054169085449963,0.009959967504630312,0.0,0.0,-0.6,0.0,0.006011486053466797,0.010879278182983398,0
0.8198885917663574,-0.024332299828529358,-0.0052132620476186275,-0.47510266304016113,-0.002189774584458727,-0.48275532996461534,-0.022669716234941933,-0.45580908830287226,0.013907973641872934,0.0,0.0,-0.6,0.0,0.006743669509887695,0.010888338088989258,0
0.8331105709075928,-0.024332299828529358,-0.0052132620476186275,-0.47510266304016113,-0.002189774584458727,-0.48275532996461534,-0.022669716234941933,-0.45580908830287226,0.013907973641872934,0.0,0.0,-0.6,0.0,0.0011944770812988281,0.00590062141418457,0
0.8414866924285889,-0.01978844776749611,-0.005392478313297033,-0.48029080033302307,-0.0029258412777593184,-0.4832101624129196,0.03679221731935108,-0.5836881859201603,0.018044636527932867,0.0,0.0,-0.6,0.0,0.006068229675292969,0.010090112686157227,0
0.8535857200622559,-0.01978844776749611,-0.005392478313297033,-0.48029080033302307,-0.0029258412777593184,-0.4832101624129196,0.03679221731935108,-0.5836881859201603,0.018044636527932867,0.0,0.0,-0.6,0.0,0.001142263412475586,0.005171060562133789,0
0.8606348037719727,-0.015696730464696884,-0.005533004179596901,-0.4851595163345337,-0.003533752292381182,-0.483789672550785,0.11971351670329625,-0.7013032837655012,0.02112421181532475,0.0,0.0,-0.6,0.0,0.006917715072631836,0.01041269302368164,0
0.8737986087799072,-0.015696730464696884,-0.005533004179596901,-0.4851595163345337,-0.003533752292381182,-0.483789672550785,0.11971351670329625,-0.7013032837655012,0.02112421181532475,0.0,0.0,-0.6,0.0,0.0015730857849121094,0.0058667659759521484,0
0.8819787502288818,-0.012139144353568554,-0.005734939593821764,-0.4897393584251404,-0.004116747167866627,-0.4843558084322124,0.1793681970347376,-0.799999842844776,0.023879142185459976,0.0,0.0,-0.6,0.0,0.009343624114990234,0.013567209243774414,0
0.897845983505249,-0.012139144353568554,-0.005734939593821764,-0.4897393584251404,-0.004116747167866627,-0.4843558084322124,0.1793681970347376,-0.799999842844776,0.023879142185459976,0.0,0.0,-0.6,0.0,0.0014719963073730469,0.006635189056396484,0
0.9071111679077148,-0.009192485362291336,-0.005992882419377565,-0.4941151738166809,-0.004590143575025337,-0.4835838776231177,0.20333480274564994,-0.7999999014615812,0.02521415329527027,0.0,0.0,-0.6,0.0,0.008179187774658203,0.013080358505249023,0
0.9220218658447266,-0.009192485362291336,-0.005992882419377565,-0.4941151738166809,-0.004590143575025337,-0.4835838776231177,0.20333480274564994,-0.7999999014615812,0.02521415329527027,0.0,0.0,-0.6,0.0,0.0015285015106201172,0.0067064762115478516,0
0.9312987327575684,-0.005907578393816948,-0.006536503322422504,-0.5003279447555542,-0.005210616969973431,-0.4834433822700692,0.22313088961438113,-0.7999999997443964,0.02659212643152586,0.0,0.0,-0.6,0.0,0.00898122787475586,0.013412952423095703,0
0.9469516277313232,-0.005907578393816948,-0.006536503322422504,-0.5003279447555542,-0.005210616969973431,-0.4834433822700692,0.22313088961438113,-0.7999999997443964,0.02659212643152586,0.0,0.0,-0.6,0.0,0.001161813735961914,0.006160736083984375,0
0.9552524089813232,-0.004473702050745487,-0.007000371348112822,-0.5041509866714478,-0.005692917789604146,-0.48335343290453747,0.24569803787290176,-0.7999999983172152,0.02607221147933146,0.0,0.0,-0.6,0.0,0.008272886276245117,0.012676239013671875,0
0.9704329967498779,-0.004473702050745487,-0.007000371348112822,-0.5041509866714478,-0.005692917789604146,-0.48335343290453747,0.24569803787290176,-0.7999999983172152,0.02607221147933146,0.0,0.0,-0.6,0.0,0.0016710758209228516,0.006211519241333008,0
0.9802064895629883,-0.003486765781417489,-0.0077667199075222015,-0.5092936754226685,-0.006063170872559282,-0.4836507287577535,0.28746617979203,-0.7999999999866221,0.02397367302676865,0.0,0.0,-0.6,0.0,0.010169267654418945,0.014404296875,0
0.9963414669036865,-0.003486765781417489,-0.0077667199075222015,-0.5092936754226685,-0.006063170872559282,-0.4836507287577535,0.28746617979203,-0.7999999999866221,0.02397367302676865,0.0,0.0,-0.6,0.0,0.0015664100646972656,0.005845785140991211,0
1.0053279399871826,-0.0033650731202214956,-0.008186888881027699,-0.5122597813606262,-0.006140400218881513,-0.4852148533492052,0.2598752658663746,-0.7999999999922464,0.025933748208483837,0.0,0.0,-0.6,0.0,0.011744499206542969,0.01614069938659668,0
1.023038625717163,-0.0033650731202214956,-0.008186888881027699,-0.5122597813606262,-0.006140400218881513,-0.4852148533492052,0.2598752658663746,-0.7999999999922464,0.025933748208483837,0.0,0.0,-0.6,0.0,0.0013966560363769531,0.006502628326416016,0
1.0331168174743652,-0.0036447045858949423,-0.008705126121640205,-0.5164108872413635,-0.0060290012596853106,-0.48738590758288924,0.19340424046286392,-0.7999999999946034,0.028645771732954132,0.0,0.0,-0.6,0.0,0.009772777557373047,0.014394044876098633,0
1.0491786003112793,-0.0036447045858949423,-0.008705126121640205,-0.5164108872413635,-0.0060290012596853106,-0.48738590758288924,0.19340424046286392,-0.7999999999946034,0.028645771732954132,0.0,0.0,-0.6,0.0,0.0015511512756347656,0.006005048751831055,0
1.0575909614562988,-0.004048128612339497,-0.008923647925257683,-0.5189465880393982,-0.006074737587062897,-0.4884970464462052,0.15709607773146056,-0.7999999995639382,0.03097075256212099,0.0,0.0,-0.6,0.0,0.00860452651977539,0.012677907943725586,0
1.073563814163208,-0.004747728351503611,-0.00916195660829544,-0.5212969183921814,-0.006235085356097043,-0.49157376076137893,0.13597665505537368,-0.7999999999999925,0.03298062791264305,0.0,0.0,-0.6,0.0,0.011996746063232422,0.0160367488861084,0
1.0915329456329346,-0.004747728351503611,-0.00916195660829544,-0.5212969183921814,-0.006235085356097043,-0.49157376076137893,0.13597665505537368,-0.7999999999999925,0.03298062791264305,0.0,0.0,-0.6,0.0,0.0012097358703613281,0.00628352165222168,0
1.1001462936401367,-0.00652811536565423,-0.009537500329315662,-0.5241535902023315,-0.00665218914328869,-0.4958596168560676,0.08330971800826013,-0.7999999999907502,0.036284181806168686,0.0,0.0,-0.6,0.0,0.009818077087402344,0.01400613784790039,0
1.1166045665740967,-0.00652811536565423,-0.009537500329315662,-0.5241535902023315,-0.00665218914328869,-0.4958596168560676,0.08330971800826013,-0.7999999999907502,0.036284181806168686,0.0,0.0,-0.6,0.0,0.0016620159149169922,0.006080150604248047,0
1.1250417232513428,-0.008095947094261646,-0.009747038595378399,-0.5255792140960693,-0.006906619046356929,-0.49885623023429926,0.046782604004902924,-0.7999999999970664,0.03883643399850901,0.0,0.0,-0.6,0.0,0.009477853775024414,0.01390695571899414,0
1.1416122913360596,-0.009889855049550533,-0.009993551298975945,-0.5267488360404968,-0.007309136329265145,-0.5001181684561223,0.026825709526947523,-0.7999999999667521,0.04253497279786361,0.0,0.0,-0.6,0.0,0.008235931396484375,0.012210607528686523,0
1.1561617851257324,-0.009889855049550533,-0.009993551298975945,-0.5267488360404968,-0.007309136329265145,-0.5001181684561223,0.026825709526947523,-0.7999999999667521,0.04253497279786361,0.0,0.0,-0.6,0.0,0.0010874271392822266,0.0053098201751708984,0
1.1640386581420898,-0.011842374689877033,-0.010268676094710827,-0.5278069972991943,-0.007736468680274596,-0.5004316901532384,-0.008277111808365073,-0.7999996078982422,0.046901836857556216,0.0,0.0,-0.6,0.0,0.008214712142944336,0.012844324111938477,0
1.1796581745147705,-0.011842374689877033,-0.010268676094710827,-0.5278069972991943,-0.007736468680274596,-0.5004316901532384,-0.008277111808365073,-0.7999996078982422,0.046901836857556216,0.0,0.0,-0.6,0.0,0.0013573169708251953,0.005897045135498047,0
1.1896114349365234,-0.014832615852355957,-0.010714659467339516,-0.5293787121772766,-0.008510964610894543,-0.500586000705504,-0.05341065928814368,-0.6664717832897463,0.053252582534409176,0.0,0.0,-0.6,0.0,0.006814241409301758,0.01120448112487793,0
1.203016996383667,-0.014832615852355957,-0.010714659467339516,-0.5293787121772766,-0.008510964610894543,-0.500586000705504,-0.05341065928814368,-0.6664717832897463,0.053252582534409176,0.0,0.0,-0.6,0.0,0.0016717910766601562,0.006732940673828125,0
1.2122910022735596,-0.016787825152277946,-0.011004912666976452,-0.53041672706604,-0.009055732018091853,-0.5003833635023345,-0.08181529890509603,-0.4874607156298995,0.05690520574201471,0.0,0.0,-0.6,0.0,0.006659507751464844,0.011153936386108398,0
1.2259817123413086,-0.016787825152277946,-0.011004912666976452,-0.53041672706604,-0.009055732018091853,-0.5003833635023345,-0.08181529890509603,-0.4874607156298995,0.05690520574201471,0.0,0.0,-0.6,0.0,0.0012021064758300781,0.005936145782470703,0
1.2343883514404297,-0.01863095723092556,-0.011284591630101204,-0.5314821600914001,-0.009542891563135477,-0.4999992706108277,-0.11543931374531577,-0.285738862454959,0.06020228837098338,0.0,0.0,-0.6,0.0,0.006402492523193359,0.010904550552368164,0
1.2479074001312256,-0.01863095723092556,-0.011284591630101204,-0.5314821600914001,-0.009542891563135477,-0.4999992706108277,-0.11543931374531577,-0.285738862454959,0.06020228837098338,0.0,0.0,-0.6,0.0,0.0012774467468261719,0.005838632583618164,0
1.2555971145629883,-0.020283060148358345,-0.011552833020687103,-0.5325859189033508,-0.0100986842975373,-0.5002046333382218,-0.1456230927898584,-0.06055657114380859,0.06395638519279301,0.0,0.0,-0.6,0.0,0.005540609359741211,0.010249137878417969,0
1.2681009769439697,-0.020283060148358345,-0.011552833020687103,-0.5325859189033508,-0.0100986842975373,-0.5002046333382218,-0.1456230927898584,-0.06055657114380859,0.06395638519279301,0.0,0.0,-0.6,0.0,0.0016398429870605469,0.006424903869628906,0
1.2771284580230713,-0.022367455065250397,-0.011888626031577587,-0.5342516303062439,-0.01062404075792183,-0.5005060946947864,-0.17641638908506224,0.2695817296604191,0.06757961031454936,0.0,0.0,-0.6,0.0,0.005563497543334961,0.009940862655639648,0
1.2893214225769043,-0.022367455065250397,-0.011888626031577587,-0.5342516303062439,-0.01062404075792183,-0.5005060946947864,-0.17641638908506224,0.2695817296604191,0.06757961031454936,0.0,0.0,-0.6,0.0,0.001207590103149414,0.005462169647216797,0
1.299870252609253,-0.02353787235915661,-0.012002602219581604,-0.535270094871521,-0.010892962242351475,-0.5021827999147018,-0.1907965701388631,0.43540144887761445,0.06935166608058514,0.0,0.0,-0.6,0.0,0.005327701568603516,0.010274887084960938,0
1.3116843700408936,-0.02353787235915661,-0.012002602219581604,-0.535270094871521,-0.010892962242351475,-0.5021827999147018,-0.1907965701388631,0.43540144887761445,0.06935166608058514,0.0,0.0,-0.6,0.0,0.00140380859375,0.006028890609741211,0
1.3203294277191162,-0.02462853118777275,-0.01201792061328888,-0.5360863208770752,-0.011006578235796687,-0.5040523988811203,-0.17974546852592133,0.5504268182025273,0.07018184078733498,0.0,0.0,-0.6,0.0,0.005738496780395508,0.010061979293823242,0
1.332364559173584,-0.02462853118777275,-0.01201792061328888,-0.5360863208770752,-0.011006578235796687,-0.5040523988811203,-0.17974546852592133,0.5504268182025273,0.07018184078733498,0.0,0.0,-0.6,0.0,0.0016164779663085938,0.0057141780853271484,0
1.3406364917755127,-0.02560877427458763,-0.011981525458395481,-0.5368151068687439,-0.010960449767614013,-0.5034211762666834,-0.13578741418370036,0.659868159962256,0.07021703457446594,0.0,0.0,-0.6,0.0,0.005796194076538086,0.010853290557861328,0
1.3527445793151855,-0.02560877427458763,-0.011981525458395481,-0.5368151068687439,-0.010960449767614013,-0.5034211762666834,-0.13578741418370036,0.659868159962256,0.07021703457446594,0.0,0.0,-0.6,0.0,0.0011246204376220703,0.005294084548950195,0
1.361342430114746,-0.026293374598026276,-0.011971126310527325,-0.5375956892967224,-0.010779087756915733,-0.5027442146455903,-0.08444966145042299,0.7811568620976284,0.06942570381273441,0.0,0.0,-0.6,0.0,0.007884025573730469,0.012145280838012695,0
1.3755409717559814,-0.026293374598026276,-0.011971126310527325,-0.5375956892967224,-0.010779087756915733,-0.5027442146455903,-0.08444966145042299,0.7811568620976284,0.06942570381273441,0.0,0.0,-0.6,0.0,0.0010883808135986328,0.0054264068603515625,0
1.3837571144104004,-0.026575647294521332,-0.011899306438863277,-0.5383347868919373,-0.010409229605788325,-0.5027317569646799,-0.062257463374387194,0.7999999999999714,0.06767632001475297,0.0,0.0,-0.6,0.0,0.007801532745361328,0.011974334716796875,0
1.3971571922302246,-0.026575647294521332,-0.011899306438863277,-0.5383347868919373,-0.010409229605788325,-0.5027317569646799,-0.062257463374387194,0.7999999999999714,0.06767632001475297,0.0,0.0,-0.6,0.0,0.0011293888092041016,0.005182981491088867,0
1.4055323600769043,-0.026463938876986504,-0.011795179918408394,-0.5391027331352234,-0.009930154286373503,-0.5020423458780434,-0.025597603288140446,0.7999999603377389,0.06526914124340297,0.0,0.0,-0.6,0.0,0.008197307586669922,0.012417793273925781,0
1.420152187347412,-0.026463938876986504,-0.011795179918408394,-0.5391027331352234,-0.009930154286373503,-0.5020423458780434,-0.025597603288140446,0.7999999603377389,0.06526914124340297,0.0,0.0,-0.6,0.0,0.0014820098876953125,0.0061492919921875,0
1.4301223754882812,-0.02573530003428459,-0.011581487953662872,-0.5404689908027649,-0.009177017114323597,-0.5015588191892444,-0.01866779682553684,0.7999999917384163,0.06000698533442243,0.0,0.0,-0.6,0.0,0.008606910705566406,0.012777566909790039,0
1.4445879459381104,-0.02573530003428459,-0.011581487953662872,-0.5404689908027649,-0.009177017114323597,-0.5015588191892444,-0.01866779682553684,0.7999999917384163,0.06000698533442243,0.0,0.0,-0.6,0.0,0.0015332698822021484,0.005999565124511719,0
1.4537174701690674,-0.025039711967110634,-0.011332506313920021,-0.5413346290588379,-0.008799341333488343,-0.503437068890835,-0.034682819904215144,0.7999998337536626,0.056815970732462785,0.0,0.0,-0.6,0.0,0.00814509391784668,0.012566328048706055,0
1.4676361083984375,-0.025039711967110634,-0.011332506313920021,-0.5413346290588379,-0.008799341333488343,-0.503437068890835,-0.034682819904215144,0.7999998337536626,0.056815970732462785,0.0,0.0,-0.6,0.0,0.001622915267944336,0.0060160160064697266,0
1.4771392345428467,-0.02423115447163582,-0.011026760563254356,-0.5421754717826843,-0.008341742773155744,-0.5037148672653329,-0.04310649001260533,0.7999980948137478,0.053532230877119065,0.0,0.0,-0.6,0.0,0.008633136749267578,0.013193845748901367,0
1.4934122562408447,-0.02321436256170273,-0.010678085498511791,-0.5430604815483093,-0.007746403893073615,-0.5042024274639286,-0.05700866444099588,0.7999999998950582,0.049526631851771884,0.0,0.0,-0.6,0.0,0.007154941558837891,0.01131749153137207,0
1.5062768459320068,-0.02321436256170273,-0.010678085498511791,-0.5430604815483093,-0.007746403893073615,-0.5042024274639286,-0.05700866444099588,0.7999999998950582,0.049526631851771884,0.0,0.0,-0.6,0.0,0.0011889934539794922,0.0056018829345703125,0
1.5151751041412354,-0.022001484408974648,-0.010338367894291878,-0.5438990592956543,-0.007098852908432086,-0.5046759282538019,-0.05755713707294455,0.7970542238111282,0.045408019398185326,0.0,0.0,-0.6,0.0,0.010992050170898438,0.015542745590209961,0
1.5326826572418213,-0.020636357367038727,-0.010022992268204689,-0.5447186231613159,-0.006458755195399332,-0.504924291257544,-0.05298969058359076,0.7147051982616422,0.041302301154927085,0.0,0.0,-0.6,0.0,0.0072612762451171875,0.011692523956298828,0
1.5476188659667969,-0.020636357367038727,-0.010022992268204689,-0.5447186231613159,-0.006458755195399332,-0.504924291257544,-0.05298969058359076,0.7147051982616422,0.041302301154927085,0.0,0.0,-0.6,0.0,0.001527547836303711,0.0064697265625,0
1.5569605827331543,-0.018436137586832047,-0.009572633542120457,-0.5458455085754395,-0.005768602144588073,-0.5056422995121447,-0.03682796808909121,0.5454863220330856,0.03688500624058841,0.0,0.0,-0.6,0.0,0.00656580924987793,0.011188507080078125,0
1.5693917274475098,-0.018436137586832047,-0.009572633542120457,-0.5458455085754395,-0.005768602144588073,-0.5056422995121447,-0.03682796808909121,0.5454863220330856,0.03688500624058841,0.0,0.0,-0.6,0.0,0.0012547969818115234,0.005620479583740234,0
1.5807161331176758,-0.016937196254730225,-0.009240456856787205,-0.5464946031570435,-0.005285705809595736,-0.5063746895154319,-0.036222017916325074,0.40796190831912116,0.03377988060704083,0.0,0.0,-0.6,0.0,0.006732940673828125,0.011460542678833008,0
1.5939240455627441,-0.016937196254730225,-0.009240456856787205,-0.5464946031570435,-0.005285705809595736,-0.5063746895154319,-0.036222017916325074,0.40796190831912116,0.03377988060704083,0.0,0.0,-0.6,0.0,0.0012044906616210938,0.005234718322753906,0
1.601667881011963,-0.015429888851940632,-0.008879239670932293,-0.5470094084739685,-0.004820825624736002,-0.5069650828795172,-0.0342186757045152,0.25008506470824315,0.03081398251357779,0.0,0.0,-0.6,0.0,0.005674600601196289,0.010127544403076172,0
1.6136484146118164,-0.015429888851940632,-0.008879239670932293,-0.5470094084739685,-0.004820825624736002,-0.5069650828795172,-0.0342186757045152,0.25008506470824315,0.03081398251357779,0.0,0.0,-0.6,0.0,0.0012927055358886719,0.00638580322265625,0
1.6233267784118652,-0.013928709551692009,-0.008522908203303814,-0.5474550127983093,-0.004511037375937377,-0.5065688880169821,-0.021639618807568765,0.10294219889740154,0.028843221427956107,0.0,0.0,-0.6,0.0,0.005704164505004883,0.010336875915527344,0
1.635364055633545,-0.013928709551692009,-0.008522908203303814,-0.5474550127983093,-0.004511037375937377,-0.5065688880169821,-0.021639618807568765,0.10294219889740154,0.028843221427956107,0.0,0.0,-0.6,0.0,0.0011065006256103516,0.0057795047760009766,0
1.6442453861236572,-0.012426620349287987,-0.008259763941168785,-0.5480054616928101,-0.004270147731978719,-0.504923561995065,0.0047760149838144686,-0.05100197635948641,0.027280458692495756,0.0,0.0,-0.6,0.0,0.005244731903076172,0.009762048721313477,0
1.6560049057006836,-0.012426620349287987,-0.008259763941168785,-0.5480054616928101,-0.004270147731978719,-0.504923561995065,0.0047760149838144686,-0.05100197635948641,0.027280458692495756,0.0,0.0,-0.6,0.0,0.0015888214111328125,0.006461143493652344,0
1.6644165515899658,-0.010989404283463955,-0.008046649396419525,-0.5486050844192505,-0.0041949124032819324,-0.504963122656129,0.004357217936069674,-0.19528384998181073,0.026832230029691612,0.0,0.0,-0.6,0.0,0.005609273910522461,0.0101165771484375,0
1.6776387691497803,-0.010989404283463955,-0.008046649396419525,-0.5486050844192505,-0.0041949124032819324,-0.504963122656129,0.004357217936069674,-0.19528384998181073,0.026832230029691612,0.0,0.0,-0.6,0.0,0.0014545917510986328,0.005939006805419922,0
1.68575119972229,-0.009628714062273502,-0.007772247772663832,-0.5491132140159607,-0.004151220447336758,-0.505516703864381,-0.015548168488125744,-0.3085658413134703,0.02665574601915564,0.0,0.0,-0.6,0.0,0.005373239517211914,0.009863615036010742,0
1.6984705924987793,-0.008336191065609455,-0.007470256648957729,-0.5495682954788208,-0.004063296970437026,-0.504291273517029,0.008173759286250583,-0.37709574985151334,0.02603197243635306,0.0,0.0,-0.6,0.0,0.005635738372802734,0.009944677352905273,0
1.7107603549957275,-0.008336191065609455,-0.007470256648957729,-0.5495682954788208,-0.004063296970437026,-0.504291273517029,0.008173759286250583,-0.37709574985151334,0.02603197243635306,0.0,0.0,-0.6,0.0,0.00145721435546875,0.006467580795288086,0
1.720172643661499,-0.007202369160950184,-0.00725920544937253,-0.5502498149871826,-0.0039279279583915964,-0.5027025529315471,0.04516471298462203,-0.43267676657830334,0.025042862071624247,0.0,0.0,-0.6,0.0,0.0052947998046875,0.01007986068725586,0
1.7327888011932373,-0.007202369160950184,-0.00725920544937253,-0.5502498149871826,-0.0039279279583915964,-0.5027025529315471,0.04516471298462203,-0.43267676657830334,0.025042862071624247,0.0,0.0,-0.6,0.0,0.0014035701751708984,0.006125450134277344,0
1.7411084175109863,-0.006226365454494953,-0.007071878295391798,-0.5509649515151978,-0.0038296010845199303,-0.5029935394436897,0.07585608883706725,-0.43149453271531346,0.024291297204443597,0.0,0.0,-0.6,0.0,0.005689859390258789,0.010568380355834961,0
1.7542049884796143,-0.006226365454494953,-0.007071878295391798,-0.5509649515151978,-0.0038296010845199303,-0.5029935394436897,0.07585608883706725,-0.43149453271531346,0.024291297204443597,0.0,0.0,-0.6,0.0,0.0012154579162597656,0.006715059280395508,0
1.7629337310791016,-0.005334667395800352,-0.006955431308597326,-0.5517000555992126,-0.0035735985911497918,-0.5018307125814321,0.1397929410687937,-0.4326687636414733,0.022422893988284075,0.0,0.0,-0.6,0.0,0.005663156509399414,0.010084867477416992,0
1.7751655578613281,-0.005334667395800352,-0.006955431308597326,-0.5517000555992126,-0.0035735985911497918,-0.5018307125814321,0.1397929410687937,-0.4326687636414733,0.022422893988284075,0.0,0.0,-0.6,0.0,0.0012536048889160156,0.006267070770263672,0
1.7844908237457275,-0.004658422898501158,-0.006911998614668846,-0.5525315999984741,-0.0031750779810231795,-0.5008139883775387,0.1658624005604366,-0.47069187485072395,0.01983609989364538,0.0,0.0,-0.6,0.0,0.004670619964599609,0.009738683700561523,0
1.7960667610168457,-0.004658422898501158,-0.006911998614668846,-0.5525315999984741,-0.0031750779810231795,-0.5008139883775387,0.1658624005604366,-0.47069187485072395,0.01983609989364538,0.0,0.0,-0.6,0.0,0.0014193058013916016,0.00617527961730957,0
1.8048243522644043,-0.004225021228194237,-0.006892398465424776,-0.5533544421195984,-0.002887907745492739,-0.5000488283935757,0.18527593309691773,-0.5061592674739688,0.018007001751239197,0.0,0.0,-0.6,0.0,0.0056951045989990234,0.010132551193237305,0
1.8164823055267334,-0.004225021228194237,-0.006892398465424776,-0.5533544421195984,-0.002887907745492739,-0.5000488283935757,0.18527593309691773,-0.5061592674739688,0.018007001751239197,0.0,0.0,-0.6,0.0,0.0014755725860595703,0.00629115104675293,0
1.8261373043060303,-0.004020737949758768,-0.006918264087289572,-0.5541796684265137,-0.0025839173747911775,-0.4990305282718125,0.20410732268996767,-0.5204219080599556,0.016084283667946352,0.0,0.0,-0.6,0.0,0.005536794662475586,0.010470867156982422,0
1.8380720615386963,-0.004020737949758768,-0.006918264087289572,-0.5541796684265137,-0.0025839173747911775,-0.4990305282718125,0.20410732268996767,-0.5204219080599556,0.016084283667946352,0.0,0.0,-0.6,0.0,0.0014066696166992188,0.005949974060058594,0
1.8470957279205322,-0.0039517139084637165,-0.007015476934611797,-0.5551096796989441,-0.0022238744786278893,-0.4976750376976947,0.21798267712818695,-0.5022243361497465,0.013827786213214854,0.0,0.0,-0.6,0.0,0.005536794662475586,0.010316848754882812,0
1.8598990440368652,-0.004015127196907997,-0.0070965904742479324,-0.5560942888259888,-0.0018300862461245158,-0.49777401600661586,0.19638491030734928,-0.4571879039405407,0.011424528790788854,0.0,0.0,-0.6,0.0,0.005186796188354492,0.009338617324829102,0
1.8727202415466309,-0.004015127196907997,-0.0070965904742479324,-0.5560942888259888,-0.0018300862461245158,-0.49777401600661586,0.19638491030734928,-0.4571879039405407,0.011424528790788854,0.0,0.0,-0.6,0.0,0.001245260238647461,0.006082773208618164,0
1.8813199996948242,-0.004156524781137705,-0.007129295729100704,-0.5570243000984192,-0.0013628748807469186,-0.497938568044213,0.17011303339083414,-0.3740847363092916,0.008513802298074472,0.0,0.0,-0.6,0.0,0.005348682403564453,0.00977778434753418,0
1.8938052654266357,-0.004156524781137705,-0.007129295729100704,-0.5570243000984192,-0.0013628748807469186,-0.497938568044213,0.17011303339083414,-0.3740847363092916,0.008513802298074472,0.0,0.0,-0.6,0.0,0.001695394515991211,0.0067250728607177734,0
1.9026684761047363,-0.004400160163640976,-0.007159567903727293,-0.557990550994873,-0.0010545102181790753,-0.4973628367777939,0.14538039259326863,-0.2947065056323174,0.0066024064986732675,0.0,0.0,-0.6,0.0,0.004538536071777344,0.009449243545532227,0
1.9142436981201172,-0.004400160163640976,-0.007159567903727293,-0.557990550994873,-0.0010545102181790753,-0.4973628367777939,0.14538039259326863,-0.2947065056323174,0.0066024064986732675,0.0,0.0,-0.6,0.0,0.0011563301086425781,0.006831645965576172,0
1.9233472347259521,-0.004776671528816223,-0.007200927473604679,-0.5589557886123657,-0.0009105798364536438,-0.49723986269871523,0.11358671119552784,-0.21588437298472632,0.005735497521149753,0.0,0.0,-0.6,0.0,0.0053789615631103516,0.00991964340209961,0
1.9364089965820312,-0.005009316839277744,-0.007234236691147089,-0.5594183206558228,-0.0008143629393799961,-0.49724587617972027,0.09266821196764052,-0.17801524084155554,0.00514347840832396,0.0,0.0,-0.6,0.0,0.005364894866943359,0.009874582290649414,0
1.9495563507080078,-0.005523061379790306,-0.00732748256996274,-0.5603483319282532,-0.0005643059116878337,-0.4969366465692565,0.051969215431686026,-0.10344960980914618,0.003578634175346703,0.0,0.0,-0.6,0.0,0.005339860916137695,0.01024174690246582,0
1.9615986347198486,-0.005523061379790306,-0.00732748256996274,-0.5603483319282532,-0.0005643059116878337,-0.4969366465692565,0.051969215431686026,-0.10344960980914618,0.003578634175346703,0.0,0.0,-0.6,0.0,0.0015115737915039062,0.005925893783569336,0
1.9707832336425781,-0.006088876165449619,-0.007440126501023769,-0.5612108707427979,-0.0003142261929842722,-0.4978687737210381,0.004727914044475552,-0.052024866347260855,0.0019800903922685886,0.0,0.0,-0.6,0.0,0.0053331851959228516,0.009931802749633789,0
1.9826509952545166,-0.006088876165449619,-0.007440126501023769,-0.5612108707427979,-0.0003142261929842722,-0.4978687737210381,0.004727914044475552,-0.052024866347260855,0.0019800903922685886,0.0,0.0,-0.6,0.0,0.001329183578491211,0.006728649139404297,0
1.9910824298858643,-0.006737406365573406,-0.007567588239908218,-0.5619288682937622,-0.0001710585912848802,-0.4984401336053952,-0.029625253226801485,-0.01242581616240332,0.0010481310172381006,0.0,0.0,-0.6,0.0,0.005416154861450195,0.009933233261108398,0
2.003457546234131,-0.006737406365573406,-0.007567588239908218,-0.5619288682937622,-0.0001710585912848802,-0.4984401336053952,-0.029625253226801485,-0.01242581616240332,0.0010481310172381006,0.0,0.0,-0.6,0.0,0.0011072158813476562,0.006002664566040039,0
2.0114316940307617,-0.007442954927682877,-0.007695003412663937,-0.5625468492507935,-5.08634035586166e-05,-0.49939005152012417,-0.06862842129007941,0.020412553061780705,0.0002381022081477643,0.0,0.0,-0.6,0.0,0.005728960037231445,0.01039743423461914,0
2.024343967437744,-0.007442954927682877,-0.007695003412663937,-0.5625468492507935,-5.08634035586166e-05,-0.49939005152012417,-0.06862842129007941,0.020412553061780705,0.0002381022081477643,0.0,0.0,-0.6,0.0,0.0016260147094726562,0.006627559661865234,0
2.0333738327026367,-0.008160633035004139,-0.00774920592084527,-0.5629749298095703,-0.00013694807108435064,-0.5001139555318641,-0.1097595543650466,0.050924931396786326,0.0007353394826031189,0.0,0.0,-0.6,0.0,0.0054395198822021484,0.009940385818481445,0
2.047008514404297,-0.008506109938025475,-0.007764357607811689,-0.5631667375564575,-0.00021101352998828478,-0.5005917433860968,-0.12703973982711317,0.06266663618376933,0.0011837589128234239,0.0,0.0,-0.6,0.0,0.005602598190307617,0.009827136993408203,0
2.0601425170898438,-0.0091675641015172,-0.00774582102894783,-0.5634175539016724,-0.00031156445126135295,-0.5015883244214664,-0.16110146591004468,0.08659321603454309,0.0017790224044752553,0.0,0.0,-0.6,0.0,0.0053141117095947266,0.010002613067626953,0
2.0722246170043945,-0.0091675641015172,-0.00774582102894783,-0.5634175539016724,-0.00031156445126135295,-0.5015883244214664,-0.16110146591004468,0.08659321603454309,0.0017790224044752553,0.0,0.0,-0.6,0.0,0.001155853271484375,0.005953788757324219,0
2.081526041030884,-0.009786668233573437,-0.007686627097427845,-0.5635586380958557,-0.00047338300420982256,-0.5023066293290125,-0.17911629977678592,0.1094390137255074,0.0027992016048114543,0.0,0.0,-0.6,0.0,0.005564212799072266,0.00985407829284668,0
2.0927934646606445,-0.009786668233573437,-0.007686627097427845,-0.5635586380958557,-0.00047338300420982256,-0.5023066293290125,-0.17911629977678592,0.1094390137255074,0.0027992016048114543,0.0,0.0,-0.6,0.0,0.001211404800415039,0.005610942840576172,0
2.1016390323638916,-0.01030795183032751,-0.007559279445558786,-0.5635721683502197,-0.000683842458706287,-0.5032221048623059,-0.1946248530205172,0.1461904662912116,0.004155013984585673,0.0,0.0,-0.6,0.0,0.0049152374267578125,0.009280204772949219,0
2.112457513809204,-0.01030795183032751,-0.007559279445558786,-0.5635721683502197,-0.000683842458706287,-0.5032221048623059,-0.1946248530205172,0.1461904662912116,0.004155013984585673,0.0,0.0,-0.6,0.0,0.0015208721160888672,0.005930185317993164,0
2.1210153102874756,-0.010696780867874622,-0.007356517948210239,-0.5634708404541016,-0.0008900899588915039,-0.5034400436397773,-0.20643692418774376,0.18726521490142348,0.005493672574737511,0.0,0.0,-0.6,0.0,0.005158662796020508,0.010158300399780273,0
2.133493423461914,-0.010696780867874622,-0.007356517948210239,-0.5634708404541016,-0.0008900899588915039,-0.5034400436397773,-0.20643692418774376,0.18726521490142348,0.005493672574737511,0.0,0.0,-0.6,0.0,0.0015017986297607422,0.00652766227722168,0
2.1424195766448975,-0.01098570041358471,-0.0070929802022874355,-0.5632950663566589,-0.001175594651946121,-0.5041608914082985,-0.22334051273977593,0.22320835306347908,0.007319485202238973,0.0,0.0,-0.6,0.0,0.004919528961181641,0.00915670394897461,0
2.1537978649139404,-0.01098570041358471,-0.0070929802022874355,-0.5632950663566589,-0.001175594651946121,-0.5041608914082985,-0.22334051273977593,0.22320835306347908,0.007319485202238973,0.0,0.0,-0.6,0.0,0.0011088848114013672,0.005486488342285156,0
2.1612870693206787,-0.011208174750208855,-0.006789191626012325,-0.5630447268486023,-0.0013922684255801264,-0.5046718577242487,-0.24555421758269258,0.25263379879567677,0.008686543793913327,0.0,0.0,-0.6,0.0,0.004452705383300781,0.008232593536376953,0
2.1730926036834717,-0.011208174750208855,-0.006789191626012325,-0.5630447268486023,-0.0013922684255801264,-0.5046718577242487,-0.24555421758269258,0.25263379879567677,0.008686543793913327,0.0,0.0,-0.6,0.0,0.0012323856353759766,0.005568981170654297,0
2.180712938308716,-0.011343041434884071,-0.006435885094106197,-0.5627480149269104,-0.0016750570984962719,-0.5051004483672237,-0.27036554690997616,0.2779584230887112,0.010459321816381935,0.0,0.0,-0.6,0.0,0.0057735443115234375,0.010039806365966797,0
2.1928813457489014,-0.011343041434884071,-0.006435885094106197,-0.5627480149269104,-0.0016750570984962719,-0.5051004483672237,-0.27036554690997616,0.2779584230887112,0.010459321816381935,0.0,0.0,-0.6,0.0,0.0011646747589111328,0.005364894866943359,0
2.200343370437622,-0.01138552650809288,-0.00598869426175952,-0.5623632669448853,-0.0019293989957612483,-0.5058874297416895,-0.2953697608081605,0.29845383313042256,0.012039458497117989,0.0,0.0,-0.6,0.0,0.005711555480957031,0.009970664978027344,0
2.2123873233795166,-0.01138552650809288,-0.00598869426175952,-0.5623632669448853,-0.0019293989957612483,-0.5058874297416895,-0.2953697608081605,0.29845383313042256,0.012039458497117989,0.0,0.0,-0.6,0.0,0.0011746883392333984,0.005020618438720703,0
2.220193862915039,-0.011310548521578312,-0.005477690603584051,-0.5618919134140015,-0.002178498694824202,-0.5061553132284746,-0.29505058917023763,0.30666810482648427,0.013632435076343501,0.0,0.0,-0.6,0.0,0.00585174560546875,0.010385990142822266,0
2.232936143875122,-0.011310548521578312,-0.005477690603584051,-0.5618919134140015,-0.002178498694824202,-0.5061553132284746,-0.29505058917023763,0.30666810482648427,0.013632435076343501,0.0,0.0,-0.6,0.0,0.0015368461608886719,0.005974531173706055,0
2.2415738105773926,-0.011159582063555717,-0.004976287018507719,-0.561416745185852,-0.0023301762600394884,-0.5059255857354141,-0.275290427231153,0.29047100615813876,0.014626560661418698,0.0,0.0,-0.6,0.0,0.005659580230712891,0.009916305541992188,0
2.2529220581054688,-0.011159582063555717,-0.004976287018507719,-0.561416745185852,-0.0023301762600394884,-0.5059255857354141,-0.275290427231153,0.29047100615813876,0.014626560661418698,0.0,0.0,-0.6,0.0,0.0013148784637451172,0.006384372711181641,0
2.262406587600708,-0.010996324941515923,-0.00452064536511898,-0.5610737800598145,-0.002333353556645055,-0.5051948049637377,-0.2217453774871343,0.25019162312878346,0.014722510210879152,0.0,0.0,-0.6,0.0,0.005285739898681641,0.010183095932006836,0
2.274406909942627,-0.010996324941515923,-0.00452064536511898,-0.5610737800598145,-0.002333353556645055,-0.5051948049637377,-0.2217453774871343,0.25019162312878346,0.014722510210879152,0.0,0.0,-0.6,0.0,0.0010716915130615234,0.005224943161010742,0
2.283385753631592,-0.010847924277186394,-0.00414469838142395,-0.5608389973640442,-0.0024259891939585228,-0.5048514780220048,-0.16930968202050245,0.20105928172458806,0.015364520862873033,0.0,0.0,-0.6,0.0,0.005725383758544922,0.010552644729614258,0
2.2950634956359863,-0.010847924277186394,-0.00414469838142395,-0.5608389973640442,-0.0024259891939585228,-0.5048514780220048,-0.16930968202050245,0.20105928172458806,0.015364520862873033,0.0,0.0,-0.6,0.0,0.0010981559753417969,0.0053446292877197266,0
2.3030147552490234,-0.010703207924962044,-0.00375749240629375,-0.5606507658958435,-0.0024112641803717507,-0.5047977057903821,-0.12284694686219039,0.16098002540096545,0.015312065417664052,0.0,0.0,-0.6,0.0,0.005907773971557617,0.010327577590942383,0
2.314730644226074,-0.010703207924962044,-0.00375749240629375,-0.5606507658958435,-0.0024112641803717507,-0.5047977057903821,-0.12284694686219039,0.16098002540096545,0.015312065417664052,0.0,0.0,-0.6,0.0,0.0010709762573242188,0.005667686462402344,0
2.3233325481414795,-0.010497573763132095,-0.0033298111520707607,-0.5604902505874634,-0.0023192207005287803,-0.5050604159051336,-0.0862666136658862,0.1224443781074029,0.01475025454199254,0.0,0.0,-0.6,0.0,0.005606412887573242,0.009977579116821289,0
2.334927558898926,-0.010497573763132095,-0.0033298111520707607,-0.5604902505874634,-0.0023192207005287803,-0.5050604159051336,-0.0862666136658862,0.1224443781074029,0.01475025454199254,0.0,0.0,-0.6,0.0,0.0011382102966308594,0.006173133850097656,0
2.343546152114868,-0.010261435061693192,-0.002926412969827652,-0.5603489279747009,-0.0022965077933077716,-0.5044470874689072,-0.03102649530430198,0.08504942830700037,0.014650516783915688,0.0,0.0,-0.6,0.0,0.0054361820220947266,0.009865283966064453,0
2.355971336364746,-0.009971479885280132,-0.002563249785453081,-0.5602730512619019,-0.002358727944608352,-0.5040725521121688,0.0023110872198172983,0.05575201813149652,0.015067582853908575,0.0,0.0,-0.6,0.0,0.0054628849029541016,0.009921073913574219,0
2.3680107593536377,-0.009971479885280132,-0.002563249785453081,-0.5602730512619019,-0.002358727944608352,-0.5040725521121688,0.0023110872198172983,0.05575201813149652,0.015067582853908575,0.0,0.0,-0.6,0.0,0.0013687610626220703,0.0060901641845703125,0
2.3773906230926514,-0.009641478769481182,-0.0022037678863853216,-0.5602986812591553,-0.0023510449831996155,-0.5038344175521866,0.010884028567063116,0.018657117951119517,0.015035251914611778,0.0,0.0,-0.6,0.0,0.005441188812255859,0.009684085845947266,0
2.3886091709136963,-0.009641478769481182,-0.0022037678863853216,-0.5602986812591553,-0.0023510449831996155,-0.5038344175521866,0.010884028567063116,0.018657117951119517,0.015035251914611778,0.0,0.0,-0.6,0.0,0.0015518665313720703,0.006011962890625,0
2.3984131813049316,-0.009294574148952961,-0.0017897911602631211,-0.5603082180023193,-0.0023594949861385837,-0.503936696881406,0.00284622091650843,-0.014561472522194564,0.015112366199817871,0.0,0.0,-0.6,0.0,0.004996776580810547,0.00961923599243164,0
2.4097366333007812,-0.009294574148952961,-0.0017897911602631211,-0.5603082180023193,-0.0023594949861385837,-0.503936696881406,0.00284622091650843,-0.014561472522194564,0.015112366199817871,0.0,0.0,-0.6,0.0,0.0011327266693115234,0.005826711654663086,0
2.419696092605591,-0.008898651227355003,-0.0013644061982631683,-0.5603162050247192,-0.0023031515455253816,-0.5037029779467597,0.008364179929831945,-0.016956416908678218,0.014754740682115873,0.0,0.0,-0.6,0.0,0.005740642547607422,0.010560274124145508,0
2.4323534965515137,-0.008898651227355003,-0.0013644061982631683,-0.5603162050247192,-0.0023031515455253816,-0.5037029779467597,0.008364179929831945,-0.016956416908678218,0.014754740682115873,0.0,0.0,-0.6,0.0,0.001730203628540039,0.00685429573059082,0
2.442481517791748,-0.008407950401306152,-0.0009752695914357901,-0.5603693127632141,-0.002221439987879177,-0.5024095845366349,0.04026041497212374,-0.01337347477235533,0.01422436952745496,0.0,0.0,-0.6,0.0,0.005634784698486328,0.010271310806274414,0
2.454528570175171,-0.008407950401306152,-0.0009752695914357901,-0.5603693127632141,-0.002221439987879177,-0.5024095845366349,0.04026041497212374,-0.01337347477235533,0.01422436952745496,0.0,0.0,-0.6,0.0,0.0011334419250488281,0.005435943603515625,0
2.4627485275268555,-0.007885942235589027,-0.0006439915159717202,-0.5605431795120239,-0.002308711918175407,-0.5016960702112473,0.07945556941660138,-0.01843950152911379,0.014778840302713873,0.0,0.0,-0.6,0.0,0.005341291427612305,0.010178089141845703,0
2.475698709487915,-0.007885942235589027,-0.0006439915159717202,-0.5605431795120239,-0.002308711918175407,-0.5016960702112473,0.07945556941660138,-0.01843950152911379,0.014778840302713873,0.0,0.0,-0.6,0.0,0.0012292861938476562,0.006188631057739258,0
2.4846086502075195,-0.007150182966142893,-0.0002577760023996234,-0.560966968536377,-0.002479912034510446,-0.5012860486616117,0.12292881220413453,-0.025333314282721783,0.01587047368585635,0.0,0.0,-0.6,0.0,0.00534510612487793,0.010390520095825195,0
2.4969351291656494,-0.007150182966142893,-0.0002577760023996234,-0.560966968536377,-0.002479912034510446,-0.5012860486616117,0.12292881220413453,-0.025333314282721783,0.01587047368585635,0.0,0.0,-0.6,0.0,0.0013408660888671875,0.006010770797729492,0
2.5052132606506348,-0.006756961811333895,-6.781620322726667e-05,-0.5612664222717285,-0.0026442045876199447,-0.5010709745964007,0.13879187436433998,-0.029080199044894818,0.016919203734096847,0.0,0.0,-0.6,0.0,0.00572967529296875,0.009782791137695312,0
2.516850471496582,-0.006756961811333895,-6.781620322726667e-05,-0.5612664222717285,-0.0026442045876199447,-0.5010709745964007,0.13879187436433998,-0.029080199044894818,0.016919203734096847,0.0,0.0,-0.6,0.0,0.0012176036834716797,0.0052640438079833984,0
2.5256736278533936,-0.006597463041543961,9.255823897547089e-06,-0.5614093542098999,-0.0027448944225359853,-0.5012863158867386,0.14089088725590607,-0.026139395809908497,0.017556792481616894,0.0,0.0,-0.6,0.0,0.005259275436401367,0.010103225708007812,0
2.5383951663970947,-0.00631744833663106,0.00011447690485510975,-0.561663031578064,-0.0029564909770921333,-0.5013671207837286,0.15667921611364113,-0.015310809887762624,0.018891381831641508,0.0,0.0,-0.6,0.0,0.005041599273681641,0.009915828704833984,0
2.551234245300293,-0.00631744833663106,0.00011447690485510975,-0.561663031578064,-0.0029564909770921333,-0.5013671207837286,0.15667921611364113,-0.015310809887762624,0.018891381831641508,0.0,0.0,-0.6,0.0,0.0014846324920654297,0.006324291229248047,0
2.5599005222320557,-0.0060238903388381,0.00014397142513189465,-0.5618885159492493,-0.003205257946629795,-0.5009909425408862,0.17537248102584654,0.005283974689424643,0.020458935598191702,0.0,0.0,-0.6,0.0,0.005480289459228516,0.010650157928466797,0
2.5732102394104004,-0.0060238903388381,0.00014397142513189465,-0.5618885159492493,-0.003205257946629795,-0.5009909425408862,0.17537248102584654,0.005283974689424643,0.020458935598191702,0.0,0.0,-0.6,0.0,0.0013251304626464844,0.006422758102416992,0
2.5821282863616943,-0.005753278266638517,0.00010354148253099993,-0.5621505379676819,-0.0033597631931820762,-0.501001524489056,0.174234199581527,0.006480756899385122,0.021447835987999674,0.0,0.0,-0.6,0.0,0.005517005920410156,0.009874820709228516,0
2.5934484004974365,-0.005753278266638517,0.00010354148253099993,-0.5621505379676819,-0.0033597631931820762,-0.501001524489056,0.174234199581527,0.006480756899385122,0.021447835987999674,0.0,0.0,-0.6,0.0,0.0012679100036621094,0.006387472152709961,0
2.602954626083374,-0.005535157397389412,1.3917124306317419e-06,-0.5624375939369202,-0.0035261628250997817,-0.5004872381332678,0.1665454262187698,0.0001796040666661792,0.02251890603909325,0.0,0.0,-0.6,0.0,0.0050313472747802734,0.010281801223754883,0
2.615011692047119,-0.005535157397389412,1.3917124306317419e-06,-0.5624375939369202,-0.0035261628250997817,-0.5004872381332678,0.1665454262187698,0.0001796040666661792,0.02251890603909325,0.0,0.0,-0.6,0.0,0.0015232563018798828,0.0058383941650390625,0
2.6236660480499268,-0.005405308213084936,-0.0001405704824719578,-0.5627015829086304,-0.003661947423170619,-0.5004252418755518,0.14359107003535337,-0.024018082904019456,0.023402263417169333,0.0,0.0,-0.6,0.0,0.005484342575073242,0.010157108306884766,0
2.6363885402679443,-0.005332952830940485,-0.00031318998662754893,-0.5629242658615112,-0.003887561200961237,-0.5009037013706116,0.11576072206192829,-0.04471958943532813,0.024851661039330883,0.0,0.0,-0.6,0.0,0.00539851188659668,0.009913921356201172,0
2.6489405632019043,-0.005332952830940485,-0.00031318998662754893,-0.5629242658615112,-0.003887561200961237,-0.5009037013706116,0.11576072206192829,-0.04471958943532813,0.024851661039330883,0.0,0.0,-0.6,0.0,0.0011670589447021484,0.006134510040283203,0
2.657681465148926,-0.0052571725100278854,-0.0004884646041318774,-0.5630356073379517,-0.004021086692073322,-0.5017853777511044,0.08741887912100571,-0.05381618490023285,0.025702645850835804,0.0,0.0,-0.6,0.0,0.005116462707519531,0.010117769241333008,0
2.6703531742095947,-0.0052571725100278854,-0.0004884646041318774,-0.5630356073379517,-0.004021086692073322,-0.5017853777511044,0.08741887912100571,-0.05381618490023285,0.025702645850835804,0.0,0.0,-0.6,0.0,0.0014019012451171875,0.006073713302612305,0
2.6797327995300293,-0.005172987934201956,-0.0006717193173244596,-0.5630221962928772,-0.004015258384727626,-0.5022181329605606,0.07521168959234985,-0.07625025651053322,0.025653299418138972,0.0,0.0,-0.6,0.0,0.0051229000091552734,0.009812593460083008,0
2.691702127456665,-0.005172987934201956,-0.0006717193173244596,-0.5630221962928772,-0.004015258384727626,-0.5022181329605606,0.07521168959234985,-0.07625025651053322,0.025653299418138972,0.0,0.0,-0.6,0.0,0.0011742115020751953,0.005475521087646484,0
2.700087308883667,-0.005077258683741093,-0.0009086141944862902,-0.562969982624054,-0.0039767018159345925,-0.5026372566668389,0.0720299469865324,-0.0908220577721651,0.025387913356976953,0.0,0.0,-0.6,0.0,0.004862308502197266,0.009336471557617188,0
2.711577892303467,-0.005077258683741093,-0.0009086141944862902,-0.562969982624054,-0.0039767018159345925,-0.5026372566668389,0.0720299469865324,-0.0908220577721651,0.025387913356976953,0.0,0.0,-0.6,0.0,0.001577138900756836,0.00702667236328125,0
2.720956563949585,-0.005012775771319866,-0.0011864532716572285,-0.5628964304924011,-0.003921746701809869,-0.5025780102132965,0.0735464813155018,-0.11993876439840416,0.025013125240715656,0.0,0.0,-0.6,0.0,0.004446744918823242,0.008632898330688477,0
2.7329750061035156,-0.005015593487769365,-0.0013152668252587318,-0.5628424882888794,-0.003938825732333699,-0.5028049323068391,0.06666396989750342,-0.130645592568222,0.025111637621042914,0.0,0.0,-0.6,0.0,0.005547523498535156,0.010101795196533203,0
2.7455713748931885,-0.005059398710727692,-0.0015395489754155278,-0.5626730918884277,-0.004080650115577574,-0.5033878001023068,0.056654200377267844,-0.12825431307365381,0.026002426352885775,0.0,0.0,-0.6,0.0,0.005224943161010742,0.009401559829711914,0
2.7569544315338135,-0.005059398710727692,-0.0015395489754155278,-0.5626730918884277,-0.004080650115577574,-0.5033878001023068,0.056654200377267844,-0.12825431307365381,0.026002426352885775,0.0,0.0,-0.6,0.0,0.0012385845184326172,0.005340576171875,0
2.7642531394958496,-0.005128518678247929,-0.0017549399053677917,-0.5624459385871887,-0.004156142052462011,-0.5038536963617709,0.04781248826447639,-0.11743852149507858,0.026477271875610907,0.0,0.0,-0.6,0.0,0.004817485809326172,0.00856924057006836,0
2.774811267852783,-0.005128518678247929,-0.0017549399053677917,-0.5624459385871887,-0.004156142052462011,-0.5038536963617709,0.04781248826447639,-0.11743852149507858,0.026477271875610907,0.0,0.0,-0.6,0.0,0.0010731220245361328,0.005320072174072266,0
2.782140016555786,-0.005166193470358849,-0.0018591393018141389,-0.5622971653938293,-0.004174693764415616,-0.5042863483155621,0.041716164379710534,-0.10312560200347631,0.02660089197530896,0.0,0.0,-0.6,0.0,0.004688739776611328,0.008621931076049805,0
2.792750120162964,-0.005166193470358849,-0.0018591393018141389,-0.5622971653938293,-0.004174693764415616,-0.5042863483155621,0.041716164379710534,-0.10312560200347631,0.02660089197530896,0.0,0.0,-0.6,0.0,0.0011794567108154297,0.004582643508911133,0
2.8000881671905518,-0.005208880640566349,-0.0020675219129770994,-0.5619561076164246,-0.004242442584156362,-0.5046419259179894,0.028226084181006285,-0.0707944242646666,0.027054702448728932,0.0,0.0,-0.6,0.0,0.004856586456298828,0.008767366409301758,0
2.8102667331695557,-0.005208880640566349,-0.0020675219129770994,-0.5619561076164246,-0.004242442584156362,-0.5046419259179894,0.028226084181006285,-0.0707944242646666,0.027054702448728932,0.0,0.0,-0.6,0.0,0.0011265277862548828,0.004463672637939453,0
