time,x,y,z,yaw,throttle,roll_rate,pitch_rate,yaw_rate,x_ref,y_ref,z_ref,yaw_ref,mpc_time,ctrl_callback_time_history,metadata
2.86102294921875e-06,-0.08639370650053024,-0.0377814956009388,-0.23991017043590546,-0.06461567995960603,-0.6237111353095093,0.34395860489738267,-0.5830905819040547,0.41346954695499866,0.0,0.0,-0.6,0.0,0.014044523239135742,0.01842498779296875,Hardware
0.020489215850830078,-0.08639838546514511,-0.03776339069008827,-0.23991155624389648,-0.0646428077932941,-0.6235889103492909,0.34340451405418293,-0.5836927927569576,0.41364253287258546,0.0,0.0,-0.6,0.0,0.005270719528198242,0.009521245956420898,1x Speed
0.03214073181152344,-0.08639838546514511,-0.03776339069008827,-0.23991155624389648,-0.0646428077932941,-0.6235889103492909,0.34340451405418293,-0.5836927927569576,0.41364253287258546,0.0,0.0,-0.6,0.0,0.0010654926300048828,0.0048410892486572266,Horizon:3.0
0.03891491889953613,-0.08640015870332718,-0.03775174170732498,-0.23991462588310242,-0.0646722102193044,-0.6232170834526136,0.3340371030311268,-0.5785303724130908,0.41382490140163264,0.0,0.0,-0.6,0.0,0.0061643123626708984,0.009979248046875,Num Steps:20
0.05031847953796387,-0.08640015870332718,-0.03775174170732498,-0.23991462588310242,-0.0646722102193044,-0.6232170834526136,0.3340371030311268,-0.5785303724130908,0.41382490140163264,0.0,0.0,-0.6,0.0,0.0010981559753417969,0.00451970100402832,No Pyjoules
0.05931687355041504,-0.08640879392623901,-0.037749432027339935,-0.23997046053409576,-0.06440859032240513,-0.6226896187008845,0.33122689572994646,-0.5791571930474365,0.41214964461997666,0.0,0.0,-0.6,0.0,0.00530552864074707,0.00941920280456543,0
0.0700984001159668,-0.08640879392623901,-0.037749432027339935,-0.23997046053409576,-0.06440859032240513,-0.6226896187008845,0.33122689572994646,-0.5791571930474365,0.41214964461997666,0.0,0.0,-0.6,0.0,0.0011124610900878906,0.005060911178588867,0
0.07901144027709961,-0.0864136591553688,-0.0377657450735569,-0.2400103062391281,-0.06399014598482007,-0.6226664979138602,0.34576856086424457,-0.5795954361270252,0.4094853905121353,0.0,0.0,-0.6,0.0,0.006448030471801758,0.010554313659667969,0
0.09090948104858398,-0.0864136591553688,-0.0377657450735569,-0.2400103062391281,-0.06399014598482007,-0.6226664979138602,0.34576856086424457,-0.5795954361270252,0.4094853905121353,0.0,0.0,-0.6,0.0,0.001135110855102539,0.004990339279174805,0
0.09976339340209961,-0.08628236502408981,-0.03780870512127876,-0.240133136510849,-0.06278142570586454,-0.6226895213011917,0.3638402834059684,-0.49975420026312445,0.40174767436077014,0.0,0.0,-0.6,0.0,0.006844282150268555,0.01076650619506836,0
0.11189985275268555,-0.08628236502408981,-0.03780870512127876,-0.240133136510849,-0.06278142570586454,-0.6226895213011917,0.3638402834059684,-0.49975420026312445,0.40174767436077014,0.0,0.0,-0.6,0.0,0.0010895729064941406,0.004876375198364258,0
0.11882925033569336,-0.08597777783870697,-0.037824854254722595,-0.24032001197338104,-0.06256413977055916,-0.6214238877713988,0.35692960188813,-0.4439253297870902,0.4003600794747262,0.0,0.0,-0.6,0.0,0.006807804107666016,0.010788440704345703,0
0.13146448135375977,-0.08597777783870697,-0.037824854254722595,-0.24032001197338104,-0.06256413977055916,-0.6214238877713988,0.35692960188813,-0.4439253297870902,0.4003600794747262,0.0,0.0,-0.6,0.0,0.0011310577392578125,0.004919528961181641,0
0.1384568214416504,-0.08542001247406006,-0.03770492970943451,-0.240615576505661,-0.06200072783599678,-0.6203410025325499,0.33629852122040255,-0.30722715636457265,0.39674748865827386,0.0,0.0,-0.6,0.0,0.006811618804931641,0.010469913482666016,0
0.15115857124328613,-0.0845772922039032,-0.03752414882183075,-0.24116291105747223,-0.060131987604495785,-0.6173899963284255,0.26651651469283166,-0.26067793038881715,0.3847776413612294,0.0,0.0,-0.6,0.0,0.006638765335083008,0.01028132438659668,0
0.16332697868347168,-0.0845772922039032,-0.03752414882183075,-0.24116291105747223,-0.060131987604495785,-0.6173899963284255,0.26651651469283166,-0.26067793038881715,0.3847776413612294,0.0,0.0,-0.6,0.0,0.0011065006256103516,0.004885673522949219,0
0.17031145095825195,-0.08342163264751434,-0.037224866449832916,-0.24228112399578094,-0.05729721822887344,-0.6104850900578108,0.16760558170956583,-0.1588212683022109,0.36659052982687396,0.0,0.0,-0.6,0.0,0.006799221038818359,0.010498762130737305,0
0.18219399452209473,-0.08342163264751434,-0.037224866449832916,-0.24228112399578094,-0.05729721822887344,-0.6104850900578108,0.16760558170956583,-0.1588212683022109,0.36659052982687396,0.0,0.0,-0.6,0.0,0.0011286735534667969,0.004894733428955078,0
0.1895592212677002,-0.08204568922519684,-0.036761682480573654,-0.24391651153564453,-0.053793406266290075,-0.6071573590969155,0.07739621518633025,-0.013015238239806952,0.34413032574475944,0.0,0.0,-0.6,0.0,0.006592512130737305,0.010528326034545898,0
0.2019214630126953,-0.08204568922519684,-0.036761682480573654,-0.24391651153564453,-0.053793406266290075,-0.6071573590969155,0.07739621518633025,-0.013015238239806952,0.34413032574475944,0.0,0.0,-0.6,0.0,0.0011494159698486328,0.0049896240234375,0
0.20957303047180176,-0.08127762377262115,-0.036509592086076736,-0.24490728974342346,-0.05170210137270697,-0.6042514428996687,0.017684377193165755,0.04208009033829979,0.3306909370528527,0.0,0.0,-0.6,0.0,0.00640559196472168,0.010255098342895508,0
0.2217252254486084,-0.07964445650577545,-0.03594392538070679,-0.24743473529815674,-0.046841799020232285,-0.5999363913065164,-0.026739675744847948,0.1638863413651242,0.29962063495871905,0.0,0.0,-0.6,0.0,0.006649017333984375,0.010376691818237305,0
0.2335820198059082,-0.07964445650577545,-0.03594392538070679,-0.24743473529815674,-0.046841799020232285,-0.5999363913065164,-0.026739675744847948,0.1638863413651242,0.29962063495871905,0.0,0.0,-0.6,0.0,0.0010578632354736328,0.0052607059478759766,0
0.24109625816345215,-0.07794813811779022,-0.035296883434057236,-0.2504958212375641,-0.04155151265778587,-0.5947348155785058,-0.09688979798960627,0.26412254937950563,0.2657550914321638,0.0,0.0,-0.6,0.0,0.005756855010986328,0.009685039520263672,0
0.2520771026611328,-0.07794813811779022,-0.035296883434057236,-0.2504958212375641,-0.04155151265778587,-0.5947348155785058,-0.09688979798960627,0.26412254937950563,0.2657550914321638,0.0,0.0,-0.6,0.0,0.0010993480682373047,0.004776954650878906,0
0.25923776626586914,-0.0762297734618187,-0.034536030143499374,-0.2540377080440521,-0.035605160022230554,-0.5879796642513001,-0.17688168112157207,0.33434906628824407,0.2276320816563783,0.0,0.0,-0.6,0.0,0.00562739372253418,0.009474039077758789,0
0.270111083984375,-0.0762297734618187,-0.034536030143499374,-0.2540377080440521,-0.035605160022230554,-0.5879796642513001,-0.17688168112157207,0.33434906628824407,0.2276320816563783,0.0,0.0,-0.6,0.0,0.0010898113250732422,0.004941701889038086,0
0.27908945083618164,-0.07448867708444595,-0.03371359780430794,-0.25823286175727844,-0.028960617451384726,-0.5825261243661161,-0.26148295720936227,0.5039515265214042,0.1852014124363007,0.0,0.0,-0.6,0.0,0.006758689880371094,0.010745525360107422,0
0.29128217697143555,-0.07448867708444595,-0.03371359780430794,-0.25823286175727844,-0.028960617451384726,-0.5825261243661161,-0.26148295720936227,0.5039515265214042,0.1852014124363007,0.0,0.0,-0.6,0.0,0.0011186599731445312,0.0048253536224365234,0
0.2992987632751465,-0.07359816133975983,-0.033227432519197464,-0.2605924606323242,-0.025506099558784898,-0.5782298990996694,-0.3289414221455987,0.5776220787864684,0.16303816240916943,0.0,0.0,-0.6,0.0,0.006465911865234375,0.010379791259765625,0
0.3116779327392578,-0.07158203423023224,-0.032156966626644135,-0.26578447222709656,-0.01881253572272116,-0.5721010094135752,-0.4562869201858817,0.7208800296260615,0.12010666112572395,0.0,0.0,-0.6,0.0,0.008780956268310547,0.012635469436645508,0
0.3257009983062744,-0.07158203423023224,-0.032156966626644135,-0.26578447222709656,-0.01881253572272116,-0.5721010094135752,-0.4562869201858817,0.7208800296260615,0.12010666112572395,0.0,0.0,-0.6,0.0,0.0010690689086914062,0.004886627197265625,0
0.3330800533294678,-0.06957951188087463,-0.030995644629001617,-0.2714216709136963,-0.011956187874673192,-0.56677176535781,-0.5989638820215425,0.7041146786977176,0.07564093383032765,0.0,0.0,-0.6,0.0,0.007527828216552734,0.011446714401245117,0
0.3459007740020752,-0.06957951188087463,-0.030995644629001617,-0.2714216709136963,-0.011956187874673192,-0.56677176535781,-0.5989638820215425,0.7041146786977176,0.07564093383032765,0.0,0.0,-0.6,0.0,0.0010755062103271484,0.005102872848510742,0
0.3535013198852539,-0.06768196076154709,-0.029804345220327377,-0.27758580446243286,-0.004816083875629891,-0.5609768543664797,-0.625072414565473,0.6493949590152736,0.029792878579158168,0.0,0.0,-0.6,0.0,0.006131172180175781,0.009978532791137695,0
0.36490845680236816,-0.06768196076154709,-0.029804345220327377,-0.27758580446243286,-0.004816083875629891,-0.5609768543664797,-0.625072414565473,0.6493949590152736,0.029792878579158168,0.0,0.0,-0.6,0.0,0.0010597705841064453,0.0050351619720458984,0
0.3723452091217041,-0.06588239222764969,-0.028705261647701263,-0.28408926725387573,0.0023335223315102084,-0.557201523663345,-0.6042373129941138,0.5627017031780643,-0.015989283391163307,0.0,0.0,-0.6,0.0,0.00647425651550293,0.010546445846557617,0
0.38424134254455566,-0.06588239222764969,-0.028705261647701263,-0.28408926725387573,0.0023335223315102084,-0.557201523663345,-0.6042373129941138,0.5627017031780643,-0.015989283391163307,0.0,0.0,-0.6,0.0,0.0010936260223388672,0.005059957504272461,0
0.3917703628540039,-0.0642087534070015,-0.027644777670502663,-0.2908737361431122,0.009506521485777245,-0.5533588271805493,-0.5664051915464453,0.5289983334345975,-0.06165090805683673,0.0,0.0,-0.6,0.0,0.005448341369628906,0.009256362915039062,0
0.4029273986816406,-0.0642087534070015,-0.027644777670502663,-0.2908737361431122,0.009506521485777245,-0.5533588271805493,-0.5664051915464453,0.5289983334345975,-0.06165090805683673,0.0,0.0,-0.6,0.0,0.001127481460571289,0.004994869232177734,0
0.4104459285736084,-0.06256259977817535,-0.026658277958631516,-0.297916978597641,0.016571972054365537,-0.5497329995920572,-0.4434882274570221,0.44801711759403084,-0.10647635459318884,0.0,0.0,-0.6,0.0,0.006712436676025391,0.010586738586425781,0
0.4224405288696289,-0.06256259977817535,-0.026658277958631516,-0.297916978597641,0.016571972054365537,-0.5497329995920572,-0.4434882274570221,0.44801711759403084,-0.10647635459318884,0.0,0.0,-0.6,0.0,0.0010728836059570312,0.004866600036621094,0
0.4293971061706543,-0.060868341475725174,-0.02567736804485321,-0.3050605058670044,0.023507656025819928,-0.5476362910324931,-0.33707598951303464,0.4441048248021038,-0.1504491700668293,0.0,0.0,-0.6,0.0,0.006029367446899414,0.009999990463256836,0
0.44138121604919434,-0.060868341475725174,-0.02567736804485321,-0.3050605058670044,0.023507656025819928,-0.5476362910324931,-0.33707598951303464,0.4441048248021038,-0.1504491700668293,0.0,0.0,-0.6,0.0,0.0010709762573242188,0.00491642951965332,0
0.4494345188140869,-0.05907326191663742,-0.024817660450935364,-0.3122011125087738,0.030183499071145033,-0.5451311283496275,-0.1924916417601679,0.3190725677251039,-0.19302414806466167,0.0,0.0,-0.6,0.0,0.0070722103118896484,0.010911226272583008,0
0.4616971015930176,-0.05907326191663742,-0.024817660450935364,-0.3122011125087738,0.030183499071145033,-0.5451311283496275,-0.1924916417601679,0.3190725677251039,-0.19302414806466167,0.0,0.0,-0.6,0.0,0.0011179447174072266,0.0049593448638916016,0
0.4688570499420166,-0.05736561492085457,-0.023941796272993088,-0.3192846179008484,0.03655844937332968,-0.5442357026756958,-0.1504511839798002,0.23973169415827875,-0.23382402532333665,0.0,0.0,-0.6,0.0,0.005263328552246094,0.009010076522827148,0
0.47980833053588867,-0.05736561492085457,-0.023941796272993088,-0.3192846179008484,0.03655844937332968,-0.5442357026756958,-0.1504511839798002,0.23973169415827875,-0.23382402532333665,0.0,0.0,-0.6,0.0,0.00109100341796875,0.004860401153564453,0
0.48931336402893066,-0.05563605949282646,-0.02321682684123516,-0.3262331485748291,0.042454404897907444,-0.543177737655032,-0.03192655375395152,0.08465754991269986,-0.2714483415432586,0.0,0.0,-0.6,0.0,0.0063512325286865234,0.010549545288085938,0
0.5017094612121582,-0.05563605949282646,-0.02321682684123516,-0.3262331485748291,0.042454404897907444,-0.543177737655032,-0.03192655375395152,0.08465754991269986,-0.2714483415432586,0.0,0.0,-0.6,0.0,0.0010638236999511719,0.004718780517578125,0
0.5092000961303711,-0.053967054933309555,-0.022501351311802864,-0.3330501616001129,0.047764163378141954,-0.5411359696403146,-0.010785370390372747,0.043505993626833814,-0.30536108640703835,0.0,0.0,-0.6,0.0,0.00642848014831543,0.010528802871704102,0
0.5211284160614014,-0.053967054933309555,-0.022501351311802864,-0.3330501616001129,0.047764163378141954,-0.5411359696403146,-0.010785370390372747,0.043505993626833814,-0.30536108640703835,0.0,0.0,-0.6,0.0,0.0010752677917480469,0.004939079284667969,0
0.528925895690918,-0.052267443388700485,-0.021832091733813286,-0.3398727476596832,0.05255113662314139,-0.5383069820590227,0.08852261130135328,-0.023715444783472508,-0.33590136184199243,0.0,0.0,-0.6,0.0,0.005464315414428711,0.009807586669921875,0
0.5399250984191895,-0.052267443388700485,-0.021832091733813286,-0.3398727476596832,0.05255113662314139,-0.5383069820590227,0.08852261130135328,-0.023715444783472508,-0.33590136184199243,0.0,0.0,-0.6,0.0,0.001104116439819336,0.004874467849731445,0
0.5487637519836426,-0.05065358430147171,-0.021164370700716972,-0.3465879559516907,0.056861885086494625,-0.5374232525094521,0.12981416422382697,-0.047902211338233386,-0.36346073226021863,0.0,0.0,-0.6,0.0,0.0052258968353271484,0.009258031845092773,0
0.5593533515930176,-0.05065358430147171,-0.021164370700716972,-0.3465879559516907,0.056861885086494625,-0.5374232525094521,0.12981416422382697,-0.047902211338233386,-0.36346073226021863,0.0,0.0,-0.6,0.0,0.0011441707611083984,0.0048978328704833984,0
0.5684642791748047,-0.04906032606959343,-0.0205424465239048,-0.3531445562839508,0.060761662621413526,-0.5365950435985248,0.25088359908731817,-0.06811760873901565,-0.3884928874863342,0.0,0.0,-0.6,0.0,0.0065495967864990234,0.010468006134033203,0
0.5804812908172607,-0.04906032606959343,-0.0205424465239048,-0.3531445562839508,0.060761662621413526,-0.5365950435985248,0.25088359908731817,-0.06811760873901565,-0.3884928874863342,0.0,0.0,-0.6,0.0,0.0010807514190673828,0.004967451095581055,0
0.5887863636016846,-0.04746352508664131,-0.019970519468188286,-0.3596140742301941,0.06444158429939685,-0.5357881016689854,0.3880548556147729,-0.11041474881008823,-0.4121257432600678,0.0,0.0,-0.6,0.0,0.006201028823852539,0.010113000869750977,0
0.6011254787445068,-0.04746352508664131,-0.019970519468188286,-0.3596140742301941,0.06444158429939685,-0.5357881016689854,0.3880548556147729,-0.11041474881008823,-0.4121257432600678,0.0,0.0,-0.6,0.0,0.0011043548583984375,0.0052030086517333984,0
0.6093213558197021,-0.04597612842917442,-0.019470812752842903,-0.36605173349380493,0.06770393195072638,-0.5350688102461266,0.4685030704089505,-0.17851282326421344,-0.43295949463320654,0.0,0.0,-0.6,0.0,0.0053827762603759766,0.009409427642822266,0
0.6201763153076172,-0.04597612842917442,-0.019470812752842903,-0.36605173349380493,0.06770393195072638,-0.5350688102461266,0.4685030704089505,-0.17851282326421344,-0.43295949463320654,0.0,0.0,-0.6,0.0,0.001062631607055664,0.004895210266113281,0
0.6289632320404053,-0.044495925307273865,-0.01903166063129902,-0.3724493384361267,0.07060052279118628,-0.5333385979145485,0.44559475997749703,-0.1641455123233404,-0.4515091385043548,0.0,0.0,-0.6,0.0,0.005491733551025391,0.009391546249389648,0
0.6397879123687744,-0.044495925307273865,-0.01903166063129902,-0.3724493384361267,0.07060052279118628,-0.5333385979145485,0.44559475997749703,-0.1641455123233404,-0.4515091385043548,0.0,0.0,-0.6,0.0,0.0010900497436523438,0.004775047302246094,0
0.6488661766052246,-0.043100085109472275,-0.018647395074367523,-0.3786661922931671,0.07310242395248595,-0.5329572587452341,0.3698207963136351,-0.17851687007448258,-0.46737954094296386,0.0,0.0,-0.6,0.0,0.005842685699462891,0.010581493377685547,0
0.660994291305542,-0.043100085109472275,-0.018647395074367523,-0.3786661922931671,0.07310242395248595,-0.5329572587452341,0.3698207963136351,-0.17851687007448258,-0.46737954094296386,0.0,0.0,-0.6,0.0,0.0010311603546142578,0.004814863204956055,0
0.6687982082366943,-0.041813839226961136,-0.01837032102048397,-0.3848005533218384,0.07532108736097204,-0.5301890988933379,0.3096252651737283,-0.20321993362245297,-0.4814456443293739,0.0,0.0,-0.6,0.0,0.005299091339111328,0.009325981140136719,0
0.6795063018798828,-0.041813839226961136,-0.01837032102048397,-0.3848005533218384,0.07532108736097204,-0.5301890988933379,0.3096252651737283,-0.20321993362245297,-0.4814456443293739,0.0,0.0,-0.6,0.0,0.0010876655578613281,0.005003452301025391,0
0.6897029876708984,-0.03999458998441696,-0.017965978011488914,-0.3937843143939972,0.07780387997751093,-0.5310798934486887,0.33150521985240394,-0.20694269213965436,-0.4974085145981768,0.0,0.0,-0.6,0.0,0.005651235580444336,0.009914159774780273,0
0.7017998695373535,-0.03999458998441696,-0.017965978011488914,-0.3937843143939972,0.07780387997751093,-0.5310798934486887,0.33150521985240394,-0.20694269213965436,-0.4974085145981768,0.0,0.0,-0.6,0.0,0.0010859966278076172,0.004724025726318359,0
0.7090811729431152,-0.03951670601963997,-0.017864860594272614,-0.39671239256858826,0.07856500305687444,-0.5307859307688182,0.26454174100685734,-0.2086159449417078,-0.5022370190231468,0.0,0.0,-0.6,0.0,0.005330324172973633,0.009155988693237305,0
0.7195777893066406,-0.03951670601963997,-0.017864860594272614,-0.39671239256858826,0.07856500305687444,-0.5307859307688182,0.26454174100685734,-0.2086159449417078,-0.5022370190231468,0.0,0.0,-0.6,0.0,0.0010828971862792969,0.004983425140380859,0
0.729602575302124,-0.03790456801652908,-0.01762913540005684,-0.40536466240882874,0.08011466434734636,-0.5295252880856132,0.185625565133894,-0.15869260142709443,-0.5122152851576226,0.0,0.0,-0.6,0.0,0.00527644157409668,0.009483575820922852,0
0.7404255867004395,-0.03790456801652908,-0.01762913540005684,-0.40536466240882874,0.08011466434734636,-0.5295252880856132,0.185625565133894,-0.15869260142709443,-0.5122152851576226,0.0,0.0,-0.6,0.0,0.001058816909790039,0.004879474639892578,0
0.7485952377319336,-0.03744453191757202,-0.01760271191596985,-0.40809178352355957,0.08050027048828241,-0.5309547582659888,0.134883210754848,-0.15010715846062128,-0.5146786693033903,0.0,0.0,-0.6,0.0,0.005177974700927734,0.009232044219970703,0
0.7593088150024414,-0.03744453191757202,-0.01760271191596985,-0.40809178352355957,0.08050027048828241,-0.5309547582659888,0.134883210754848,-0.15010715846062128,-0.5146786693033903,0.0,0.0,-0.6,0.0,0.0011057853698730469,0.004892587661743164,0
0.7687466144561768,-0.03621477261185646,-0.017712516710162163,-0.4160991609096527,0.08127376823520567,-0.5279125851829813,0.06361977400873679,0.017420076860614524,-0.5196830768911976,0.0,0.0,-0.6,0.0,0.00528264045715332,0.009348630905151367,0
0.7794833183288574,-0.03621477261185646,-0.017712516710162163,-0.4160991609096527,0.08127376823520567,-0.5279125851829813,0.06361977400873679,0.017420076860614524,-0.5196830768911976,0.0,0.0,-0.6,0.0,0.0011544227600097656,0.004838705062866211,0
0.7893674373626709,-0.03533528000116348,-0.017778148874640465,-0.4213024377822876,0.08119989108194291,-0.5299095608222751,0.052830147078768895,-0.021306487305968954,-0.5192138295958922,0.0,0.0,-0.6,0.0,0.005269050598144531,0.009349584579467773,0
0.8007805347442627,-0.03533528000116348,-0.017778148874640465,-0.4213024377822876,0.08119989108194291,-0.5299095608222751,0.052830147078768895,-0.021306487305968954,-0.5192138295958922,0.0,0.0,-0.6,0.0,0.0010619163513183594,0.004927873611450195,0
0.8089911937713623,-0.034707654267549515,-0.01787959225475788,-0.42611855268478394,0.08091503960552392,-0.5320809110441175,-0.017881368764312823,-0.02403579058156532,-0.5174425310190196,0.0,0.0,-0.6,0.0,0.005297660827636719,0.009135723114013672,0
0.8194735050201416,-0.034707654267549515,-0.01787959225475788,-0.42611855268478394,0.08091503960552392,-0.5320809110441175,-0.017881368764312823,-0.02403579058156532,-0.5174425310190196,0.0,0.0,-0.6,0.0,0.001104593276977539,0.004902362823486328,0
0.8286595344543457,-0.034383680671453476,-0.01799573190510273,-0.4284757077693939,0.08085099180937348,-0.5315589246578395,-0.007090759455774512,-0.038163181710773694,-0.5170491473178008,0.0,0.0,-0.6,0.0,0.005222320556640625,0.009062051773071289,0
0.8391108512878418,-0.034383680671453476,-0.01799573190510273,-0.4284757077693939,0.08085099180937348,-0.5315589246578395,-0.007090759455774512,-0.038163181710773694,-0.5170491473178008,0.0,0.0,-0.6,0.0,0.001104593276977539,0.004724025726318359,0
0.8493127822875977,-0.03332602232694626,-0.018185775727033615,-0.4352872371673584,0.08007105899540853,-0.5322085234778748,-0.0464449990328827,0.06467729929301096,-0.5119950543716182,0.0,0.0,-0.6,0.0,0.005394935607910156,0.009234189987182617,0
0.8599791526794434,-0.03332602232694626,-0.018185775727033615,-0.4352872371673584,0.08007105899540853,-0.5322085234778748,-0.0464449990328827,0.06467729929301096,-0.5119950543716182,0.0,0.0,-0.6,0.0,0.0010673999786376953,0.004826545715332031,0
0.8694686889648438,-0.032761216163635254,-0.018373355269432068,-0.43947088718414307,0.0792875169777253,-0.5343213519132993,-0.14528283267180744,0.05385735197915039,-0.5071324677166269,0.0,0.0,-0.6,0.0,0.005198955535888672,0.009115934371948242,0
0.8800179958343506,-0.032761216163635254,-0.018373355269432068,-0.43947088718414307,0.0792875169777253,-0.5343213519132993,-0.14528283267180744,0.05385735197915039,-0.5071324677166269,0.0,0.0,-0.6,0.0,0.0010886192321777344,0.004885196685791016,0
0.888474702835083,-0.0322355292737484,-0.01862388104200363,-0.44341906905174255,0.07850690516330014,-0.5339605967824618,-0.14845141850685661,0.14576365356031698,-0.5020125232741054,0.0,0.0,-0.6,0.0,0.005451679229736328,0.009365558624267578,0
0.9002485275268555,-0.0322355292737484,-0.01862388104200363,-0.44341906905174255,0.07850690516330014,-0.5339605967824618,-0.14845141850685661,0.14576365356031698,-0.5020125232741054,0.0,0.0,-0.6,0.0,0.0010559558868408203,0.004881381988525391,0
0.9086055755615234,-0.031721603125333786,-0.01879846304655075,-0.4471713900566101,0.07753533011709307,-0.5343648317611945,-0.15669035158159791,0.21419420624925264,-0.4957031222848343,0.0,0.0,-0.6,0.0,0.005242586135864258,0.009132146835327148,0
0.9190952777862549,-0.031721603125333786,-0.01879846304655075,-0.4471713900566101,0.07753533011709307,-0.5343648317611945,-0.15669035158159791,0.21419420624925264,-0.4957031222848343,0.0,0.0,-0.6,0.0,0.0011112689971923828,0.0048503875732421875,0
0.9285969734191895,-0.031252067536115646,-0.018972178921103477,-0.4506799876689911,0.0763753891276992,-0.5352972065081437,-0.17752287805937436,0.14551903145352596,-0.4884558352296798,0.0,0.0,-0.6,0.0,0.005319118499755859,0.009211540222167969,0
0.9391613006591797,-0.031252067536115646,-0.018972178921103477,-0.4506799876689911,0.0763753891276992,-0.5352972065081437,-0.17752287805937436,0.14551903145352596,-0.4884558352296798,0.0,0.0,-0.6,0.0,0.001134634017944336,0.004868268966674805,0
0.9487273693084717,-0.030811723321676254,-0.019101129844784737,-0.45402151346206665,0.0752271770290706,-0.5363758648182764,-0.10833635850061302,0.16065357633583136,-0.48097034568879865,0.0,0.0,-0.6,0.0,0.0054318904876708984,0.009315013885498047,0
0.9593901634216309,-0.030811723321676254,-0.019101129844784737,-0.45402151346206665,0.0752271770290706,-0.5363758648182764,-0.10833635850061302,0.16065357633583136,-0.48097034568879865,0.0,0.0,-0.6,0.0,0.0010998249053955078,0.004847526550292969,0
0.9688849449157715,-0.030371790751814842,-0.01920463889837265,-0.45724889636039734,0.07409817578448703,-0.5374030733676188,-0.11153219488440025,0.10505034100469747,-0.47385517447640285,0.0,0.0,-0.6,0.0,0.005402565002441406,0.009383440017700195,0
0.9795424938201904,-0.030371790751814842,-0.01920463889837265,-0.45724889636039734,0.07409817578448703,-0.5374030733676188,-0.11153219488440025,0.10505034100469747,-0.47385517447640285,0.0,0.0,-0.6,0.0,0.0011146068572998047,0.004927158355712891,0
0.9890024662017822,-0.02999618835747242,-0.01925288327038288,-0.4602433741092682,0.07287934177926904,-0.5385047812562757,-0.13492586107973434,0.0532082572052595,-0.46617802483313736,0.0,0.0,-0.6,0.0,0.005319833755493164,0.009525060653686523,0
1.0003609657287598,-0.02999618835747242,-0.01925288327038288,-0.4602433741092682,0.07287934177926904,-0.5385047812562757,-0.13492586107973434,0.0532082572052595,-0.46617802483313736,0.0,0.0,-0.6,0.0,0.0011165142059326172,0.004851341247558594,0
1.0085887908935547,-0.029651187360286713,-0.019300144165754318,-0.4630735516548157,0.07153941062594318,-0.5372784173700715,-0.08584351913039595,0.10167252770031134,-0.4574518916035589,0.0,0.0,-0.6,0.0,0.0054857730865478516,0.009238958358764648,0
1.019141674041748,-0.029651187360286713,-0.019300144165754318,-0.4630735516548157,0.07153941062594318,-0.5372784173700715,-0.08584351913039595,0.10167252770031134,-0.4574518916035589,0.0,0.0,-0.6,0.0,0.001191854476928711,0.0051000118255615234,0
1.0287549495697021,-0.029286356642842293,-0.019241537898778915,-0.4658234417438507,0.07003615492016241,-0.5376627539641575,-0.1414997369574138,0.13324244847981623,-0.44788178040731147,0.0,0.0,-0.6,0.0,0.005316019058227539,0.009145259857177734,0
1.039179801940918,-0.029286356642842293,-0.019241537898778915,-0.4658234417438507,0.07003615492016241,-0.5376627539641575,-0.1414997369574138,0.13324244847981623,-0.44788178040731147,0.0,0.0,-0.6,0.0,0.0010983943939208984,0.004694700241088867,0
1.0486352443695068,-0.028866233304142952,-0.019133545458316803,-0.4683716893196106,0.06859600437063204,-0.538475339768518,-0.14105981304348203,0.1159404897096357,-0.4386935525414755,0.0,0.0,-0.6,0.0,0.0046405792236328125,0.008478641510009766,0
1.0585522651672363,-0.028866233304142952,-0.019133545458316803,-0.4683716893196106,0.06859600437063204,-0.538475339768518,-0.14105981304348203,0.1159404897096357,-0.4386935525414755,0.0,0.0,-0.6,0.0,0.0011012554168701172,0.004911184310913086,0
1.0686273574829102,-0.02850482612848282,-0.01899205893278122,-0.4706881046295166,0.06734328576540591,-0.54011990416645,-0.06928783912966774,0.11234486825724245,-0.43059277699330256,0.0,0.0,-0.6,0.0,0.005549430847167969,0.00940084457397461,0
1.0793750286102295,-0.02850482612848282,-0.01899205893278122,-0.4706881046295166,0.06734328576540591,-0.54011990416645,-0.06928783912966774,0.11234486825724245,-0.43059277699330256,0.0,0.0,-0.6,0.0,0.0011410713195800781,0.00513768196105957,0
1.0886330604553223,-0.028111249208450317,-0.018840577453374863,-0.4729544222354889,0.06580111265029848,-0.5405079356627814,-0.03603865923659468,0.06920415537074018,-0.42073010689085255,0.0,0.0,-0.6,0.0,0.004433155059814453,0.008265495300292969,0
1.1003470420837402,-0.027866005897521973,-0.018710117787122726,-0.47404253482818604,0.0650542771616807,-0.540174491984513,-0.023774550243811525,0.08664293265318827,-0.41592849268466436,0.0,0.0,-0.6,0.0,0.004518032073974609,0.008640766143798828,0
1.1103920936584473,-0.027866005897521973,-0.018710117787122726,-0.47404253482818604,0.0650542771616807,-0.540174491984513,-0.023774550243811525,0.08664293265318827,-0.41592849268466436,0.0,0.0,-0.6,0.0,0.001062631607055664,0.0048639774322509766,0
1.1185033321380615,-0.027323605492711067,-0.018455354496836662,-0.47612807154655457,0.06369144553519444,-0.542464116312744,-0.05045882206610948,-0.0005895928894239162,-0.40729836318103463,0.0,0.0,-0.6,0.0,0.005438566207885742,0.00934290885925293,0
1.129371166229248,-0.027323605492711067,-0.018455354496836662,-0.47612807154655457,0.06369144553519444,-0.542464116312744,-0.05045882206610948,-0.0005895928894239162,-0.40729836318103463,0.0,0.0,-0.6,0.0,0.001062154769897461,0.0050084590911865234,0
1.138679027557373,-0.02694668062031269,-0.018195750191807747,-0.477952778339386,0.06225654635247134,-0.5438961469876867,0.0005113578597358912,0.006391448904672694,-0.3980565136093305,0.0,0.0,-0.6,0.0,0.0049097537994384766,0.009162425994873047,0
1.1495895385742188,-0.02694668062031269,-0.018195750191807747,-0.477952778339386,0.06225654635247134,-0.5438961469876867,0.0005113578597358912,0.006391448904672694,-0.3980565136093305,0.0,0.0,-0.6,0.0,0.0013239383697509766,0.0056056976318359375,0
1.1591441631317139,-0.026602663099765778,-0.01794583909213543,-0.47967490553855896,0.06071061751118014,-0.5425440793633702,0.003941689173265018,0.05394407539332246,-0.38815401217342094,0.0,0.0,-0.6,0.0,0.005112171173095703,0.009027719497680664,0
1.1695587635040283,-0.026602663099765778,-0.01794583909213543,-0.47967490553855896,0.06071061751118014,-0.5425440793633702,0.003941689173265018,0.05394407539332246,-0.38815401217342094,0.0,0.0,-0.6,0.0,0.0010874271392822266,0.004907369613647461,0
1.1784987449645996,-0.026227254420518875,-0.017592599615454674,-0.4812808334827423,0.05901539462118387,-0.5427726594910856,-0.08584463610593915,0.056029600478408506,-0.3774001807635116,0.0,0.0,-0.6,0.0,0.005342245101928711,0.009152650833129883,0
1.1890983581542969,-0.026227254420518875,-0.017592599615454674,-0.4812808334827423,0.05901539462118387,-0.5427726594910856,-0.08584463610593915,0.056029600478408506,-0.3774001807635116,0.0,0.0,-0.6,0.0,0.001100301742553711,0.00505375862121582,0
1.199101448059082,-0.025833910331130028,-0.01726485602557659,-0.48273175954818726,0.05741325762626861,-0.5447609132640481,-0.02722521533923941,0.014157837809563064,-0.36710859611187063,0.0,0.0,-0.6,0.0,0.004179716110229492,0.00812387466430664,0
1.2086820602416992,-0.025833910331130028,-0.01726485602557659,-0.48273175954818726,0.05741325762626861,-0.5447609132640481,-0.02722521533923941,0.014157837809563064,-0.36710859611187063,0.0,0.0,-0.6,0.0,0.0011031627655029297,0.004976511001586914,0
1.2188646793365479,-0.025590525940060616,-0.01686760038137436,-0.4839370548725128,0.056058553339180875,-0.5467030028432319,0.02147235792428977,0.018692958238502675,-0.3584067285903036,0.0,0.0,-0.6,0.0,0.0056171417236328125,0.009552001953125,0
1.2299299240112305,-0.025590525940060616,-0.01686760038137436,-0.4839370548725128,0.056058553339180875,-0.5467030028432319,0.02147235792428977,0.018692958238502675,-0.3584067285903036,0.0,0.0,-0.6,0.0,0.001119852066040039,0.004922389984130859,0
1.2385923862457275,-0.025287866592407227,-0.01649433746933937,-0.48515018820762634,0.054612373948299375,-0.5463429807750312,0.02742022017062336,-0.053637649342462144,-0.34916395579769915,0.0,0.0,-0.6,0.0,0.00555872917175293,0.009654045104980469,0
1.2497916221618652,-0.025287866592407227,-0.01649433746933937,-0.48515018820762634,0.054612373948299375,-0.5463429807750312,0.02742022017062336,-0.053637649342462144,-0.34916395579769915,0.0,0.0,-0.6,0.0,0.0011446475982666016,0.004937648773193359,0
1.2586100101470947,-0.025040999054908752,-0.015982626006007195,-0.4862007200717926,0.05306413101265929,-0.5473553022592939,-0.030251008440823287,-0.06720786944008933,-0.3393204005243532,0.0,0.0,-0.6,0.0,0.005380153656005859,0.009131669998168945,0
1.2691380977630615,-0.025040999054908752,-0.015982626006007195,-0.4862007200717926,0.05306413101265929,-0.5473553022592939,-0.030251008440823287,-0.06720786944008933,-0.3393204005243532,0.0,0.0,-0.6,0.0,0.0010945796966552734,0.004700183868408203,0
1.2785439491271973,-0.02479582093656063,-0.015553469769656658,-0.4871062636375427,0.051627860547900195,-0.5492728422635744,-0.053208138158782316,-0.13313473138035903,-0.3301683585069199,0.0,0.0,-0.6,0.0,0.00549006462097168,0.009700298309326172,0
1.2898004055023193,-0.02479582093656063,-0.015553469769656658,-0.4871062636375427,0.051627860547900195,-0.5492728422635744,-0.053208138158782316,-0.13313473138035903,-0.3301683585069199,0.0,0.0,-0.6,0.0,0.0011513233184814453,0.005551338195800781,0
1.2991483211517334,-0.024711523205041885,-0.015147078782320023,-0.4877723753452301,0.050387816615326354,-0.5501757067455527,-0.03457723382589095,-0.06254603903701383,-0.32221795728065156,0.0,0.0,-0.6,0.0,0.005398273468017578,0.009248733520507812,0
1.3106012344360352,-0.024615725502371788,-0.014985824003815651,-0.4881088435649872,0.04979471122640111,-0.5486470688503845,-0.004981317473940265,-0.02284045211156721,-0.3183960586415248,0.0,0.0,-0.6,0.0,0.004312276840209961,0.008378982543945312,0
1.3213908672332764,-0.024455629289150238,-0.014555237255990505,-0.4887808561325073,0.04847994801327958,-0.5498926034547953,-0.0659477640535144,-0.008918005883215898,-0.3100280470495604,0.0,0.0,-0.6,0.0,0.0053021907806396484,0.00937652587890625,0
1.3321430683135986,-0.024455629289150238,-0.014555237255990505,-0.4887808561325073,0.04847994801327958,-0.5498926034547953,-0.0659477640535144,-0.008918005883215898,-0.3100280470495604,0.0,0.0,-0.6,0.0,0.0011143684387207031,0.0049059391021728516,0
1.3397037982940674,-0.024342942982912064,-0.01429858710616827,-0.4890170991420746,0.047830202716402946,-0.5501368663161222,-0.10958610610579357,-0.0006157335112471677,-0.3059050260365736,0.0,0.0,-0.6,0.0,0.005216836929321289,0.00907278060913086,0
1.3510172367095947,-0.024197284132242203,-0.01410768460482359,-0.48928913474082947,0.04724768775499097,-0.5497039092179237,-0.09149885566588394,-0.0026983257190027203,-0.3021703143969593,0.0,0.0,-0.6,0.0,0.00426483154296875,0.008405208587646484,0
1.3613994121551514,-0.024038106203079224,-0.01369749940931797,-0.4897683560848236,0.04625677332466397,-0.551968206117988,-0.09257868830406714,-0.02823038998621392,-0.2958482926075336,0.0,0.0,-0.6,0.0,0.0052754878997802734,0.009118080139160156,0
1.3725144863128662,-0.024038106203079224,-0.01369749940931797,-0.4897683560848236,0.04625677332466397,-0.551968206117988,-0.09257868830406714,-0.02823038998621392,-0.2958482926075336,0.0,0.0,-0.6,0.0,0.0010833740234375,0.00495147705078125,0
1.379532814025879,-0.023883679881691933,-0.013339306227862835,-0.4900628924369812,0.04527489461050253,-0.5531356961515321,0.005775879940947116,-0.046243483777474455,-0.289488119331297,0.0,0.0,-0.6,0.0,0.005193233489990234,0.008991479873657227,0
1.3899741172790527,-0.023883679881691933,-0.013339306227862835,-0.4900628924369812,0.04527489461050253,-0.5531356961515321,0.005775879940947116,-0.046243483777474455,-0.289488119331297,0.0,0.0,-0.6,0.0,0.0010650157928466797,0.0050754547119140625,0
1.3995301723480225,-0.023814544081687927,-0.012935181148350239,-0.49042031168937683,0.04426002310319756,-0.5529951296525143,0.01164037509278032,-0.09222866329509372,-0.28299691238850777,0.0,0.0,-0.6,0.0,0.005243539810180664,0.009055852890014648,0
1.4100019931793213,-0.023814544081687927,-0.012935181148350239,-0.49042031168937683,0.04426002310319756,-0.5529951296525143,0.01164037509278032,-0.09222866329509372,-0.28299691238850777,0.0,0.0,-0.6,0.0,0.0010905265808105469,0.005144834518432617,0
1.4185047149658203,-0.023761380463838577,-0.012754864990711212,-0.4905957877635956,0.04372532822251385,-0.5533866548921087,0.03632169583435755,-0.07137343495446653,-0.2795450541522654,0.0,0.0,-0.6,0.0,0.00512242317199707,0.00885462760925293,0
1.428727626800537,-0.023761380463838577,-0.012754864990711212,-0.4905957877635956,0.04372532822251385,-0.5533866548921087,0.03632169583435755,-0.07137343495446653,-0.2795450541522654,0.0,0.0,-0.6,0.0,0.0010364055633544922,0.004870176315307617,0
1.4404146671295166,-0.02364150807261467,-0.012263123877346516,-0.4910629689693451,0.04238430774241037,-0.5537735531192555,0.009648538116779038,-0.08791363632014362,-0.27098541593014164,0.0,0.0,-0.6,0.0,0.006485939025878906,0.012790441513061523,0
1.4564549922943115,-0.02364150807261467,-0.012263123877346516,-0.4910629689693451,0.04238430774241037,-0.5537735531192555,0.009648538116779038,-0.08791363632014362,-0.27098541593014164,0.0,0.0,-0.6,0.0,0.003038644790649414,0.011636972427368164,0
1.4701015949249268,-0.02363649196922779,-0.011752920225262642,-0.4913150370121002,0.04104952664630553,-0.5542423891278813,-0.012564316502924515,-0.08718985004041933,-0.2624648227236432,0.0,0.0,-0.6,0.0,0.0065135955810546875,0.010516881942749023,0
1.482848882675171,-0.02363649196922779,-0.011752920225262642,-0.4913150370121002,0.04104952664630553,-0.5542423891278813,-0.012564316502924515,-0.08718985004041933,-0.2624648227236432,0.0,0.0,-0.6,0.0,0.0011925697326660156,0.005505800247192383,0
1.4902091026306152,-0.02371666207909584,-0.011416122317314148,-0.4914577305316925,0.040114039714174356,-0.5524577394948204,0.030446093033405505,0.018569364619662874,-0.25643884888058033,0.0,0.0,-0.6,0.0,0.007243156433105469,0.012238025665283203,0
1.5050313472747803,-0.02371666207909584,-0.011416122317314148,-0.4914577305316925,0.040114039714174356,-0.5524577394948204,0.030446093033405505,0.018569364619662874,-0.25643884888058033,0.0,0.0,-0.6,0.0,0.001146554946899414,0.005983591079711914,0
1.5144798755645752,-0.023730138316750526,-0.011147079057991505,-0.4916703402996063,0.039287578528391584,-0.5535233864231445,0.054266544732423073,-4.903728882390598e-05,-0.25112198602826813,0.0,0.0,-0.6,0.0,0.006325721740722656,0.0113067626953125,0
1.5278661251068115,-0.023730138316750526,-0.011147079057991505,-0.4916703402996063,0.039287578528391584,-0.5535233864231445,0.054266544732423073,-4.903728882390598e-05,-0.25112198602826813,0.0,0.0,-0.6,0.0,0.0011708736419677734,0.006061553955078125,0
1.5376245975494385,-0.02375626005232334,-0.010775052011013031,-0.4917536675930023,0.038600279080013136,-0.554505121467215,0.08095830739661578,-0.006941927323163592,-0.24668953331557447,0.0,0.0,-0.6,0.0,0.005707740783691406,0.010935068130493164,0
1.5506610870361328,-0.023742780089378357,-0.010502209886908531,-0.49189645051956177,0.037911325293027126,-0.5533332676005384,0.04157199770594071,-0.05860419373764403,-0.2423225982425201,0.0,0.0,-0.6,0.0,0.0068798065185546875,0.011283636093139648,0
1.5638601779937744,-0.023742780089378357,-0.010502209886908531,-0.49189645051956177,0.037911325293027126,-0.5533332676005384,0.04157199770594071,-0.05860419373764403,-0.2423225982425201,0.0,0.0,-0.6,0.0,0.0013458728790283203,0.0060160160064697266,0
1.5724966526031494,-0.023700904101133347,-0.010112251155078411,-0.4921264350414276,0.03734460942268721,-0.5545315786656705,-0.017008067768088365,-0.05529549510455297,-0.23877993667992878,0.0,0.0,-0.6,0.0,0.0067408084869384766,0.011038064956665039,0
1.5851407051086426,-0.023700904101133347,-0.010112251155078411,-0.4921264350414276,0.03734460942268721,-0.5545315786656705,-0.017008067768088365,-0.05529549510455297,-0.23877993667992878,0.0,0.0,-0.6,0.0,0.0011153221130371094,0.0051424503326416016,0
1.5927259922027588,-0.023681579157710075,-0.009784537367522717,-0.4923047125339508,0.03687485241471033,-0.5548901200048589,-0.019860228035147556,-0.061792686427171485,-0.2357836991675939,0.0,0.0,-0.6,0.0,0.007562160491943359,0.012886762619018555,0
1.6088371276855469,-0.023681579157710075,-0.009784537367522717,-0.4923047125339508,0.03687485241471033,-0.5548901200048589,-0.019860228035147556,-0.061792686427171485,-0.2357836991675939,0.0,0.0,-0.6,0.0,0.0016117095947265625,0.007773399353027344,0
1.6208066940307617,-0.023711275309324265,-0.009211275726556778,-0.4926331639289856,0.03610076906587142,-0.5522244360781962,0.011154736041347093,0.06646268701717771,-0.23079018023225753,0.0,0.0,-0.6,0.0,0.007101774215698242,0.012796401977539062,0
1.6352207660675049,-0.023711275309324265,-0.009211275726556778,-0.4926331639289856,0.03610076906587142,-0.5522244360781962,0.011154736041347093,0.06646268701717771,-0.23079018023225753,0.0,0.0,-0.6,0.0,0.0016629695892333984,0.0062749385833740234,0
1.6441335678100586,-0.02378200739622116,-0.008771643042564392,-0.49287858605384827,0.035514600714525835,-0.5528551865836832,-0.08373901950372514,0.07058489153131622,-0.2271831661800865,0.0,0.0,-0.6,0.0,0.006150245666503906,0.010910987854003906,0
1.6575045585632324,-0.02378200739622116,-0.008771643042564392,-0.49287858605384827,0.035514600714525835,-0.5528551865836832,-0.08373901950372514,0.07058489153131622,-0.2271831661800865,0.0,0.0,-0.6,0.0,0.0011720657348632812,0.006766080856323242,0
1.6662745475769043,-0.02372167445719242,-0.008296165615320206,-0.49329906702041626,0.03492742923300467,-0.5530592589559936,-0.050374437440464125,0.022821636315746338,-0.223395361820035,0.0,0.0,-0.6,0.0,0.005850076675415039,0.01040959358215332,0
1.679424524307251,-0.02372167445719242,-0.008296165615320206,-0.49329906702041626,0.03492742923300467,-0.5530592589559936,-0.050374437440464125,0.022821636315746338,-0.223395361820035,0.0,0.0,-0.6,0.0,0.0014655590057373047,0.006284236907958984,0
1.689018726348877,-0.02368820831179619,-0.007959212176501751,-0.493570476770401,0.034561589943133526,-0.5530947332750707,0.015792104185163462,0.026686701517777557,-0.2209459828401374,0.0,0.0,-0.6,0.0,0.0057220458984375,0.010738372802734375,0
1.7024412155151367,-0.02368820831179619,-0.007959212176501751,-0.493570476770401,0.034561589943133526,-0.5530947332750707,0.015792104185163462,0.026686701517777557,-0.2209459828401374,0.0,0.0,-0.6,0.0,0.0013759136199951172,0.006049394607543945,0
1.7112445831298828,-0.023636139929294586,-0.007687720004469156,-0.493940532207489,0.03431676131699641,-0.5525557593373495,-0.006765208450549262,-0.011098604576386862,-0.21942770802779335,0.0,0.0,-0.6,0.0,0.006099224090576172,0.010968685150146484,0
1.7246754169464111,-0.023636139929294586,-0.007687720004469156,-0.493940532207489,0.03431676131699641,-0.5525557593373495,-0.006765208450549262,-0.011098604576386862,-0.21942770802779335,0.0,0.0,-0.6,0.0,0.0015110969543457031,0.006368398666381836,0
1.7334940433502197,-0.023592296987771988,-0.0073209828697144985,-0.49431532621383667,0.03403305979071976,-0.5522518595733886,0.027855769834926245,0.01889413275659224,-0.21754972706360542,0.0,0.0,-0.6,0.0,0.006623029708862305,0.011088132858276367,0
1.7470805644989014,-0.023592296987771988,-0.0073209828697144985,-0.49431532621383667,0.03403305979071976,-0.5522518595733886,0.027855769834926245,0.01889413275659224,-0.21754972706360542,0.0,0.0,-0.6,0.0,0.0014793872833251953,0.006667375564575195,0
1.7558517456054688,-0.023599930107593536,-0.006909926421940327,-0.49491459131240845,0.03372917790900635,-0.5501923494621813,-0.020516443261656782,0.07361069432002554,-0.21567890930847491,0.0,0.0,-0.6,0.0,0.006342649459838867,0.010601997375488281,0
1.7692432403564453,-0.023599930107593536,-0.006909926421940327,-0.49491459131240845,0.03372917790900635,-0.5501923494621813,-0.020516443261656782,0.07361069432002554,-0.21567890930847491,0.0,0.0,-0.6,0.0,0.0013561248779296875,0.006043910980224609,0
1.7786929607391357,-0.023458773270249367,-0.006595610175281763,-0.49541330337524414,0.03350344020995483,-0.5491159420054479,-0.05170820988935074,0.05870919720963549,-0.2142887187075461,0.0,0.0,-0.6,0.0,0.005941152572631836,0.010543107986450195,0
1.790804386138916,-0.023458773270249367,-0.006595610175281763,-0.49541330337524414,0.03350344020995483,-0.5491159420054479,-0.05170820988935074,0.05870919720963549,-0.2142887187075461,0.0,0.0,-0.6,0.0,0.0011584758758544922,0.00522613525390625,0
1.8012597560882568,-0.02337704971432686,-0.0062415702268481255,-0.495807409286499,0.0333236340287642,-0.5518445406215392,-0.00598827584455617,0.07485866230902045,-0.21306679066765583,0.0,0.0,-0.6,0.0,0.006505012512207031,0.011495828628540039,0
1.8143322467803955,-0.02337704971432686,-0.0062415702268481255,-0.495807409286499,0.0333236340287642,-0.5518445406215392,-0.00598827584455617,0.07485866230902045,-0.21306679066765583,0.0,0.0,-0.6,0.0,0.0015032291412353516,0.006530046463012695,0
1.8229730129241943,-0.02327646128833294,-0.005937069654464722,-0.49624496698379517,0.03315915725282149,-0.5505117365768707,0.02921216018279847,0.05991699165295055,-0.21196123478462828,0.0,0.0,-0.6,0.0,0.006493568420410156,0.011256217956542969,0
1.8368499279022217,-0.023113632574677467,-0.005493844393640757,-0.4967452883720398,0.03293126029230788,-0.5505965990747382,0.009033657333371515,0.060388066757298395,-0.21053616257535215,0.0,0.0,-0.6,0.0,0.005435466766357422,0.009926319122314453,0
1.8488938808441162,-0.023113632574677467,-0.005493844393640757,-0.4967452883720398,0.03293126029230788,-0.5505965990747382,0.009033657333371515,0.060388066757298395,-0.21053616257535215,0.0,0.0,-0.6,0.0,0.0015149116516113281,0.0063512325286865234,0
1.8586771488189697,-0.022892974317073822,-0.005192989483475685,-0.49720653891563416,0.03273388268161561,-0.5509374180751498,6.365103760256889e-06,0.0033551431786748125,-0.209292768090259,0.0,0.0,-0.6,0.0,0.006159782409667969,0.0111541748046875,0
1.871689796447754,-0.022892974317073822,-0.005192989483475685,-0.49720653891563416,0.03273388268161561,-0.5509374180751498,6.365103760256889e-06,0.0033551431786748125,-0.209292768090259,0.0,0.0,-0.6,0.0,0.0013234615325927734,0.005930900573730469,0
1.8803422451019287,-0.022813087329268456,-0.0048698182217776775,-0.4976125657558441,0.03269298273457323,-0.5497176201453842,-0.01386690127423685,0.05522801594886839,-0.20905143548364524,0.0,0.0,-0.6,0.0,0.006512165069580078,0.011100530624389648,0
1.893510341644287,-0.022650623694062233,-0.004675334319472313,-0.4981195330619812,0.03263273282388764,-0.5482165054619892,-0.049127678265589066,0.12615369778061514,-0.20872334585760088,0.0,0.0,-0.6,0.0,0.005658149719238281,0.01009988784790039,0
1.90720796585083,-0.022650623694062233,-0.004675334319472313,-0.4981195330619812,0.03263273282388764,-0.5482165054619892,-0.049127678265589066,0.12615369778061514,-0.20872334585760088,0.0,0.0,-0.6,0.0,0.0015554428100585938,0.006572246551513672,0
1.9168596267700195,-0.022437456995248795,-0.0043321577832102776,-0.4986114203929901,0.03236005420953626,-0.550174252726544,-0.0035080789591713036,0.11479802232223486,-0.20690711978062634,0.0,0.0,-0.6,0.0,0.005687236785888672,0.010841846466064453,0
1.9297559261322021,-0.022437456995248795,-0.0043321577832102776,-0.4986114203929901,0.03236005420953626,-0.550174252726544,-0.0035080789591713036,0.11479802232223486,-0.20690711978062634,0.0,0.0,-0.6,0.0,0.0014986991882324219,0.006134748458862305,0
1.9389314651489258,-0.022396791726350784,-0.0040609645657241344,-0.4989836513996124,0.03226180831601799,-0.5502785832179874,0.02714408747054315,0.05333561926392278,-0.20623290406727593,0.0,0.0,-0.6,0.0,0.005948781967163086,0.010727643966674805,0
1.9519603252410889,-0.022396791726350784,-0.0040609645657241344,-0.4989836513996124,0.03226180831601799,-0.5502785832179874,0.02714408747054315,0.05333561926392278,-0.20623290406727593,0.0,0.0,-0.6,0.0,0.0013763904571533203,0.0067632198333740234,0
1.9611849784851074,-0.022245287895202637,-0.0037848777137696743,-0.49934861063957214,0.03221395111812972,-0.5495739319951595,0.005325828655418777,0.06066312772190288,-0.2059608862737348,0.0,0.0,-0.6,0.0,0.005314350128173828,0.009965181350708008,0
1.9743049144744873,-0.02207382209599018,-0.0035951673053205013,-0.49980488419532776,0.03227829886359036,-0.5505189653360152,-0.013076454452044148,-0.027468384457056492,-0.20640238779608744,0.0,0.0,-0.6,0.0,0.006309986114501953,0.010785102844238281,0
1.9867799282073975,-0.02207382209599018,-0.0035951673053205013,-0.49980488419532776,0.03227829886359036,-0.5505189653360152,-0.013076454452044148,-0.027468384457056492,-0.20640238779608744,0.0,0.0,-0.6,0.0,0.0016973018646240234,0.006303548812866211,0
1.995262861251831,-0.021993469446897507,-0.0033983972389250994,-0.5000578165054321,0.032341572352044136,-0.5491167619166136,0.05066562236536694,0.05611931401200677,-0.2067169255478965,0.0,0.0,-0.6,0.0,0.0056684017181396484,0.010477304458618164,0
2.009002208709717,-0.021993469446897507,-0.0033983972389250994,-0.5000578165054321,0.032341572352044136,-0.5491167619166136,0.05066562236536694,0.05611931401200677,-0.2067169255478965,0.0,0.0,-0.6,0.0,0.0013384819030761719,0.006220579147338867,0
2.019543170928955,-0.02194877900183201,-0.003237712662667036,-0.50046306848526,0.03240330338354292,-0.5486335214670025,0.010982670052944019,0.05390724794314188,-0.20716949449317193,0.0,0.0,-0.6,0.0,0.00613713264465332,0.011191844940185547,0
2.032125949859619,-0.02194877900183201,-0.003237712662667036,-0.50046306848526,0.03240330338354292,-0.5486335214670025,0.010982670052944019,0.05390724794314188,-0.20716949449317193,0.0,0.0,-0.6,0.0,0.001191854476928711,0.00618290901184082,0
2.041177988052368,-0.021835366263985634,-0.0030227855313569307,-0.5007791519165039,0.03238820601730154,-0.5487209254833697,-0.009712001823385804,0.055753058478560734,-0.20709976174346484,0.0,0.0,-0.6,0.0,0.005533456802368164,0.010119438171386719,0
2.0543313026428223,-0.021879136562347412,-0.0028432027902454138,-0.5010521411895752,0.03229218161826426,-0.5504048213562394,-0.022073386872484804,-0.026997902316342026,-0.20649980163959572,0.0,0.0,-0.6,0.0,0.007004737854003906,0.011340856552124023,0
2.067960500717163,-0.021879136562347412,-0.0028432027902454138,-0.5010521411895752,0.03229218161826426,-0.5504048213562394,-0.022073386872484804,-0.026997902316342026,-0.20649980163959572,0.0,0.0,-0.6,0.0,0.0012822151184082031,0.0060808658599853516,0
2.0771591663360596,-0.021820835769176483,-0.0026768813841044903,-0.5012820363044739,0.03228787250966105,-0.5503761106864643,0.04901749178903339,-0.05062304094631991,-0.2063918092827101,0.0,0.0,-0.6,0.0,0.005802154541015625,0.010521411895751953,0
2.0899126529693604,-0.021820835769176483,-0.0026768813841044903,-0.5012820363044739,0.03228787250966105,-0.5503761106864643,0.04901749178903339,-0.05062304094631991,-0.2063918092827101,0.0,0.0,-0.6,0.0,0.0013120174407958984,0.005795001983642578,0
2.09907603263855,-0.02181948721408844,-0.0024572161491960287,-0.5015493035316467,0.03234202664312719,-0.5499890360112041,0.007056592775621505,-0.06180582310697168,-0.20678998691080688,0.0,0.0,-0.6,0.0,0.006284236907958984,0.011579513549804688,0
2.113100528717041,-0.021809957921504974,-0.0022751118522137403,-0.5016419887542725,0.032246008075014425,-0.5516171251835761,0.040199950534519274,-0.06201342269368307,-0.2061462094305946,0.0,0.0,-0.6,0.0,0.0062940120697021484,0.011150121688842773,0
2.1262574195861816,-0.021809957921504974,-0.0022751118522137403,-0.5016419887542725,0.032246008075014425,-0.5516171251835761,0.040199950534519274,-0.06201342269368307,-0.2061462094305946,0.0,0.0,-0.6,0.0,0.0013973712921142578,0.006337881088256836,0
2.1350529193878174,-0.02202468551695347,-0.0020614671520888805,-0.5016026496887207,0.03217832423356124,-0.550831819245046,-0.03893607796932527,-0.05840004238103984,-0.20579585999694705,0.0,0.0,-0.6,0.0,0.005972146987915039,0.010080575942993164,0
2.1473007202148438,-0.02202468551695347,-0.0020614671520888805,-0.5016026496887207,0.03217832423356124,-0.550831819245046,-0.03893607796932527,-0.05840004238103984,-0.20579585999694705,0.0,0.0,-0.6,0.0,0.0014147758483886719,0.006459712982177734,0
2.1560182571411133,-0.022140156477689743,-0.0019379628356546164,-0.5016838312149048,0.03193224138565911,-0.549717538712503,-0.0527882480362459,-0.11159060024373349,-0.20424059283338677,0.0,0.0,-0.6,0.0,0.005903005599975586,0.010895490646362305,0
2.170206308364868,-0.02228514477610588,-0.001732797478325665,-0.5015318989753723,0.03172633155297234,-0.5534688710073596,-0.015015488305402456,-0.07701838898057779,-0.20289766589823932,0.0,0.0,-0.6,0.0,0.006097316741943359,0.010583639144897461,0
2.1834535598754883,-0.02228514477610588,-0.001732797478325665,-0.5015318989753723,0.03172633155297234,-0.5534688710073596,-0.015015488305402456,-0.07701838898057779,-0.20289766589823932,0.0,0.0,-0.6,0.0,0.0012655258178710938,0.005420207977294922,0
2.191744804382324,-0.022570695728063583,-0.0016286155441775918,-0.5013515949249268,0.03158939188889437,-0.5534266282220911,0.017960486472755575,-0.1780222279036966,-0.20202175615513596,0.0,0.0,-0.6,0.0,0.005924224853515625,0.010390520095825195,0
2.204719305038452,-0.022570695728063583,-0.0016286155441775918,-0.5013515949249268,0.03158939188889437,-0.5534266282220911,0.017960486472755575,-0.1780222279036966,-0.20202175615513596,0.0,0.0,-0.6,0.0,0.001102447509765625,0.005902528762817383,0
2.213298797607422,-0.022746561095118523,-0.0015305728884413838,-0.5012122392654419,0.03131394045777312,-0.553055404920567,0.030289790910870907,-0.15397694380226895,-0.20024446124234588,0.0,0.0,-0.6,0.0,0.0061359405517578125,0.010774850845336914,0
2.22589373588562,-0.022746561095118523,-0.0015305728884413838,-0.5012122392654419,0.03131394045777312,-0.553055404920567,0.030289790910870907,-0.15397694380226895,-0.20024446124234588,0.0,0.0,-0.6,0.0,0.0010762214660644531,0.006281852722167969,0
2.235393762588501,-0.022914623841643333,-0.0014618708519265056,-0.5009776949882507,0.03105184578585469,-0.5544012954207601,-0.02896749418819446,-0.1640562734589026,-0.19860281951317052,0.0,0.0,-0.6,0.0,0.005891323089599609,0.01061248779296875,0
2.2471656799316406,-0.022914623841643333,-0.0014618708519265056,-0.5009776949882507,0.03105184578585469,-0.5544012954207601,-0.02896749418819446,-0.1640562734589026,-0.19860281951317052,0.0,0.0,-0.6,0.0,0.0011568069458007812,0.005892038345336914,0
2.256270408630371,-0.023125717416405678,-0.0014238194562494755,-0.5006668567657471,0.030831034401815154,-0.5543316210920757,-0.051970928679469584,-0.15809430949418155,-0.1972006292468968,0.0,0.0,-0.6,0.0,0.0058863162994384766,0.010500669479370117,0
2.268742322921753,-0.023372532799839973,-0.0013796035200357437,-0.5003674030303955,0.030552850324944817,-0.5530925251394169,-0.016399434269995468,-0.06048122460826996,-0.19538385604609843,0.0,0.0,-0.6,0.0,0.006695747375488281,0.011347293853759766,0
2.282825231552124,-0.023372532799839973,-0.0013796035200357437,-0.5003674030303955,0.030552850324944817,-0.5530925251394169,-0.016399434269995468,-0.06048122460826996,-0.19538385604609843,0.0,0.0,-0.6,0.0,0.0015282630920410156,0.005652666091918945,0
2.290673017501831,-0.02350238896906376,-0.0013751016231253743,-0.500188410282135,0.030235130461327638,-0.5529749178500262,0.0319070842538951,-0.018390259093883442,-0.19329435651245547,0.0,0.0,-0.6,0.0,0.006817817687988281,0.011034250259399414,0
2.303941488265991,-0.02350238896906376,-0.0013751016231253743,-0.500188410282135,0.030235130461327638,-0.5529749178500262,0.0319070842538951,-0.018390259093883442,-0.19329435651245547,0.0,0.0,-0.6,0.0,0.0011632442474365234,0.005095005035400391,0
2.3116235733032227,-0.023744966834783554,-0.001325499382801354,-0.4997828006744385,0.029837461033268096,-0.5552891357154376,0.07284835952580057,-0.046108428037053346,-0.19069447509496282,0.0,0.0,-0.6,0.0,0.006525278091430664,0.011234283447265625,0
2.325284957885742,-0.023744966834783554,-0.001325499382801354,-0.4997828006744385,0.029837461033268096,-0.5552891357154376,0.07284835952580057,-0.046108428037053346,-0.19069447509496282,0.0,0.0,-0.6,0.0,0.0015685558319091797,0.005851030349731445,0
2.3338406085968018,-0.02396121248602867,-0.001363364513963461,-0.49950867891311646,0.02960369317686054,-0.5534924233840972,0.05294457643210889,-0.05791345128824399,-0.18920922766487297,0.0,0.0,-0.6,0.0,0.006247997283935547,0.010886907577514648,0
2.3472208976745605,-0.02396121248602867,-0.001363364513963461,-0.49950867891311646,0.02960369317686054,-0.5534924233840972,0.05294457643210889,-0.05791345128824399,-0.18920922766487297,0.0,0.0,-0.6,0.0,0.0011892318725585938,0.00614619255065918,0
2.3555822372436523,-0.024244077503681183,-0.001305816462263465,-0.49912434816360474,0.029332790271389655,-0.555040245296083,-0.0031640651948932528,-0.06166684111522772,-0.18755256632218537,0.0,0.0,-0.6,0.0,0.0063323974609375,0.010865211486816406,0
2.368675708770752,-0.024244077503681183,-0.001305816462263465,-0.49912434816360474,0.029332790271389655,-0.555040245296083,-0.0031640651948932528,-0.06166684111522772,-0.18755256632218537,0.0,0.0,-0.6,0.0,0.0013692378997802734,0.0056760311126708984,0
2.3788609504699707,-0.02453600987792015,-0.0012461133301258087,-0.49877485632896423,0.028990158579968547,-0.5524523272976087,0.012194324441716298,0.021290199726204287,-0.1853416408157341,0.0,0.0,-0.6,0.0,0.0059010982513427734,0.011327028274536133,0
2.391376495361328,-0.02453600987792015,-0.0012461133301258087,-0.49877485632896423,0.028990158579968547,-0.5524523272976087,0.012194324441716298,0.021290199726204287,-0.1853416408157341,0.0,0.0,-0.6,0.0,0.0012009143829345703,0.0059468746185302734,0
2.4013161659240723,-0.024757931008934975,-0.001158104743808508,-0.4986623525619507,0.028563109982107922,-0.553223451252598,0.008364311565761411,0.09832825155526236,-0.1826161858567423,0.0,0.0,-0.6,0.0,0.005374908447265625,0.00957345962524414,0
2.4127111434936523,-0.024757931008934975,-0.001158104743808508,-0.4986623525619507,0.028563109982107922,-0.553223451252598,0.008364311565761411,0.09832825155526236,-0.1826161858567423,0.0,0.0,-0.6,0.0,0.001209259033203125,0.0070841312408447266,0
2.4221649169921875,-0.024966521188616753,-0.0010238054674118757,-0.49836403131484985,0.028125426542273936,-0.5537808849789899,0.042095275449484326,0.04901843744719453,-0.17975177154881405,0.0,0.0,-0.6,0.0,0.006150245666503906,0.010804176330566406,0
2.4364206790924072,-0.025209125131368637,-0.0009264365071430802,-0.4982030391693115,0.027836839963436687,-0.5529274057881887,-0.053224272479333756,0.023061881872658865,-0.1780996182324153,0.0,0.0,-0.6,0.0,0.005839347839355469,0.010498523712158203,0
2.448906183242798,-0.025209125131368637,-0.0009264365071430802,-0.4982030391693115,0.027836839963436687,-0.5529274057881887,-0.053224272479333756,0.023061881872658865,-0.1780996182324153,0.0,0.0,-0.6,0.0,0.0011603832244873047,0.0054280757904052734,0
2.4585986137390137,-0.025274159386754036,-0.0008580470457673073,-0.49809885025024414,0.027563830635964227,-0.5543562974692301,-0.026651036752003334,0.03565169424282303,-0.17630209481729428,0.0,0.0,-0.6,0.0,0.005399942398071289,0.010184526443481445,0
2.4710280895233154,-0.025274159386754036,-0.0008580470457673073,-0.49809885025024414,0.027563830635964227,-0.5543562974692301,-0.026651036752003334,0.03565169424282303,-0.17630209481729428,0.0,0.0,-0.6,0.0,0.0012142658233642578,0.005275726318359375,0
2.4804797172546387,-0.02549988403916359,-0.0007079613860696554,-0.4978984594345093,0.027352293247976417,-0.5536632009954644,-0.04137557252101956,0.07911261415879786,-0.1749712583313773,0.0,0.0,-0.6,0.0,0.005942106246948242,0.010697364807128906,0
2.4925777912139893,-0.02549988403916359,-0.0007079613860696554,-0.4978984594345093,0.027352293247976417,-0.5536632009954644,-0.04137557252101956,0.07911261415879786,-0.1749712583313773,0.0,0.0,-0.6,0.0,0.0011739730834960938,0.0054056644439697266,0
2.5015854835510254,-0.02565264329314232,-0.0005957910907454789,-0.4977267384529114,0.0271152384807211,-0.5527658213520216,-0.06433759103364235,0.11693617523756614,-0.17349243213220106,0.0,0.0,-0.6,0.0,0.005795001983642578,0.01018667221069336,0
2.5137839317321777,-0.02565264329314232,-0.0005957910907454789,-0.4977267384529114,0.0271152384807211,-0.5527658213520216,-0.06433759103364235,0.11693617523756614,-0.17349243213220106,0.0,0.0,-0.6,0.0,0.001316070556640625,0.006795406341552734,0
2.523104429244995,-0.025715267285704613,-0.00041071249870583415,-0.4974709451198578,0.02687712926882957,-0.5543217980110251,-0.107666328774363,0.14014150820697055,-0.17204746703108886,0.0,0.0,-0.6,0.0,0.006557464599609375,0.011303186416625977,0
2.5364487171173096,-0.025715267285704613,-0.00041071249870583415,-0.4974709451198578,0.02687712926882957,-0.5543217980110251,-0.107666328774363,0.14014150820697055,-0.17204746703108886,0.0,0.0,-0.6,0.0,0.0011878013610839844,0.006641864776611328,0
2.545997142791748,-0.025887666270136833,-0.00028186815325170755,-0.496834397315979,0.026783644853028428,-0.5573803077554498,-0.0514831706279148,0.11380575057605759,-0.17133793107321146,0.0,0.0,-0.6,0.0,0.005795478820800781,0.010694265365600586,0
2.5596659183502197,-0.025887666270136833,-0.00028186815325170755,-0.496834397315979,0.026783644853028428,-0.5573803077554498,-0.0514831706279148,0.11380575057605759,-0.17133793107321146,0.0,0.0,-0.6,0.0,0.0015521049499511719,0.005847454071044922,0
