time,x,y,z,yaw,throttle,roll_rate,pitch_rate,yaw_rate,x_ref,y_ref,z_ref,yaw_ref,mpc_time,ctrl_callback_time_history,metadata
4.291534423828125e-06,-0.09793229401111603,-0.0429781973361969,-0.24265363812446594,0.02884047516102633,-0.6223451838564124,0.3116820890123852,-0.7366827990504853,-0.18436235361047645,0.0,0.0,-0.6,0.0,0.022432327270507812,0.02711009979248047,Hardware
0.02826833724975586,-0.09793229401111603,-0.0429781973361969,-0.24265363812446594,0.02884047516102633,-0.6223451838564124,0.3116820890123852,-0.7366827990504853,-0.18436235361047645,0.0,0.0,-0.6,0.0,0.0010936260223388672,0.004769086837768555,1x Speed
0.035925865173339844,-0.09788373112678528,-0.04309174418449402,-0.24254848062992096,0.028861263531431813,-0.6225295129927673,0.3089513365909252,-0.7366449808692768,-0.1844896075707871,0.0,0.0,-0.6,0.0,0.008902311325073242,0.013041496276855469,Horizon:3.0
0.050432682037353516,-0.09788373112678528,-0.04309174418449402,-0.24254848062992096,0.028861263531431813,-0.6225295129927673,0.3089513365909252,-0.7366449808692768,-0.1844896075707871,0.0,0.0,-0.6,0.0,0.0011126995086669922,0.004852771759033203,Num Steps:20
0.059909820556640625,-0.09784746915102005,-0.0432003028690815,-0.24245810508728027,0.028861083984355225,-0.622102435256815,0.31265611757344747,-0.7387951756474874,-0.1844900248592534,0.0,0.0,-0.6,0.0,0.00719451904296875,0.011186361312866211,No Pyjoules
0.07294678688049316,-0.09784746915102005,-0.0432003028690815,-0.24245810508728027,0.028861083984355225,-0.622102435256815,0.31265611757344747,-0.7387951756474874,-0.1844900248592534,0.0,0.0,-0.6,0.0,0.001081705093383789,0.004598140716552734,0
0.07991766929626465,-0.09783720225095749,-0.04323424771428108,-0.2424362450838089,0.028906050139931163,-0.622085541701108,0.31338006385369593,-0.7381888217567996,-0.1847708493619279,0.0,0.0,-0.6,0.0,0.005598783493041992,0.00954747200012207,0
0.09110522270202637,-0.09783720225095749,-0.04323424771428108,-0.2424362450838089,0.028906050139931163,-0.622085541701108,0.31338006385369593,-0.7381888217567996,-0.1847708493619279,0.0,0.0,-0.6,0.0,0.0011126995086669922,0.005102396011352539,0
0.09964919090270996,-0.09782899171113968,-0.04333902895450592,-0.24240706861019135,0.02840577267437424,-0.6219674680898877,0.330788509565802,-0.7404195572682191,-0.18157133853125224,0.0,0.0,-0.6,0.0,0.009707450866699219,0.013427019119262695,0
0.11456108093261719,-0.09782899171113968,-0.04333902895450592,-0.24240706861019135,0.02840577267437424,-0.6219674680898877,0.330788509565802,-0.7404195572682191,-0.18157133853125224,0.0,0.0,-0.6,0.0,0.0011224746704101562,0.005183219909667969,0
0.12183547019958496,-0.09782961010932922,-0.043394412845373154,-0.2424471527338028,0.02857855796536008,-0.6217291906409054,0.3295270100655123,-0.7183073829413428,-0.18266486799619489,0.0,0.0,-0.6,0.0,0.009606599807739258,0.013677120208740234,0
0.13810467720031738,-0.09758629649877548,-0.04346907138824463,-0.24252727627754211,0.029567118900165574,-0.6211973580885078,0.3100419774486606,-0.6476921659258115,-0.1889648112748424,0.0,0.0,-0.6,0.0,0.008434772491455078,0.01254415512084961,0
0.15196728706359863,-0.09758629649877548,-0.04346907138824463,-0.24252727627754211,0.029567118900165574,-0.6211973580885078,0.3100419774486606,-0.6476921659258115,-0.1889648112748424,0.0,0.0,-0.6,0.0,0.0011436939239501953,0.004937648773193359,0
0.16016697883605957,-0.09676752984523773,-0.04350890591740608,-0.242794930934906,0.03012594715012789,-0.6187059254404045,0.3041760516299093,-0.5066185298341601,-0.19251022883368338,0.0,0.0,-0.6,0.0,0.006798505783081055,0.01077413558959961,0
0.17286372184753418,-0.09676752984523773,-0.04350890591740608,-0.242794930934906,0.03012594715012789,-0.6187059254404045,0.3041760516299093,-0.5066185298341601,-0.19251022883368338,0.0,0.0,-0.6,0.0,0.001100778579711914,0.00487065315246582,0
0.17987895011901855,-0.09630519151687622,-0.04344644024968147,-0.24304154515266418,0.03035875415102517,-0.6169823774030413,0.2807208151451865,-0.4182288826907557,-0.1939957575151166,0.0,0.0,-0.6,0.0,0.007217884063720703,0.01092386245727539,0
0.19283652305603027,-0.09516424685716629,-0.04324417561292648,-0.24375197291374207,0.03145972351025238,-0.612922263557045,0.20010265033326788,-0.2453538906759608,-0.20101042890855442,0.0,0.0,-0.6,0.0,0.006850719451904297,0.010840177536010742,0
0.20568013191223145,-0.09516424685716629,-0.04324417561292648,-0.24375197291374207,0.03145972351025238,-0.612922263557045,0.20010265033326788,-0.2453538906759608,-0.20101042890855442,0.0,0.0,-0.6,0.0,0.0010685920715332031,0.004805803298950195,0
0.21294164657592773,-0.0935572013258934,-0.04295986145734787,-0.24519890546798706,0.032307763016232505,-0.6069784779392885,0.17103328279324312,-0.0586287884638591,-0.20632151868520895,0.0,0.0,-0.6,0.0,0.007049083709716797,0.010972261428833008,0
0.22526884078979492,-0.0935572013258934,-0.04295986145734787,-0.24519890546798706,0.032307763016232505,-0.6069784779392885,0.17103328279324312,-0.0586287884638591,-0.20632151868520895,0.0,0.0,-0.6,0.0,0.0010814666748046875,0.0047152042388916016,0
0.23244643211364746,-0.0914587676525116,-0.042501140385866165,-0.24759486317634583,0.03301927082307899,-0.6004142084224603,0.09146577956249455,0.10795808571679849,-0.21079120991428169,0.0,0.0,-0.6,0.0,0.006614208221435547,0.010468482971191406,0
0.24435806274414062,-0.0914587676525116,-0.042501140385866165,-0.24759486317634583,0.03301927082307899,-0.6004142084224603,0.09146577956249455,0.10795808571679849,-0.21079120991428169,0.0,0.0,-0.6,0.0,0.0011510848999023438,0.004984140396118164,0
0.2513718605041504,-0.09039829671382904,-0.042252179235219955,-0.24896559119224548,0.03329378302244126,-0.597253649148256,0.06992692568760635,0.1929589668471143,-0.2124855862284892,0.0,0.0,-0.6,0.0,0.0066411495208740234,0.010598182678222656,0
0.26453447341918945,-0.08845261484384537,-0.0417223684489727,-0.25179633498191833,0.034077137261181084,-0.5912747855925033,-0.06891027270870288,0.3480888543467112,-0.21767414838604698,0.0,0.0,-0.6,0.0,0.006669044494628906,0.010531902313232422,0
0.27701902389526367,-0.08845261484384537,-0.0417223684489727,-0.25179633498191833,0.034077137261181084,-0.5912747855925033,-0.06891027270870288,0.3480888543467112,-0.21767414838604698,0.0,0.0,-0.6,0.0,0.0011413097381591797,0.004647970199584961,0
0.28395795822143555,-0.0861840695142746,-0.04105013981461525,-0.2557489275932312,0.03476174988869255,-0.5840632264612525,-0.10247951892762495,0.45802334409035805,-0.22196182732034728,0.0,0.0,-0.6,0.0,0.005884408950805664,0.009721755981445312,0
0.29506635665893555,-0.0861840695142746,-0.04105013981461525,-0.2557489275932312,0.03476174988869255,-0.5840632264612525,-0.10247951892762495,0.45802334409035805,-0.22196182732034728,0.0,0.0,-0.6,0.0,0.0011012554168701172,0.005030632019042969,0
0.30266308784484863,-0.08423304557800293,-0.04043087735772133,-0.2598160207271576,0.03564767560936301,-0.5777895367688172,-0.14487063074861004,0.5774875913641724,-0.22752845245615677,0.0,0.0,-0.6,0.0,0.0066831111907958984,0.010520219802856445,0
0.31534409523010254,-0.08309562504291534,-0.04004573076963425,-0.2624293863773346,0.03612153829558344,-0.5745722309752913,-0.1778157201002942,0.6027917067593085,-0.23062548749533468,0.0,0.0,-0.6,0.0,0.005326032638549805,0.009377479553222656,0
0.3271801471710205,-0.08062156289815903,-0.03908871114253998,-0.26879945397377014,0.03735105783982282,-0.5675090771465655,-0.2777556435905132,0.6777351988417826,-0.23868870556366392,0.0,0.0,-0.6,0.0,0.006533384323120117,0.01048421859741211,0
0.3391740322113037,-0.08062156289815903,-0.03908871114253998,-0.26879945397377014,0.03735105783982282,-0.5675090771465655,-0.2777556435905132,0.6777351988417826,-0.23868870556366392,0.0,0.0,-0.6,0.0,0.001093149185180664,0.005092620849609375,0
0.3467097282409668,-0.07837922871112823,-0.03819960728287697,-0.2751271724700928,0.038795977749572504,-0.5610852369826881,-0.30983612537765043,0.6854148478752975,-0.24796742901274976,0.0,0.0,-0.6,0.0,0.005522966384887695,0.00953054428100586,0
0.35760951042175293,-0.07837922871112823,-0.03819960728287697,-0.2751271724700928,0.038795977749572504,-0.5610852369826881,-0.30983612537765043,0.6854148478752975,-0.24796742901274976,0.0,0.0,-0.6,0.0,0.0010819435119628906,0.004944324493408203,0
0.36495518684387207,-0.07722122222185135,-0.037732355296611786,-0.27846959233283997,0.03970386716059099,-0.5589473128606907,-0.3248980497605557,0.6854968178294912,-0.25378502284856164,0.0,0.0,-0.6,0.0,0.005421876907348633,0.009725809097290039,0
0.3767845630645752,-0.07722122222185135,-0.037732355296611786,-0.27846959233283997,0.03970386716059099,-0.5589473128606907,-0.3248980497605557,0.6854968178294912,-0.25378502284856164,0.0,0.0,-0.6,0.0,0.0011043548583984375,0.004983425140380859,0
0.3837888240814209,-0.07485851645469666,-0.03679243102669716,-0.28546789288520813,0.04140467259027776,-0.552712239280955,-0.3712720416186082,0.6851979042457877,-0.26474578183758085,0.0,0.0,-0.6,0.0,0.0064258575439453125,0.010313987731933594,0
0.39614224433898926,-0.0736490935087204,-0.036290738731622696,-0.2891325056552887,0.04243763613087976,-0.5496993466504468,-0.39431114008126367,0.6812948581856294,-0.27137771245578035,0.0,0.0,-0.6,0.0,0.005415201187133789,0.009436607360839844,0
0.4076380729675293,-0.0736490935087204,-0.036290738731622696,-0.2891325056552887,0.04243763613087976,-0.5496993466504468,-0.39431114008126367,0.6812948581856294,-0.27137771245578035,0.0,0.0,-0.6,0.0,0.0010766983032226562,0.004922151565551758,0
0.4145066738128662,-0.07000879943370819,-0.03483821079134941,-0.30062076449394226,0.04573523411991428,-0.5426526942334071,-0.3758860161424773,0.5907273589142839,-0.29243530906381004,0.0,0.0,-0.6,0.0,0.0054476261138916016,0.00942540168762207,0
0.4253504276275635,-0.07000879943370819,-0.03483821079134941,-0.30062076449394226,0.04573523411991428,-0.5426526942334071,-0.3758860161424773,0.5907273589142839,-0.29243530906381004,0.0,0.0,-0.6,0.0,0.0011250972747802734,0.004865884780883789,0
0.4320673942565918,-0.06877458840608597,-0.03437059745192528,-0.3046424090862274,0.046979967028609,-0.5409115188796544,-0.3522280635819893,0.5142319456021953,-0.30045624962462325,0.0,0.0,-0.6,0.0,0.00658416748046875,0.010461091995239258,0
0.44463276863098145,-0.06877458840608597,-0.03437059745192528,-0.3046424090862274,0.046979967028609,-0.5409115188796544,-0.3522280635819893,0.5142319456021953,-0.30045624962462325,0.0,0.0,-0.6,0.0,0.0011262893676757812,0.004946708679199219,0
0.4516489505767822,-0.06630814075469971,-0.03339872509241104,-0.31271591782569885,0.04926090691603485,-0.5369240038025592,-0.3357842163407784,0.4259173474633772,-0.3150706964780335,0.0,0.0,-0.6,0.0,0.005630970001220703,0.009305715560913086,0
0.4627997875213623,-0.06630814075469971,-0.03339872509241104,-0.31271591782569885,0.04926090691603485,-0.5369240038025592,-0.3357842163407784,0.4259173474633772,-0.3150706964780335,0.0,0.0,-0.6,0.0,0.0011348724365234375,0.004855155944824219,0
0.47044849395751953,-0.065048448741436,-0.03292093053460121,-0.31681105494499207,0.050488926238794314,-0.53488211126156,-0.30909470944681317,0.36489458608950626,-0.3229302820297178,0.0,0.0,-0.6,0.0,0.005526542663574219,0.009380578994750977,0
0.4818079471588135,-0.06254585087299347,-0.03194223344326019,-0.3250228464603424,0.052803829801759426,-0.5323368522458565,-0.23965442382773333,0.34618287985596446,-0.337564219603678,0.0,0.0,-0.6,0.0,0.00619196891784668,0.010002851486206055,0
0.49379420280456543,-0.06254585087299347,-0.03194223344326019,-0.3250228464603424,0.052803829801759426,-0.5323368522458565,-0.23965442382773333,0.34618287985596446,-0.337564219603678,0.0,0.0,-0.6,0.0,0.0010743141174316406,0.005045413970947266,0
0.5008256435394287,-0.06129394471645355,-0.03149475157260895,-0.3291639983654022,0.053951083614700614,-0.5314080414392504,-0.1939366207759289,0.3099960788755968,-0.3448823800551962,0.0,0.0,-0.6,0.0,0.005414247512817383,0.009485960006713867,0
0.5123016834259033,-0.05877212435007095,-0.030575301498174667,-0.33741235733032227,0.0561438501655502,-0.5280575730282536,-0.10532775060719944,0.27195169584671874,-0.35888443451229013,0.0,0.0,-0.6,0.0,0.006470918655395508,0.010202646255493164,0
0.5243604183197021,-0.05877212435007095,-0.030575301498174667,-0.33741235733032227,0.0561438501655502,-0.5280575730282536,-0.10532775060719944,0.27195169584671874,-0.35888443451229013,0.0,0.0,-0.6,0.0,0.001131296157836914,0.004879474639892578,0
0.5317275524139404,-0.05623920261859894,-0.029715824872255325,-0.3456535339355469,0.05809094664867862,-0.5272519130302956,-0.016292309591658654,0.1621663605428706,-0.3714293528560503,0.0,0.0,-0.6,0.0,0.005747079849243164,0.009565591812133789,0
0.5429046154022217,-0.05623920261859894,-0.029715824872255325,-0.3456535339355469,0.05809094664867862,-0.5272519130302956,-0.016292309591658654,0.1621663605428706,-0.3714293528560503,0.0,0.0,-0.6,0.0,0.0011038780212402344,0.004783153533935547,0
0.5501015186309814,-0.053708698600530624,-0.028893673792481422,-0.3537443280220032,0.05996293931693547,-0.5255080178202831,0.09023995405863211,0.05427253986274309,-0.38351693296615313,0.0,0.0,-0.6,0.0,0.00628352165222168,0.010617733001708984,0
0.5620896816253662,-0.053708698600530624,-0.028893673792481422,-0.3537443280220032,0.05996293931693547,-0.5255080178202831,0.09023995405863211,0.05427253986274309,-0.38351693296615313,0.0,0.0,-0.6,0.0,0.0010826587677001953,0.005151033401489258,0
0.5703880786895752,-0.05119970440864563,-0.02813509851694107,-0.3616860806941986,0.06149376994201569,-0.5245350427104154,0.1780540075905854,-0.017851233503210093,-0.3934321099700574,0.0,0.0,-0.6,0.0,0.005362510681152344,0.009714841842651367,0
0.5813329219818115,-0.05119970440864563,-0.02813509851694107,-0.3616860806941986,0.06149376994201569,-0.5245350427104154,0.1780540075905854,-0.017851233503210093,-0.3934321099700574,0.0,0.0,-0.6,0.0,0.001089334487915039,0.0048291683197021484,0
0.5899622440338135,-0.04875047132372856,-0.027467891573905945,-0.36943429708480835,0.06275594395470788,-0.5239991596241151,0.15836711244020965,-0.06760754808940854,-0.40148087328897314,0.0,0.0,-0.6,0.0,0.005675077438354492,0.009651422500610352,0
0.600938081741333,-0.04875047132372856,-0.027467891573905945,-0.36943429708480835,0.06275594395470788,-0.5239991596241151,0.15836711244020965,-0.06760754808940854,-0.40148087328897314,0.0,0.0,-0.6,0.0,0.0010955333709716797,0.004905223846435547,0
0.6098842620849609,-0.04632941633462906,-0.02684304304420948,-0.3770040273666382,0.06372305467464091,-0.5224916891844331,0.1996443790140187,-0.09667798672659468,-0.4077411123447838,0.0,0.0,-0.6,0.0,0.0055086612701416016,0.009346723556518555,0
0.6205570697784424,-0.04632941633462906,-0.02684304304420948,-0.3770040273666382,0.06372305467464091,-0.5224916891844331,0.1996443790140187,-0.09667798672659468,-0.4077411123447838,0.0,0.0,-0.6,0.0,0.0011267662048339844,0.0050334930419921875,0
0.6297178268432617,-0.045158881694078445,-0.026549091562628746,-0.3806948661804199,0.06416696086824115,-0.5230962773826866,0.18829669304381433,-0.11494652746831788,-0.4105440667473166,0.0,0.0,-0.6,0.0,0.005362272262573242,0.009371519088745117,0
0.6404290199279785,-0.045158881694078445,-0.026549091562628746,-0.3806948661804199,0.06416696086824115,-0.5230962773826866,0.18829669304381433,-0.11494652746831788,-0.4105440667473166,0.0,0.0,-0.6,0.0,0.0011093616485595703,0.0048065185546875,0
0.6496882438659668,-0.04259636253118515,-0.025896651670336723,-0.38882505893707275,0.06497051697063419,-0.5232151439883264,0.24177077936140484,-0.19131665056947067,-0.41571905476679516,0.0,0.0,-0.6,0.0,0.0052182674407958984,0.009287834167480469,0
0.6602814197540283,-0.04259636253118515,-0.025896651670336723,-0.38882505893707275,0.06497051697063419,-0.5232151439883264,0.24177077936140484,-0.19131665056947067,-0.41571905476679516,0.0,0.0,-0.6,0.0,0.0011229515075683594,0.004856586456298828,0
0.6714668273925781,-0.03961086645722389,-0.02511640079319477,-0.3981868028640747,0.06562844362584945,-0.5235119603240852,0.28041362514861173,-0.1884830152257985,-0.4200068944015409,0.0,0.0,-0.6,0.0,0.005432844161987305,0.009119987487792969,0
0.6819136142730713,-0.03961086645722389,-0.02511640079319477,-0.3981868028640747,0.06562844362584945,-0.5235119603240852,0.28041362514861173,-0.1884830152257985,-0.4200068944015409,0.0,0.0,-0.6,0.0,0.0010595321655273438,0.0048520565032958984,0
0.6897962093353271,-0.03858829289674759,-0.024844292551279068,-0.40146076679229736,0.06577922752427263,-0.5237491310738045,0.2727765248591165,-0.18836429419491935,-0.42095093018699653,0.0,0.0,-0.6,0.0,0.004408121109008789,0.00865030288696289,0
0.7004008293151855,-0.03758738562464714,-0.02455783262848854,-0.40467458963394165,0.0658762962171442,-0.5232601127019666,0.2880270027479197,-0.1663770430790793,-0.4216318040307722,0.0,0.0,-0.6,0.0,0.0054302215576171875,0.009232044219970703,0
0.7122414112091064,-0.035925447940826416,-0.02414621040225029,-0.4101574420928955,0.06595258006618897,-0.5238056577736293,0.22613246494422223,-0.21515791323307948,-0.42196289619340915,0.0,0.0,-0.6,0.0,0.005671977996826172,0.009535551071166992,0
0.7231626510620117,-0.035925447940826416,-0.02414621040225029,-0.4101574420928955,0.06595258006618897,-0.5238056577736293,0.22613246494422223,-0.21515791323307948,-0.42196289619340915,0.0,0.0,-0.6,0.0,0.0010826587677001953,0.005004167556762695,0
0.7305421829223633,-0.03417157009243965,-0.023729262873530388,-0.4162425696849823,0.06584642336739763,-0.5235152302777573,0.18612653575390795,-0.18298349344221987,-0.4212431935781933,0.0,0.0,-0.6,0.0,0.005624055862426758,0.009494304656982422,0
0.7413415908813477,-0.03417157009243965,-0.023729262873530388,-0.4162425696849823,0.06584642336739763,-0.5235152302777573,0.18612653575390795,-0.18298349344221987,-0.4212431935781933,0.0,0.0,-0.6,0.0,0.0011456012725830078,0.004937410354614258,0
0.7496926784515381,-0.032713841646909714,-0.023370882496237755,-0.42133980989456177,0.06559183408455638,-0.5240984983912383,0.1930855111634688,-0.16639653775272853,-0.41965422652492623,0.0,0.0,-0.6,0.0,0.005357265472412109,0.009365558624267578,0
0.7604289054870605,-0.032713841646909714,-0.023370882496237755,-0.42133980989456177,0.06559183408455638,-0.5240984983912383,0.1930855111634688,-0.16639653775272853,-0.41965422652492623,0.0,0.0,-0.6,0.0,0.0011038780212402344,0.0048828125,0
0.7710206508636475,-0.03114360012114048,-0.02306981012225151,-0.4270123839378357,0.06506190175031755,-0.523476323261756,0.1741567249579892,-0.09101913893501422,-0.41626664896184995,0.0,0.0,-0.6,0.0,0.005823612213134766,0.009767770767211914,0
0.7822573184967041,-0.03114360012114048,-0.02306981012225151,-0.4270123839378357,0.06506190175031755,-0.523476323261756,0.1741567249579892,-0.09101913893501422,-0.41626664896184995,0.0,0.0,-0.6,0.0,0.00107574462890625,0.005084037780761719,0
0.7898342609405518,-0.029843011870980263,-0.022772623226046562,-0.43171897530555725,0.06447763610352006,-0.5241878734858745,0.08513314059820087,-0.10623671994776002,-0.41240966349510727,0.0,0.0,-0.6,0.0,0.005171775817871094,0.008979320526123047,0
0.8009500503540039,-0.0291528832167387,-0.022641897201538086,-0.4343775510787964,0.06411729399008635,-0.5238619460143947,0.09454309576831298,-0.0645792070099093,-0.4101141254031103,0.0,0.0,-0.6,0.0,0.005558013916015625,0.009610652923583984,0
0.8119654655456543,-0.0291528832167387,-0.022641897201538086,-0.4343775510787964,0.06411729399008635,-0.5238619460143947,0.09454309576831298,-0.0645792070099093,-0.4101141254031103,0.0,0.0,-0.6,0.0,0.0011065006256103516,0.0051670074462890625,0
0.8200664520263672,-0.02731853537261486,-0.022357890382409096,-0.44147345423698425,0.0627718541762863,-0.5233468687544495,0.04851744250715804,-0.021006781937973132,-0.4014536619436096,0.0,0.0,-0.6,0.0,0.004495859146118164,0.008683204650878906,0
0.8300111293792725,-0.02731853537261486,-0.022357890382409096,-0.44147345423698425,0.0627718541762863,-0.5233468687544495,0.04851744250715804,-0.021006781937973132,-0.4014536619436096,0.0,0.0,-0.6,0.0,0.0010874271392822266,0.004837989807128906,0
0.8401379585266113,-0.026187488809227943,-0.02214757911860943,-0.4464128315448761,0.06197570684349514,-0.5239813313817224,-0.017790916077217625,-0.001369435751237207,-0.39632596869552966,0.0,0.0,-0.6,0.0,0.005780458450317383,0.009747505187988281,0
0.851393461227417,-0.026187488809227943,-0.02214757911860943,-0.4464128315448761,0.06197570684349514,-0.5239813313817224,-0.017790916077217625,-0.001369435751237207,-0.39632596869552966,0.0,0.0,-0.6,0.0,0.0010712146759033203,0.005080461502075195,0
0.8596515655517578,-0.02517787739634514,-0.02197280153632164,-0.45056504011154175,0.061052055190950374,-0.5248964069426402,-0.039175779591254734,0.042044229491533226,-0.390378352506898,0.0,0.0,-0.6,0.0,0.005733489990234375,0.009583473205566406,0
0.8713078498840332,-0.02517787739634514,-0.02197280153632164,-0.45056504011154175,0.061052055190950374,-0.5248964069426402,-0.039175779591254734,0.042044229491533226,-0.390378352506898,0.0,0.0,-0.6,0.0,0.0010752677917480469,0.004892826080322266,0
0.8795955181121826,-0.024211013689637184,-0.021862514317035675,-0.4551568925380707,0.059989522032471106,-0.524339112262772,-0.02954705246406774,0.05226336507677984,-0.38356716081090686,0.0,0.0,-0.6,0.0,0.005646944046020508,0.009907245635986328,0
0.8910415172576904,-0.024211013689637184,-0.021862514317035675,-0.4551568925380707,0.059989522032471106,-0.524339112262772,-0.02954705246406774,0.05226336507677984,-0.38356716081090686,0.0,0.0,-0.6,0.0,0.00113677978515625,0.004927158355712891,0
0.8996014595031738,-0.02332794852554798,-0.021742256358265877,-0.45956653356552124,0.05895231382962539,-0.5250039975309512,-0.07926549885311505,0.008078089951608147,-0.37701768334278785,0.0,0.0,-0.6,0.0,0.0056798458099365234,0.009675741195678711,0
0.9106662273406982,-0.02332794852554798,-0.021742256358265877,-0.45956653356552124,0.05895231382962539,-0.5250039975309512,-0.07926549885311505,0.008078089951608147,-0.37701768334278785,0.0,0.0,-0.6,0.0,0.0010809898376464844,0.00506281852722168,0
0.919675350189209,-0.02251855656504631,-0.021614616736769676,-0.4637863039970398,0.05793968768551499,-0.5261264580364624,-0.1099437175760646,0.021990611361725827,-0.37054975559044057,0.0,0.0,-0.6,0.0,0.0053670406341552734,0.009236335754394531,0
0.9302818775177002,-0.02251855656504631,-0.021614616736769676,-0.4637863039970398,0.05793968768551499,-0.5261264580364624,-0.1099437175760646,0.021990611361725827,-0.37054975559044057,0.0,0.0,-0.6,0.0,0.0010864734649658203,0.004905223846435547,0
0.939659833908081,-0.021754281595349312,-0.02144055999815464,-0.46779122948646545,0.05695727623623676,-0.5260172229331035,-0.12923288080179293,0.0857609388616206,-0.3641775177530418,0.0,0.0,-0.6,0.0,0.0057108402252197266,0.009965896606445312,0
0.9511575698852539,-0.021754281595349312,-0.02144055999815464,-0.46779122948646545,0.05695727623623676,-0.5260172229331035,-0.12923288080179293,0.0857609388616206,-0.3641775177530418,0.0,0.0,-0.6,0.0,0.0012030601501464844,0.005347013473510742,0
0.9596860408782959,-0.021043071523308754,-0.02122013457119465,-0.4715605676174164,0.05615385229536703,-0.5267624580001492,-0.19627684037795987,0.10985427565704367,-0.3590584364068477,0.0,0.0,-0.6,0.0,0.005197763442993164,0.008908987045288086,0
0.9706165790557861,-0.021043071523308754,-0.02122013457119465,-0.4715605676174164,0.05615385229536703,-0.5267624580001492,-0.19627684037795987,0.10985427565704367,-0.3590584364068477,0.0,0.0,-0.6,0.0,0.0010831356048583984,0.004949331283569336,0
0.9801065921783447,-0.02037433534860611,-0.020998546853661537,-0.47508805990219116,0.055298591030824684,-0.527126347455045,-0.21960475191534257,0.13323844723915904,-0.35357631959931746,0.0,0.0,-0.6,0.0,0.004270792007446289,0.007963895797729492,0
0.9909331798553467,-0.020058700814843178,-0.020882267504930496,-0.4767917990684509,0.05487993764216109,-0.5276055294822879,-0.22010662804401662,0.13234047542699892,-0.3509097756488577,0.0,0.0,-0.6,0.0,0.004431724548339844,0.008204221725463867,0
1.000422716140747,-0.020058700814843178,-0.020882267504930496,-0.4767917990684509,0.05487993764216109,-0.5276055294822879,-0.22010662804401662,0.13234047542699892,-0.3509097756488577,0.0,0.0,-0.6,0.0,0.0011124610900878906,0.005019187927246094,0
1.010012149810791,-0.019405920058488846,-0.020645160228013992,-0.48005804419517517,0.0543344409334035,-0.5284338266680078,-0.1973555291242794,0.13501292911035484,-0.3474023899074135,0.0,0.0,-0.6,0.0,0.0046422481536865234,0.00879979133605957,0
1.020078182220459,-0.019405920058488846,-0.020645160228013992,-0.48005804419517517,0.0543344409334035,-0.5284338266680078,-0.1973555291242794,0.13501292911035484,-0.3474023899074135,0.0,0.0,-0.6,0.0,0.0011186599731445312,0.004904747009277344,0
1.029679775238037,-0.018781762570142746,-0.02034379541873932,-0.4831283688545227,0.05372771829199774,-0.5301619197502551,-0.15427265159488787,0.12048427141960576,-0.3435158158773568,0.0,0.0,-0.6,0.0,0.004364490509033203,0.00828242301940918,0
1.041313886642456,-0.018428780138492584,-0.020185960456728935,-0.4845868647098541,0.05351838880573775,-0.5306078903907016,-0.1532567782853744,0.1328384965457462,-0.3421569487532263,0.0,0.0,-0.6,0.0,0.004632472991943359,0.008817672729492188,0
1.0514724254608154,-0.018428780138492584,-0.020185960456728935,-0.4845868647098541,0.05351838880573775,-0.5306078903907016,-0.1532567782853744,0.1328384965457462,-0.3421569487532263,0.0,0.0,-0.6,0.0,0.0010669231414794922,0.0049571990966796875,0
1.0597436428070068,-0.017740672454237938,-0.01989339105784893,-0.48734378814697266,0.053230214010042284,-0.5317396796908406,-0.18137388116737854,0.13581466881965235,-0.3403549558998092,0.0,0.0,-0.6,0.0,0.005327701568603516,0.009123086929321289,0
1.070777177810669,-0.017740672454237938,-0.01989339105784893,-0.48734378814697266,0.053230214010042284,-0.5317396796908406,-0.18137388116737854,0.13581466881965235,-0.3403549558998092,0.0,0.0,-0.6,0.0,0.0010819435119628906,0.0049839019775390625,0
1.0807750225067139,-0.016991326585412025,-0.019573625177145004,-0.49022412300109863,0.05267833648002169,-0.5324504883353142,-0.16126602632340678,0.1664864895446406,-0.33677560726534606,0.0,0.0,-0.6,0.0,0.005094766616821289,0.010999441146850586,0
1.0941801071166992,-0.016991326585412025,-0.019573625177145004,-0.49022412300109863,0.05267833648002169,-0.5324504883353142,-0.16126602632340678,0.1664864895446406,-0.33677560726534606,0.0,0.0,-0.6,0.0,0.0013167858123779297,0.00578761100769043,0
1.1022346019744873,-0.01664094813168049,-0.019410545006394386,-0.4914032816886902,0.052389863966383066,-0.5329441198360826,-0.13413322188326826,0.16016850064752328,-0.33492065716614927,0.0,0.0,-0.6,0.0,0.0058557987213134766,0.010304927825927734,0
1.115358829498291,-0.01595594361424446,-0.019065765663981438,-0.4936174750328064,0.051772962901769054,-0.5347120827402685,-0.07115713096597656,0.14699606944025842,-0.3309451576824977,0.0,0.0,-0.6,0.0,0.005114316940307617,0.009994745254516602,0
1.1283049583435059,-0.01595594361424446,-0.019065765663981438,-0.4936174750328064,0.051772962901769054,-0.5347120827402685,-0.07115713096597656,0.14699606944025842,-0.3309451576824977,0.0,0.0,-0.6,0.0,0.0011522769927978516,0.005654335021972656,0
1.137068271636963,-0.015318048186600208,-0.01871616020798683,-0.4953935146331787,0.05122506425239328,-0.5350278576747846,-0.07663323652103572,0.15529963072623806,-0.3274674262483275,0.0,0.0,-0.6,0.0,0.004766225814819336,0.009830713272094727,0
1.148036241531372,-0.015318048186600208,-0.01871616020798683,-0.4953935146331787,0.05122506425239328,-0.5350278576747846,-0.07663323652103572,0.15529963072623806,-0.3274674262483275,0.0,0.0,-0.6,0.0,0.0018019676208496094,0.006330728530883789,0
1.1572306156158447,-0.014679047279059887,-0.018312416970729828,-0.4973324239253998,0.05064643436036915,-0.5354214716624807,-0.02222678573203759,0.10745521054789069,-0.3237680865926782,0.0,0.0,-0.6,0.0,0.004912137985229492,0.010017156600952148,0
1.1705524921417236,-0.01416168361902237,-0.017978625372052193,-0.49893102049827576,0.05004660513743221,-0.5361212141328089,0.03398604723196438,0.14013906969278403,-0.3198742539214545,0.0,0.0,-0.6,0.0,0.005419731140136719,0.01006937026977539,0
1.1824352741241455,-0.01416168361902237,-0.017978625372052193,-0.49893102049827576,0.05004660513743221,-0.5361212141328089,0.03398604723196438,0.14013906969278403,-0.3198742539214545,0.0,0.0,-0.6,0.0,0.0013866424560546875,0.005622386932373047,0
1.1904101371765137,-0.013609359972178936,-0.01754629984498024,-0.5007303953170776,0.04935451402414858,-0.5362634433665887,0.018266685783261755,0.09369573348600481,-0.315506005163026,0.0,0.0,-0.6,0.0,0.0056002140045166016,0.010871648788452148,0
1.2026700973510742,-0.013609359972178936,-0.01754629984498024,-0.5007303953170776,0.04935451402414858,-0.5362634433665887,0.018266685783261755,0.09369573348600481,-0.315506005163026,0.0,0.0,-0.6,0.0,0.0010733604431152344,0.004999876022338867,0
1.2110459804534912,-0.013175468891859055,-0.017119083553552628,-0.5022293329238892,0.04869235987584852,-0.5365452577382666,0.054288415200262126,0.07757306099295126,-0.31126220111383934,0.0,0.0,-0.6,0.0,0.005851030349731445,0.01051187515258789,0
1.2234947681427002,-0.013175468891859055,-0.017119083553552628,-0.5022293329238892,0.04869235987584852,-0.5365452577382666,0.054288415200262126,0.07757306099295126,-0.31126220111383934,0.0,0.0,-0.6,0.0,0.0015261173248291016,0.006257295608520508,0
1.2327017784118652,-0.012392100878059864,-0.016459312289953232,-0.5045244097709656,0.047492907517944716,-0.5363206461002892,0.0854777110722279,0.09255656289384628,-0.30358677656087685,0.0,0.0,-0.6,0.0,0.005490779876708984,0.010297536849975586,0
1.2446835041046143,-0.012392100878059864,-0.016459312289953232,-0.5045244097709656,0.047492907517944716,-0.5363206461002892,0.0854777110722279,0.09255656289384628,-0.30358677656087685,0.0,0.0,-0.6,0.0,0.0014872550964355469,0.006029605865478516,0
1.253619909286499,-0.011867969296872616,-0.01600896753370762,-0.5060896277427673,0.04690695140980239,-0.5364735871167787,0.0300293072349349,0.09428400166390183,-0.2998891889178735,0.0,0.0,-0.6,0.0,0.005414247512817383,0.010506153106689453,0
1.2653768062591553,-0.011867969296872616,-0.01600896753370762,-0.5060896277427673,0.04690695140980239,-0.5364735871167787,0.0300293072349349,0.09428400166390183,-0.2998891889178735,0.0,0.0,-0.6,0.0,0.001554250717163086,0.005796670913696289,0
1.2745118141174316,-0.011583542451262474,-0.015819475054740906,-0.507036030292511,0.04642572197890533,-0.5364601008197974,0.07937911559392302,0.07619473872943039,-0.29678660513738353,0.0,0.0,-0.6,0.0,0.005204439163208008,0.009766578674316406,0
1.286170482635498,-0.011583542451262474,-0.015819475054740906,-0.507036030292511,0.04642572197890533,-0.5364601008197974,0.07937911559392302,0.07619473872943039,-0.29678660513738353,0.0,0.0,-0.6,0.0,0.0012364387512207031,0.005751371383666992,0
1.2948918342590332,-0.010805095545947552,-0.015115339308977127,-0.5093347430229187,0.045609625990710126,-0.536392936970812,0.018243878842248318,0.002367911906039977,-0.29161489405763974,0.0,0.0,-0.6,0.0,0.005468606948852539,0.009838581085205078,0
1.306067943572998,-0.010805095545947552,-0.015115339308977127,-0.5093347430229187,0.045609625990710126,-0.536392936970812,0.018243878842248318,0.002367911906039977,-0.29161489405763974,0.0,0.0,-0.6,0.0,0.0011544227600097656,0.006221294403076172,0
1.3153128623962402,-0.010548192076385021,-0.014860497787594795,-0.510077953338623,0.04538618256913249,-0.5361491734263742,0.02871682574786796,0.03653758267288094,-0.29017902356921454,0.0,0.0,-0.6,0.0,0.005223512649536133,0.010020971298217773,0
1.328244686126709,-0.010094291530549526,-0.014397723600268364,-0.5115534663200378,0.04478514246913647,-0.5363944594290088,0.029843752513715373,0.04163753651869652,-0.2863350295979323,0.0,0.0,-0.6,0.0,0.0046236515045166016,0.009046792984008789,0
1.34004807472229,-0.010094291530549526,-0.014397723600268364,-0.5115534663200378,0.04478514246913647,-0.5363944594290088,0.029843752513715373,0.04163753651869652,-0.2863350295979323,0.0,0.0,-0.6,0.0,0.0015850067138671875,0.006447792053222656,0
1.3509204387664795,-0.009720291011035442,-0.013928668573498726,-0.5129483938217163,0.044273401308840575,-0.5362090328365826,0.026901723477091997,0.02586267755293594,-0.2830722321224332,0.0,0.0,-0.6,0.0,0.005424022674560547,0.010007381439208984,0
1.3627543449401855,-0.009720291011035442,-0.013928668573498726,-0.5129483938217163,0.044273401308840575,-0.5362090328365826,0.026901723477091997,0.02586267755293594,-0.2830722321224332,0.0,0.0,-0.6,0.0,0.0015497207641601562,0.006289243698120117,0
1.3723394870758057,-0.009393732994794846,-0.013487327843904495,-0.5142568945884705,0.0437600084669717,-0.5375613441537753,0.015397491057988178,-0.016719297349818647,-0.2798126968359791,0.0,0.0,-0.6,0.0,0.005083560943603516,0.009669065475463867,0
1.384855031967163,-0.009393732994794846,-0.013487327843904495,-0.5142568945884705,0.0437600084669717,-0.5375613441537753,0.015397491057988178,-0.016719297349818647,-0.2798126968359791,0.0,0.0,-0.6,0.0,0.001512765884399414,0.0063648223876953125,0
1.3930654525756836,-0.00897829607129097,-0.012899680063128471,-0.5160447955131531,0.0433488505225713,-0.5379099496219538,-0.008871978168781535,-0.09633004863778961,-0.2772388005540134,0.0,0.0,-0.6,0.0,0.005379915237426758,0.009716510772705078,0
1.4044034481048584,-0.00897829607129097,-0.012899680063128471,-0.5160447955131531,0.0433488505225713,-0.5379099496219538,-0.008871978168781535,-0.09633004863778961,-0.2772388005540134,0.0,0.0,-0.6,0.0,0.0012056827545166016,0.005262613296508789,0
1.4116151332855225,-0.00897829607129097,-0.012899680063128471,-0.5160447955131531,0.0433488505225713,-0.5379099496219538,-0.008871978168781535,-0.09633004863778961,-0.2772388005540134,0.0,0.0,-0.6,0.0,0.0015118122100830078,0.005992412567138672,0
1.420879602432251,-0.008714986965060234,-0.012395582161843777,-0.5175659656524658,0.0427487649057129,-0.5385632998473185,-0.003580153730400907,-0.060100482750789976,-0.2733874240554783,0.0,0.0,-0.6,0.0,0.0049474239349365234,0.00969076156616211,0
1.4330110549926758,-0.008714986965060234,-0.012395582161843777,-0.5175659656524658,0.0427487649057129,-0.5385632998473185,-0.003580153730400907,-0.060100482750789976,-0.2733874240554783,0.0,0.0,-0.6,0.0,0.0013649463653564453,0.0060651302337646484,0
1.4412789344787598,-0.008714986965060234,-0.012395582161843777,-0.5175659656524658,0.0427487649057129,-0.5385632998473185,-0.003580153730400907,-0.060100482750789976,-0.2733874240554783,0.0,0.0,-0.6,0.0,0.0015377998352050781,0.00641942024230957,0
1.4503626823425293,-0.008675123564898968,-0.012091646902263165,-0.5184061527252197,0.04237734024638844,-0.5394069396912992,0.002407891467946466,-0.046182234407803696,-0.2710081235067911,0.0,0.0,-0.6,0.0,0.004506826400756836,0.00923609733581543,0
1.4623377323150635,-0.008687630295753479,-0.011967825703322887,-0.5187903046607971,0.04228288148227978,-0.5403086747385303,-0.01908161901861855,-0.0849675980571365,-0.27043565043805523,0.0,0.0,-0.6,0.0,0.0055506229400634766,0.010120630264282227,0
1.4748954772949219,-0.008687630295753479,-0.011967825703322887,-0.5187903046607971,0.04228288148227978,-0.5403086747385303,-0.01908161901861855,-0.0849675980571365,-0.27043565043805523,0.0,0.0,-0.6,0.0,0.0010943412780761719,0.0052683353424072266,0
1.4838473796844482,-0.008779723197221756,-0.011698796413838863,-0.519474983215332,0.042098051523754884,-0.5402844993064714,-0.003836774489617936,-0.16396766981823788,-0.2693222628827359,0.0,0.0,-0.6,0.0,0.006253480911254883,0.010772228240966797,0
1.4957797527313232,-0.008779723197221756,-0.011698796413838863,-0.519474983215332,0.042098051523754884,-0.5402844993064714,-0.003836774489617936,-0.16396766981823788,-0.2693222628827359,0.0,0.0,-0.6,0.0,0.0014522075653076172,0.006274223327636719,0
1.5052192211151123,-0.009072819724678993,-0.011318680830299854,-0.5205066204071045,0.041522150801089855,-0.540183881658795,-0.03242530812172276,-0.12084353795802469,-0.26560860482704773,0.0,0.0,-0.6,0.0,0.004210233688354492,0.008464336395263672,0
1.5154805183410645,-0.009072819724678993,-0.011318680830299854,-0.5205066204071045,0.041522150801089855,-0.540183881658795,-0.03242530812172276,-0.12084353795802469,-0.26560860482704773,0.0,0.0,-0.6,0.0,0.001569509506225586,0.007055997848510742,0
1.524057149887085,-0.009072819724678993,-0.011318680830299854,-0.5205066204071045,0.041522150801089855,-0.540183881658795,-0.03242530812172276,-0.12084353795802469,-0.26560860482704773,0.0,0.0,-0.6,0.0,0.0016512870788574219,0.00636601448059082,0
1.53330397605896,-0.009312817826867104,-0.011071830987930298,-0.521091878414154,0.04109045632187201,-0.5409064690365933,0.024205192583555055,-0.1487861854768099,-0.26285290749236206,0.0,0.0,-0.6,0.0,0.005239248275756836,0.010181903839111328,0
1.5463197231292725,-0.009312817826867104,-0.011071830987930298,-0.521091878414154,0.04109045632187201,-0.5409064690365933,0.024205192583555055,-0.1487861854768099,-0.26285290749236206,0.0,0.0,-0.6,0.0,0.0014803409576416016,0.006743669509887695,0
1.5551834106445312,-0.009561114944517612,-0.01085754670202732,-0.5216175317764282,0.040767205750454755,-0.5412790915899043,-0.0033864253558855946,-0.18616483375291992,-0.26080281662954025,0.0,0.0,-0.6,0.0,0.006285429000854492,0.010753393173217773,0
1.5685484409332275,-0.009561114944517612,-0.01085754670202732,-0.5216175317764282,0.040767205750454755,-0.5412790915899043,-0.0033864253558855946,-0.18616483375291992,-0.26080281662954025,0.0,0.0,-0.6,0.0,0.0013701915740966797,0.006325244903564453,0
1.578162431716919,-0.009994051419198513,-0.01049664057791233,-0.5222925543785095,0.040285536759441076,-0.541500624210885,0.06804611048585286,-0.12199764798111344,-0.2576253158168023,0.0,0.0,-0.6,0.0,0.006101131439208984,0.010902643203735352,0
1.5916597843170166,-0.009994051419198513,-0.01049664057791233,-0.5222925543785095,0.040285536759441076,-0.541500624210885,0.06804611048585286,-0.12199764798111344,-0.2576253158168023,0.0,0.0,-0.6,0.0,0.0014564990997314453,0.005780935287475586,0
1.6012394428253174,-0.01036303024739027,-0.010244917124509811,-0.5227786898612976,0.0397046217679045,-0.5413143031810331,0.03154367725786619,-0.05135319038041657,-0.2538776101379561,0.0,0.0,-0.6,0.0,0.005576610565185547,0.010413169860839844,0
1.6128129959106445,-0.01036303024739027,-0.010244917124509811,-0.5227786898612976,0.0397046217679045,-0.5413143031810331,0.03154367725786619,-0.05135319038041657,-0.2538776101379561,0.0,0.0,-0.6,0.0,0.0012433528900146484,0.006585121154785156,0
1.6218645572662354,-0.010704043321311474,-0.009968721307814121,-0.5232275128364563,0.03922126612987664,-0.5412978004963843,0.04825835278995468,-0.052919457054509046,-0.2507623629705337,0.0,0.0,-0.6,0.0,0.005627632141113281,0.010146856307983398,0
1.6347191333770752,-0.010704043321311474,-0.009968721307814121,-0.5232275128364563,0.03922126612987664,-0.5412978004963843,0.04825835278995468,-0.052919457054509046,-0.2507623629705337,0.0,0.0,-0.6,0.0,0.0017228126525878906,0.005756378173828125,0
1.6430447101593018,-0.010943569242954254,-0.009650180116295815,-0.5236626267433167,0.03878507637319534,-0.5414607368030533,-0.013833845935013958,-0.021348731387636277,-0.24801510732652063,0.0,0.0,-0.6,0.0,0.005183219909667969,0.010538816452026367,0
1.6561007499694824,-0.010943569242954254,-0.009650180116295815,-0.5236626267433167,0.03878507637319534,-0.5414607368030533,-0.013833845935013958,-0.021348731387636277,-0.24801510732652063,0.0,0.0,-0.6,0.0,0.0014524459838867188,0.006272792816162109,0
1.6649377346038818,-0.011298147030174732,-0.009292565286159515,-0.524099588394165,0.03834828688073424,-0.5420633609839359,-0.029071861227481687,-0.05130687008180594,-0.24526239098864971,0.0,0.0,-0.6,0.0,0.0060749053955078125,0.01097249984741211,0
1.6800670623779297,-0.011646606959402561,-0.00890369527041912,-0.5245001316070557,0.03781350854762793,-0.5405435881254985,0.010155581152713712,0.013794472564009189,-0.24175078968734381,0.0,0.0,-0.6,0.0,0.005006074905395508,0.009806394577026367,0
1.6920323371887207,-0.011646606959402561,-0.00890369527041912,-0.5245001316070557,0.03781350854762793,-0.5405435881254985,0.010155581152713712,0.013794472564009189,-0.24175078968734381,0.0,0.0,-0.6,0.0,0.0015521049499511719,0.006651639938354492,0
1.7009310722351074,-0.012077884748578072,-0.00857364758849144,-0.5249783992767334,0.037336413046381134,-0.5407343801572966,-0.04179232840938501,0.0003474818390290088,-0.23879274600746642,0.0,0.0,-0.6,0.0,0.005201816558837891,0.00998067855834961,0
1.7123498916625977,-0.012077884748578072,-0.00857364758849144,-0.5249783992767334,0.037336413046381134,-0.5407343801572966,-0.04179232840938501,0.0003474818390290088,-0.23879274600746642,0.0,0.0,-0.6,0.0,0.0011248588562011719,0.00514531135559082,0
1.72267746925354,-0.01249528955668211,-0.008245528675615788,-0.5254519581794739,0.03689570583305117,-0.5402046829266018,-0.016798438631866357,-0.002498982425927187,-0.2359396396534704,0.0,0.0,-0.6,0.0,0.005381584167480469,0.010039329528808594,0
1.734612226486206,-0.01249528955668211,-0.008245528675615788,-0.5254519581794739,0.03689570583305117,-0.5402046829266018,-0.016798438631866357,-0.002498982425927187,-0.2359396396534704,0.0,0.0,-0.6,0.0,0.001796722412109375,0.006250858306884766,0
1.7441115379333496,-0.013074162416160107,-0.007798363454639912,-0.5262437462806702,0.036220874274744894,-0.5401755392633923,-0.04351818566846038,0.0162338309821273,-0.23165883817441843,0.0,0.0,-0.6,0.0,0.005530595779418945,0.010260343551635742,0
1.756140947341919,-0.013074162416160107,-0.007798363454639912,-0.5262437462806702,0.036220874274744894,-0.5401755392633923,-0.04351818566846038,0.0162338309821273,-0.23165883817441843,0.0,0.0,-0.6,0.0,0.0013203620910644531,0.0058765411376953125,0
1.7649176120758057,-0.01353383343666792,-0.0075051989406347275,-0.5267892479896545,0.03576328849093954,-0.5396800312753413,-0.08427410296315445,0.027415730466703862,-0.22879725867892403,0.0,0.0,-0.6,0.0,0.00552058219909668,0.010694742202758789,0
1.778080940246582,-0.01353383343666792,-0.0075051989406347275,-0.5267892479896545,0.03576328849093954,-0.5396800312753413,-0.08427410296315445,0.027415730466703862,-0.22879725867892403,0.0,0.0,-0.6,0.0,0.0011277198791503906,0.00612640380859375,0
1.7866191864013672,-0.013976454734802246,-0.007196761667728424,-0.5273053646087646,0.035662446697198175,-0.5397368111081907,-0.06414073939855153,0.06566504953093559,-0.2280847121340017,0.0,0.0,-0.6,0.0,0.004656791687011719,0.009811878204345703,0
1.798445224761963,-0.013976454734802246,-0.007196761667728424,-0.5273053646087646,0.035662446697198175,-0.5397368111081907,-0.06414073939855153,0.06566504953093559,-0.2280847121340017,0.0,0.0,-0.6,0.0,0.0012595653533935547,0.0055925846099853516,0
1.807382345199585,-0.014399852603673935,-0.006877402309328318,-0.5278072953224182,0.03547048209996127,-0.5399818876886533,-0.04318943491230076,0.04337975429116881,-0.2268420373758407,0.0,0.0,-0.6,0.0,0.004987239837646484,0.009927511215209961,0
1.8185625076293945,-0.014399852603673935,-0.006877402309328318,-0.5278072953224182,0.03547048209996127,-0.5399818876886533,-0.04318943491230076,0.04337975429116881,-0.2268420373758407,0.0,0.0,-0.6,0.0,0.0011105537414550781,0.005873441696166992,0
1.8279600143432617,-0.014791813679039478,-0.006533733569085598,-0.5283088684082031,0.035274955540653574,-0.5401739140316527,-0.013823698113313777,0.020590045093476016,-0.22556134496275435,0.0,0.0,-0.6,0.0,0.00516057014465332,0.010180234909057617,0
1.8399145603179932,-0.014791813679039478,-0.006533733569085598,-0.5283088684082031,0.035274955540653574,-0.5401739140316527,-0.013823698113313777,0.020590045093476016,-0.22556134496275435,0.0,0.0,-0.6,0.0,0.0016226768493652344,0.0064697265625,0
1.8507590293884277,-0.015311766415834427,-0.005989892408251762,-0.528951108455658,0.03508743808134059,-0.5412194526357608,-0.0613191558464216,0.03292082957608482,-0.2244344135575948,0.0,0.0,-0.6,0.0,0.006211042404174805,0.010960102081298828,0
1.8635971546173096,-0.015311766415834427,-0.005989892408251762,-0.528951108455658,0.03508743808134059,-0.5412194526357608,-0.0613191558464216,0.03292082957608482,-0.2244344135575948,0.0,0.0,-0.6,0.0,0.0012173652648925781,0.006160736083984375,0
1.8733367919921875,-0.015626370906829834,-0.005659980699419975,-0.5292862057685852,0.035032030834964395,-0.5402918276284492,-0.06747166368403959,0.048286439709716286,-0.22408011392075547,0.0,0.0,-0.6,0.0,0.005423784255981445,0.010168075561523438,0
1.8852241039276123,-0.015626370906829834,-0.005659980699419975,-0.5292862057685852,0.035032030834964395,-0.5402918276284492,-0.06747166368403959,0.048286439709716286,-0.22408011392075547,0.0,0.0,-0.6,0.0,0.001165151596069336,0.006039142608642578,0
1.89451003074646,-0.01590793952345848,-0.005354661028832197,-0.5296227335929871,0.035052272150107915,-0.5408551223156347,-0.014936795418960116,0.07534328935397594,-0.22410967519551345,0.0,0.0,-0.6,0.0,0.005194664001464844,0.009882688522338867,0
1.9059617519378662,-0.01590793952345848,-0.005354661028832197,-0.5296227335929871,0.035052272150107915,-0.5408551223156347,-0.014936795418960116,0.07534328935397594,-0.22410967519551345,0.0,0.0,-0.6,0.0,0.0017163753509521484,0.006738185882568359,0
1.9156062602996826,-0.016130492091178894,-0.005101654212921858,-0.529926061630249,0.03488224971830401,-0.5409169612840982,0.0121043582899547,0.05136748936106184,-0.22299632799289482,0.0,0.0,-0.6,0.0,0.004913330078125,0.009374380111694336,0
1.9274792671203613,-0.016130492091178894,-0.005101654212921858,-0.529926061630249,0.03488224971830401,-0.5409169612840982,0.0121043582899547,0.05136748936106184,-0.22299632799289482,0.0,0.0,-0.6,0.0,0.0013914108276367188,0.0062713623046875,0
1.9368617534637451,-0.016325728967785835,-0.0048303501680493355,-0.5301929116249084,0.03482540247146391,-0.5411822300950632,0.01975880362722987,0.0931751300060333,-0.22260830518445732,0.0,0.0,-0.6,0.0,0.005139827728271484,0.010486125946044922,0
1.9491660594940186,-0.016325728967785835,-0.0048303501680493355,-0.5301929116249084,0.03482540247146391,-0.5411822300950632,0.01975880362722987,0.0931751300060333,-0.22260830518445732,0.0,0.0,-0.6,0.0,0.001489400863647461,0.006214618682861328,0
1.9589152336120605,-0.016533657908439636,-0.004581107292324305,-0.5304121971130371,0.0345812408156026,-0.5419657511168369,0.060784753679015945,0.07333205635507943,-0.22098973978522551,0.0,0.0,-0.6,0.0,0.005034685134887695,0.009351253509521484,0
1.9705727100372314,-0.016533657908439636,-0.004581107292324305,-0.5304121971130371,0.0345812408156026,-0.5419657511168369,0.060784753679015945,0.07333205635507943,-0.22098973978522551,0.0,0.0,-0.6,0.0,0.0013442039489746094,0.006496906280517578,0
1.9803578853607178,-0.016676848754286766,-0.004350778181105852,-0.5306296348571777,0.03426675349926438,-0.5416669966070242,0.04542886447127012,0.11375489131742189,-0.21900518738460678,0.0,0.0,-0.6,0.0,0.005430459976196289,0.009685039520263672,0
1.9913642406463623,-0.016676848754286766,-0.004350778181105852,-0.5306296348571777,0.03426675349926438,-0.5416669966070242,0.04542886447127012,0.11375489131742189,-0.21900518738460678,0.0,0.0,-0.6,0.0,0.0015723705291748047,0.006399393081665039,0
2.000643491744995,-0.016735276207327843,-0.004250016994774342,-0.5307385325431824,0.034170827325938374,-0.5411250334794089,0.10244451193566578,0.12365675168355143,-0.2182992108835848,0.0,0.0,-0.6,0.0,0.00501704216003418,0.009574174880981445,0
2.0131032466888428,-0.016850709915161133,-0.004035323392599821,-0.5309545397758484,0.033823442801433894,-0.5408022824760298,0.13289625337060829,0.12407354566950896,-0.21603282748073724,0.0,0.0,-0.6,0.0,0.0052490234375,0.009786367416381836,0
2.0250356197357178,-0.016850709915161133,-0.004035323392599821,-0.5309545397758484,0.033823442801433894,-0.5408022824760298,0.13289625337060829,0.12407354566950896,-0.21603282748073724,0.0,0.0,-0.6,0.0,0.0015752315521240234,0.0067331790924072266,0
2.034060478210449,-0.016909703612327576,-0.0037786776665598154,-0.5311841368675232,0.03350769712588592,-0.5409539028880189,0.06063345259906525,0.0899738140136178,-0.21414173603269282,0.0,0.0,-0.6,0.0,0.005948305130004883,0.010946273803710938,0
2.0480947494506836,-0.016909703612327576,-0.0037786776665598154,-0.5311841368675232,0.03350769712588592,-0.5409539028880189,0.06063345259906525,0.0899738140136178,-0.21414173603269282,0.0,0.0,-0.6,0.0,0.0014019012451171875,0.006269693374633789,0
2.057163953781128,-0.017070213332772255,-0.0034612680319696665,-0.531481146812439,0.032954308597358435,-0.5407911265987843,0.10290532055604437,0.09272381295196772,-0.21054041235123772,0.0,0.0,-0.6,0.0,0.004697084426879883,0.00907754898071289,0
2.068816900253296,-0.017070213332772255,-0.0034612680319696665,-0.531481146812439,0.032954308597358435,-0.5407911265987843,0.10290532055604437,0.09272381295196772,-0.21054041235123772,0.0,0.0,-0.6,0.0,0.0011701583862304688,0.006501197814941406,0
2.0784878730773926,-0.017198897898197174,-0.003252195892855525,-0.5317147374153137,0.03251998712301042,-0.5403982525812646,0.07644095538457002,0.05493788300844297,-0.20780977069472853,0.0,0.0,-0.6,0.0,0.0047647953033447266,0.009632587432861328,0
2.0905227661132812,-0.017198897898197174,-0.003252195892855525,-0.5317147374153137,0.03251998712301042,-0.5403982525812646,0.07644095538457002,0.05493788300844297,-0.20780977069472853,0.0,0.0,-0.6,0.0,0.0011675357818603516,0.006043434143066406,0
2.1006741523742676,-0.017407959327101707,-0.0029683804605156183,-0.5321141481399536,0.032025929535262114,-0.5396178128294631,0.0661807656709868,0.029988349830291607,-0.2046769704667199,0.0,0.0,-0.6,0.0,0.0050411224365234375,0.009104490280151367,0
2.111508369445801,-0.017407959327101707,-0.0029683804605156183,-0.5321141481399536,0.032025929535262114,-0.5396178128294631,0.0661807656709868,0.029988349830291607,-0.2046769704667199,0.0,0.0,-0.6,0.0,0.0015683174133300781,0.006441831588745117,0
2.1206328868865967,-0.017472537234425545,-0.0028765276074409485,-0.532263457775116,0.03185248994673808,-0.54002482041333,0.03391276715351407,0.04810278170128411,-0.20361076588403437,0.0,0.0,-0.6,0.0,0.004690885543823242,0.008989810943603516,0
2.1324427127838135,-0.01754123345017433,-0.0026738441083580256,-0.5325429439544678,0.031399084830068,-0.5395971547080837,0.01701276564906133,0.05183522199293692,-0.20073343090061732,0.0,0.0,-0.6,0.0,0.005406379699707031,0.010038137435913086,0
2.144763469696045,-0.01754123345017433,-0.0026738441083580256,-0.5325429439544678,0.031399084830068,-0.5395971547080837,0.01701276564906133,0.05183522199293692,-0.20073343090061732,0.0,0.0,-0.6,0.0,0.0016269683837890625,0.0062122344970703125,0
2.153597593307495,-0.017655983567237854,-0.0024941072333604097,-0.5328577160835266,0.031063096912690713,-0.5395933168584751,-0.05396585133419728,0.035022532795928527,-0.1986796188333154,0.0,0.0,-0.6,0.0,0.0053822994232177734,0.00984334945678711,0
2.1651768684387207,-0.017655983567237854,-0.0024941072333604097,-0.5328577160835266,0.031063096912690713,-0.5395933168584751,-0.05396585133419728,0.035022532795928527,-0.1986796188333154,0.0,0.0,-0.6,0.0,0.001661539077758789,0.0060863494873046875,0
2.1747021675109863,-0.017742296680808067,-0.0022292914800345898,-0.533149003982544,0.03074101702253142,-0.5393534654259666,-0.022527329890507528,0.04210365506612911,-0.1965765298021101,0.0,0.0,-0.6,0.0,0.0050241947174072266,0.010085821151733398,0
2.1873674392700195,-0.017861729487776756,-0.002011774340644479,-0.5334637761116028,0.03046859722494878,-0.5387159752567662,-0.007764820920479975,0.038108078766110276,-0.19481908421593108,0.0,0.0,-0.6,0.0,0.004592418670654297,0.009000062942504883,0
2.1990506649017334,-0.017861729487776756,-0.002011774340644479,-0.5334637761116028,0.03046859722494878,-0.5387159752567662,-0.007764820920479975,0.038108078766110276,-0.19481908421593108,0.0,0.0,-0.6,0.0,0.0014019012451171875,0.006254911422729492,0
2.2080585956573486,-0.017966164276003838,-0.001821621204726398,-0.5337442755699158,0.030316450673359016,-0.5394468745001267,-0.04136519588939113,-0.022945536740426556,-0.19393052817579068,0.0,0.0,-0.6,0.0,0.004801273345947266,0.009604454040527344,0
2.2200138568878174,-0.017966164276003838,-0.001821621204726398,-0.5337442755699158,0.030316450673359016,-0.5394468745001267,-0.04136519588939113,-0.022945536740426556,-0.19393052817579068,0.0,0.0,-0.6,0.0,0.001405954360961914,0.005610466003417969,0
2.230917453765869,-0.018105320632457733,-0.0017102104611694813,-0.5340225696563721,0.030168172733795504,-0.5396144389770828,-0.0594716068076673,-0.06111056513664217,-0.19303066019239684,0.0,0.0,-0.6,0.0,0.0055887699127197266,0.01023721694946289,0
2.242953300476074,-0.018105320632457733,-0.0017102104611694813,-0.5340225696563721,0.030168172733795504,-0.5396144389770828,-0.0594716068076673,-0.06111056513664217,-0.19303066019239684,0.0,0.0,-0.6,0.0,0.0016222000122070312,0.006567716598510742,0
2.2517330646514893,-0.01824500598013401,-0.0016034550499171019,-0.5342814326286316,0.02988462557458485,-0.5396405420000518,-0.04416489785297517,-0.02276666176889915,-0.19116885625430938,0.0,0.0,-0.6,0.0,0.00525212287902832,0.010088205337524414,0
2.264305353164673,-0.01824500598013401,-0.0016034550499171019,-0.5342814326286316,0.02988462557458485,-0.5396405420000518,-0.04416489785297517,-0.02276666176889915,-0.19116885625430938,0.0,0.0,-0.6,0.0,0.0016243457794189453,0.0058748722076416016,0
2.27375864982605,-0.018442625179886818,-0.0014661888126283884,-0.5344281792640686,0.029757474203456837,-0.5404685788567022,-0.05814787971575789,-0.019734481935095312,-0.1903642400251006,0.0,0.0,-0.6,0.0,0.00490260124206543,0.00915670394897461,0
2.2854530811309814,-0.01853085123002529,-0.0014072576304897666,-0.5344820618629456,0.029636818358008545,-0.5402107184010211,-0.04320974220746328,-0.027124378295748635,-0.18958651966270626,0.0,0.0,-0.6,0.0,0.0053441524505615234,0.009888172149658203,0
2.2972300052642822,-0.01853085123002529,-0.0014072576304897666,-0.5344820618629456,0.029636818358008545,-0.5402107184010211,-0.04320974220746328,-0.027124378295748635,-0.18958651966270626,0.0,0.0,-0.6,0.0,0.0015668869018554688,0.006153583526611328,0
2.30594539642334,-0.01880391128361225,-0.001224083942361176,-0.5344609618186951,0.02958027002204659,-0.5414542471049143,-0.009663093050711927,-0.06821792197147718,-0.18923449498286724,0.0,0.0,-0.6,0.0,0.005627155303955078,0.010478496551513672,0
2.3183975219726562,-0.01880391128361225,-0.001224083942361176,-0.5344609618186951,0.02958027002204659,-0.5414542471049143,-0.009663093050711927,-0.06821792197147718,-0.18923449498286724,0.0,0.0,-0.6,0.0,0.0015528202056884766,0.00675201416015625,0
2.3267364501953125,-0.018903283402323723,-0.0011860482627525926,-0.5344065427780151,0.02953889415735691,-0.5425822429515776,-0.056030527199206724,-0.10576180381748433,-0.18903905961553072,0.0,0.0,-0.6,0.0,0.006227970123291016,0.010567426681518555,0
2.3405182361602783,-0.01903415657579899,-0.0010874890722334385,-0.5342694520950317,0.02940996408136919,-0.5422635666546627,-0.06124421179753664,-0.06563530253028503,-0.18818053239862645,0.0,0.0,-0.6,0.0,0.004811525344848633,0.009940385818481445,0
2.3521597385406494,-0.01903415657579899,-0.0010874890722334385,-0.5342694520950317,0.02940996408136919,-0.5422635666546627,-0.06124421179753664,-0.06563530253028503,-0.18818053239862645,0.0,0.0,-0.6,0.0,0.0014472007751464844,0.00638580322265625,0
2.361081838607788,-0.01916712522506714,-0.0010073070880025625,-0.5340424180030823,0.02925551696012553,-0.5428566375993488,-0.04081952342279048,-0.00411072899546676,-0.18712606005319238,0.0,0.0,-0.6,0.0,0.006094217300415039,0.010824441909790039,0
2.37496018409729,-0.01916712522506714,-0.0010073070880025625,-0.5340424180030823,0.02925551696012553,-0.5428566375993488,-0.04081952342279048,-0.00411072899546676,-0.18712606005319238,0.0,0.0,-0.6,0.0,0.001172780990600586,0.00550389289855957,0
2.3837077617645264,-0.019322941079735756,-0.0009231701260432601,-0.5337743759155273,0.029150907196062,-0.5436025196332779,-0.01943635746101879,0.009426373219934513,-0.18642950220176746,0.0,0.0,-0.6,0.0,0.0051920413970947266,0.009835958480834961,0
2.395977258682251,-0.019322941079735756,-0.0009231701260432601,-0.5337743759155273,0.029150907196062,-0.5436025196332779,-0.01943635746101879,0.009426373219934513,-0.18642950220176746,0.0,0.0,-0.6,0.0,0.0012021064758300781,0.005205392837524414,0
2.403883218765259,-0.01946999505162239,-0.00084954674821347,-0.5334222316741943,0.029056147571385638,-0.5440086620011754,-0.01701683118299434,-0.03285908508855058,-0.1858537078708355,0.0,0.0,-0.6,0.0,0.006433248519897461,0.011125802993774414,0
2.416548013687134,-0.01946999505162239,-0.00084954674821347,-0.5334222316741943,0.029056147571385638,-0.5440086620011754,-0.01701683118299434,-0.03285908508855058,-0.1858537078708355,0.0,0.0,-0.6,0.0,0.0011780261993408203,0.006169557571411133,0
2.425640821456909,-0.01963919587433338,-0.0008684093481861055,-0.5329692959785461,0.028951526540643077,-0.544639062474181,-0.024676468351673364,-0.013656893988565883,-0.18517822473467463,0.0,0.0,-0.6,0.0,0.004880428314208984,0.009531497955322266,0
2.4371585845947266,-0.01963919587433338,-0.0008684093481861055,-0.5329692959785461,0.028951526540643077,-0.544639062474181,-0.024676468351673364,-0.013656893988565883,-0.18517822473467463,0.0,0.0,-0.6,0.0,0.0014154911041259766,0.006630420684814453,0
2.447176694869995,-0.019830996170639992,-0.000865014735609293,-0.5324771404266357,0.028744769968937066,-0.544502312356858,-0.009573874907082962,0.010247288021470536,-0.18382222212000693,0.0,0.0,-0.6,0.0,0.005143404006958008,0.010054588317871094,0
2.4600298404693604,-0.019997235387563705,-0.0008019498782232404,-0.5320514440536499,0.028358436138021106,-0.5459855212101302,-0.021412705453143104,0.017386738708242297,-0.18136232117212736,0.0,0.0,-0.6,0.0,0.0061910152435302734,0.010327816009521484,0
2.4730043411254883,-0.019997235387563705,-0.0008019498782232404,-0.5320514440536499,0.028358436138021106,-0.5459855212101302,-0.021412705453143104,0.017386738708242297,-0.18136232117212736,0.0,0.0,-0.6,0.0,0.001165151596069336,0.0053331851959228516,0
2.480264902114868,-0.020124884322285652,-0.0008164042374119163,-0.5317927002906799,0.02820940777555135,-0.5457584439687283,0.005853801204033014,0.01347159559086766,-0.1803768793427679,0.0,0.0,-0.6,0.0,0.00696563720703125,0.011077404022216797,0
2.494601249694824,-0.02049124985933304,-0.0008229960803873837,-0.5311648845672607,0.02771472979113044,-0.5461198423046764,0.03996432577909922,-0.03798871395226051,-0.17719321612421127,0.0,0.0,-0.6,0.0,0.00617527961730957,0.010271310806274414,0
2.507829427719116,-0.02049124985933304,-0.0008229960803873837,-0.5311648845672607,0.02771472979113044,-0.5461198423046764,0.03996432577909922,-0.03798871395226051,-0.17719321612421127,0.0,0.0,-0.6,0.0,0.0014576911926269531,0.005892753601074219,0
2.516258478164673,-0.020793329924345016,-0.0008310179109685123,-0.5306757688522339,0.02727345410561128,-0.5451694659863885,0.026249923381606186,-0.00824590045815962,-0.17437663758213032,0.0,0.0,-0.6,0.0,0.004941225051879883,0.009966135025024414,0
2.5282535552978516,-0.020793329924345016,-0.0008310179109685123,-0.5306757688522339,0.02727345410561128,-0.5451694659863885,0.026249923381606186,-0.00824590045815962,-0.17437663758213032,0.0,0.0,-0.6,0.0,0.0012438297271728516,0.005303144454956055,0
2.536217451095581,-0.021099906414747238,-0.0007905474049039185,-0.5303038358688354,0.026732455698710852,-0.5459926589759162,-0.04271192089390508,-0.06530172605944784,-0.1710346265988901,0.0,0.0,-0.6,0.0,0.006725788116455078,0.011236190795898438,0
2.5501792430877686,-0.021099906414747238,-0.0007905474049039185,-0.5303038358688354,0.026732455698710852,-0.5459926589759162,-0.04271192089390508,-0.06530172605944784,-0.1710346265988901,0.0,0.0,-0.6,0.0,0.0013675689697265625,0.005732536315917969,0
