time,x,y,z,yaw,throttle,roll_rate,pitch_rate,yaw_rate,x_ref,y_ref,z_ref,yaw_ref,mpc_time,ctrl_callback_time_history,metadata
2.1457672119140625e-06,-0.08082447201013565,-0.016538910567760468,-0.23938144743442535,-0.06467407184275606,-0.623652055827003,0.16619932693634837,-0.5456906285783654,0.41376881468176485,0.0,0.0,-0.6,0.0,0.013789653778076172,0.01816701889038086,Hardware
0.01938176155090332,-0.08082447201013565,-0.016538910567760468,-0.23938144743442535,-0.06467407184275606,-0.623652055827003,0.16619932693634837,-0.5456906285783654,0.41376881468176485,0.0,0.0,-0.6,0.0,0.0010652542114257812,0.005013465881347656,1x Speed
0.029858827590942383,-0.08083849400281906,-0.016541870310902596,-0.23938237130641937,-0.06467369324043976,-0.62362478080006,0.1624552388439983,-0.5451602686920537,0.41376646722764737,0.0,0.0,-0.6,0.0,0.005455732345581055,0.009492874145507812,Horizon:3.0
0.040802001953125,-0.08083849400281906,-0.016541870310902596,-0.23938237130641937,-0.06467369324043976,-0.62362478080006,0.1624552388439983,-0.5451602686920537,0.41376646722764737,0.0,0.0,-0.6,0.0,0.0011286735534667969,0.00513458251953125,Num Steps:20
0.048818349838256836,-0.08083979040384293,-0.016545208171010017,-0.2393854856491089,-0.0646600641514108,-0.6235774585586045,0.16465509884500007,-0.5440458413614986,0.4136738507654603,0.0,0.0,-0.6,0.0,0.005436897277832031,0.009500265121459961,No Pyjoules
0.060431718826293945,-0.08083828538656235,-0.016553519293665886,-0.23938629031181335,-0.06463483356915205,-0.6237750919041213,0.159946280057012,-0.5452660117032205,0.4135159370601135,0.0,0.0,-0.6,0.0,0.005637407302856445,0.00952911376953125,0
0.07176375389099121,-0.08083828538656235,-0.016553519293665886,-0.23938629031181335,-0.06463483356915205,-0.6237750919041213,0.159946280057012,-0.5452660117032205,0.4135159370601135,0.0,0.0,-0.6,0.0,0.001102447509765625,0.005113840103149414,0
0.07898163795471191,-0.08083461225032806,-0.01654932089149952,-0.23940415680408478,-0.06465281093456063,-0.6236942393270912,0.1676424007890481,-0.5435670878343227,0.41363570344520595,0.0,0.0,-0.6,0.0,0.005445957183837891,0.009447813034057617,0
0.0903310775756836,-0.08083078265190125,-0.016554197296500206,-0.2394348680973053,-0.06471343694203334,-0.6233288838662067,0.16193211927469775,-0.5421687178451198,0.4140210394111315,0.0,0.0,-0.6,0.0,0.005631208419799805,0.009428024291992188,0
0.10228705406188965,-0.08083078265190125,-0.016554197296500206,-0.2394348680973053,-0.06471343694203334,-0.6233288838662067,0.16193211927469775,-0.5421687178451198,0.4140210394111315,0.0,0.0,-0.6,0.0,0.0011067390441894531,0.00472569465637207,0
0.10942840576171875,-0.08083824813365936,-0.016565218567848206,-0.23945869505405426,-0.0646875826084072,-0.6229732885437311,0.17633607655697678,-0.5541762284371506,0.41385595401523545,0.0,0.0,-0.6,0.0,0.006932735443115234,0.010490655899047852,0
0.1221153736114502,-0.08090385794639587,-0.016623269766569138,-0.23955245316028595,-0.063950199348435,-0.622753429019976,0.18324549954697994,-0.5543879821715193,0.409157955639992,0.0,0.0,-0.6,0.0,0.005593299865722656,0.009553670883178711,0
0.1330242156982422,-0.08090385794639587,-0.016623269766569138,-0.23955245316028595,-0.063950199348435,-0.622753429019976,0.18324549954697994,-0.5543879821715193,0.409157955639992,0.0,0.0,-0.6,0.0,0.0011060237884521484,0.004978179931640625,0
0.14029645919799805,-0.08087655156850815,-0.016684118658304214,-0.23969390988349915,-0.06267041437794901,-0.621630393862193,0.15457262350974776,-0.5106351047742214,0.4009527052598201,0.0,0.0,-0.6,0.0,0.006736040115356445,0.01080179214477539,0
0.15249276161193848,-0.08087655156850815,-0.016684118658304214,-0.23969390988349915,-0.06267041437794901,-0.621630393862193,0.15457262350974776,-0.5106351047742214,0.4009527052598201,0.0,0.0,-0.6,0.0,0.0011057853698730469,0.005164384841918945,0
0.1598494052886963,-0.08063790947198868,-0.016766393557190895,-0.2399483472108841,-0.06214165153903214,-0.6206354210860466,0.14139660763885747,-0.4818560199648209,0.39758309400492414,0.0,0.0,-0.6,0.0,0.006498575210571289,0.01033163070678711,0
0.17147135734558105,-0.08063790947198868,-0.016766393557190895,-0.2399483472108841,-0.06214165153903214,-0.6206354210860466,0.14139660763885747,-0.4818560199648209,0.39758309400492414,0.0,0.0,-0.6,0.0,0.0011148452758789062,0.005121469497680664,0
0.17908859252929688,-0.08041687309741974,-0.016787927597761154,-0.2401151806116104,-0.061813096900993174,-0.6205531438998559,0.10979906769179162,-0.44030187323312064,0.39545497625091813,0.0,0.0,-0.6,0.0,0.006785869598388672,0.010896444320678711,0
0.19203853607177734,-0.07972244918346405,-0.016680212691426277,-0.24060291051864624,-0.06012768332059584,-0.6177591279392091,0.0958166270367513,-0.30906769244543564,0.38461264958027647,0.0,0.0,-0.6,0.0,0.00685572624206543,0.010739564895629883,0
0.20527243614196777,-0.07972244918346405,-0.016680212691426277,-0.24060291051864624,-0.06012768332059584,-0.6177591279392091,0.0958166270367513,-0.30906769244543564,0.38461264958027647,0.0,0.0,-0.6,0.0,0.0010831356048583984,0.004644870758056641,0
0.2118852138519287,-0.07878687232732773,-0.016441894695162773,-0.2416542023420334,-0.05706244588712153,-0.6128366605506439,0.1158396638448996,-0.1494020181708304,0.3650085265049606,0.0,0.0,-0.6,0.0,0.007089138031005859,0.010897397994995117,0
0.22474884986877441,-0.07878687232732773,-0.016441894695162773,-0.2416542023420334,-0.05706244588712153,-0.6128366605506439,0.1158396638448996,-0.1494020181708304,0.3650085265049606,0.0,0.0,-0.6,0.0,0.0010898113250732422,0.0046994686126708984,0
0.23149323463439941,-0.07758574187755585,-0.016159789636731148,-0.24312041699886322,-0.05337265824687918,-0.6080448555012223,0.08069278327275645,-0.023170577679380723,0.3414173608154882,0.0,0.0,-0.6,0.0,0.006682634353637695,0.010856389999389648,0
0.24376296997070312,-0.07758574187755585,-0.016159789636731148,-0.24312041699886322,-0.05337265824687918,-0.6080448555012223,0.08069278327275645,-0.023170577679380723,0.3414173608154882,0.0,0.0,-0.6,0.0,0.0010917186737060547,0.004941463470458984,0
0.25116682052612305,-0.07627465575933456,-0.015944359824061394,-0.2452842891216278,-0.048658568089190675,-0.6006990867002945,0.05748082375319219,0.12608282123652284,0.31131379078874244,0.0,0.0,-0.6,0.0,0.00642848014831543,0.010416030883789062,0
0.2630043029785156,-0.07627465575933456,-0.015944359824061394,-0.2452842891216278,-0.048658568089190675,-0.6006990867002945,0.05748082375319219,0.12608282123652284,0.31131379078874244,0.0,0.0,-0.6,0.0,0.0011491775512695312,0.005027294158935547,0
0.270068883895874,-0.07483649998903275,-0.01566038280725479,-0.24812239408493042,-0.043155502672219084,-0.5958928573170448,-0.009441310725553691,0.2976347345261031,0.2760672571076315,0.0,0.0,-0.6,0.0,0.00657343864440918,0.010546207427978516,0
0.2825431823730469,-0.07483649998903275,-0.01566038280725479,-0.24812239408493042,-0.043155502672219084,-0.5958928573170448,-0.009441310725553691,0.2976347345261031,0.2760672571076315,0.0,0.0,-0.6,0.0,0.0011200904846191406,0.005049467086791992,0
0.28973960876464844,-0.07335280627012253,-0.015391677618026733,-0.2515878975391388,-0.03739915494718967,-0.5893123384193696,-0.12403805166619482,0.39673828394129756,0.23896828530419917,0.0,0.0,-0.6,0.0,0.006834268569946289,0.010735750198364258,0
0.302919864654541,-0.07335280627012253,-0.015391677618026733,-0.2515878975391388,-0.03739915494718967,-0.5893123384193696,-0.12403805166619482,0.39673828394129756,0.23896828530419917,0.0,0.0,-0.6,0.0,0.0011644363403320312,0.004958391189575195,0
0.3098485469818115,-0.07182822376489639,-0.015196550637483597,-0.2556636333465576,-0.031145950904219646,-0.5825970718116745,-0.14741055633043962,0.4366394415349684,0.19892055429375358,0.0,0.0,-0.6,0.0,0.006448984146118164,0.01025080680847168,0
0.3221602439880371,-0.07182822376489639,-0.015196550637483597,-0.2556636333465576,-0.031145950904219646,-0.5825970718116745,-0.14741055633043962,0.4366394415349684,0.19892055429375358,0.0,0.0,-0.6,0.0,0.0010769367218017578,0.0049228668212890625,0
0.3290572166442871,-0.07037794589996338,-0.014996606856584549,-0.26051679253578186,-0.024424052572696364,-0.5763841446587886,-0.17406027465873128,0.498153831170839,0.15587362090483906,0.0,0.0,-0.6,0.0,0.005563974380493164,0.009424686431884766,0
0.33986520767211914,-0.07037794589996338,-0.014996606856584549,-0.26051679253578186,-0.024424052572696364,-0.5763841446587886,-0.17406027465873128,0.498153831170839,0.15587362090483906,0.0,0.0,-0.6,0.0,0.0011715888977050781,0.0052204132080078125,0
0.349015474319458,-0.06900303065776825,-0.01459403894841671,-0.2659449577331543,-0.017536510560720846,-0.5711744810918677,-0.16653283933826513,0.5857663869715202,0.11196813118956565,0.0,0.0,-0.6,0.0,0.006940126419067383,0.011327981948852539,0
0.3621819019317627,-0.06900303065776825,-0.01459403894841671,-0.2659449577331543,-0.017536510560720846,-0.5711744810918677,-0.16653283933826513,0.5857663869715202,0.11196813118956565,0.0,0.0,-0.6,0.0,0.0014650821685791016,0.005844831466674805,0
0.37039756774902344,-0.06749030947685242,-0.014372299425303936,-0.2717636227607727,-0.010585956901478986,-0.5664176100811082,-0.09767161386293206,0.6830801249312302,0.0679029859160967,0.0,0.0,-0.6,0.0,0.00660252571105957,0.010674476623535156,0
0.3824625015258789,-0.06749030947685242,-0.014372299425303936,-0.2717636227607727,-0.010585956901478986,-0.5664176100811082,-0.09767161386293206,0.6830801249312302,0.0679029859160967,0.0,0.0,-0.6,0.0,0.0011138916015625,0.0047550201416015625,0
0.3897883892059326,-0.06595198810100555,-0.014312269166111946,-0.27791768312454224,-0.0035996173718492617,-0.5616207338203795,-0.02675563866299308,0.6751902380195149,0.0234608134657924,0.0,0.0,-0.6,0.0,0.006532192230224609,0.010480880737304688,0
0.40228700637817383,-0.06595198810100555,-0.014312269166111946,-0.27791768312454224,-0.0035996173718492617,-0.5616207338203795,-0.02675563866299308,0.6751902380195149,0.0234608134657924,0.0,0.0,-0.6,0.0,0.0011162757873535156,0.004805088043212891,0
0.40947508811950684,-0.06435051560401917,-0.01429907325655222,-0.2845267355442047,0.0033233989828944,-0.555767067590654,0.042932542084221585,0.6768329464059558,-0.02063659886192031,0.0,0.0,-0.6,0.0,0.0064733028411865234,0.010401487350463867,0
0.42124009132385254,-0.06435051560401917,-0.01429907325655222,-0.2845267355442047,0.0033233989828944,-0.555767067590654,0.042932542084221585,0.6768329464059558,-0.02063659886192031,0.0,0.0,-0.6,0.0,0.0010612010955810547,0.004709959030151367,0
0.42955589294433594,-0.06265095621347427,-0.014434544369578362,-0.2916145324707031,0.010262001359214238,-0.550344831846255,0.16379616833465585,0.6100246725435445,-0.0647531934880622,0.0,0.0,-0.6,0.0,0.0066111087799072266,0.010840177536010742,0
0.4417307376861572,-0.06265095621347427,-0.014434544369578362,-0.2916145324707031,0.010262001359214238,-0.550344831846255,0.16379616833465585,0.6100246725435445,-0.0647531934880622,0.0,0.0,-0.6,0.0,0.0010607242584228516,0.004917144775390625,0
0.449021577835083,-0.0608111247420311,-0.014613732695579529,-0.2990235686302185,0.01699327801557179,-0.5473212324369762,0.18228270520204984,0.5657432080065155,-0.10793112063487874,0.0,0.0,-0.6,0.0,0.005064964294433594,0.008887290954589844,0
0.45916152000427246,-0.0608111247420311,-0.014613732695579529,-0.2990235686302185,0.01699327801557179,-0.5473212324369762,0.18228270520204984,0.5657432080065155,-0.10793112063487874,0.0,0.0,-0.6,0.0,0.0011143684387207031,0.004827260971069336,0
0.46905016899108887,-0.05891292169690132,-0.014657028019428253,-0.30657708644866943,0.023474589463519026,-0.5425755982713277,0.1832515261214855,0.5096269488379136,-0.1495418229952615,0.0,0.0,-0.6,0.0,0.005540370941162109,0.009439229965209961,0
0.4797673225402832,-0.05891292169690132,-0.014657028019428253,-0.30657708644866943,0.023474589463519026,-0.5425755982713277,0.1832515261214855,0.5096269488379136,-0.1495418229952615,0.0,0.0,-0.6,0.0,0.0011382102966308594,0.005250215530395508,0
0.48918819427490234,-0.05698237195611,-0.014659082517027855,-0.3144207298755646,0.029843233537916614,-0.5385142806489113,0.12895309033491828,0.44655606371901485,-0.19051819634185202,0.0,0.0,-0.6,0.0,0.006232500076293945,0.010050773620605469,0
0.5011568069458008,-0.05698237195611,-0.014659082517027855,-0.3144207298755646,0.029843233537916614,-0.5385142806489113,0.12895309033491828,0.44655606371901485,-0.19051819634185202,0.0,0.0,-0.6,0.0,0.0011098384857177734,0.004670619964599609,0
0.5094301700592041,-0.055261436849832535,-0.014548856765031815,-0.322088360786438,0.035821468221680246,-0.5384991380545856,0.0227102051355229,0.3141411136672452,-0.22897259040870288,0.0,0.0,-0.6,0.0,0.0064508914947509766,0.010526418685913086,0
0.5215113162994385,-0.055261436849832535,-0.014548856765031815,-0.322088360786438,0.035821468221680246,-0.5384991380545856,0.0227102051355229,0.3141411136672452,-0.22897259040870288,0.0,0.0,-0.6,0.0,0.00106048583984375,0.004881143569946289,0
0.5292229652404785,-0.053405921906232834,-0.014481513760983944,-0.32972070574760437,0.04143875627120022,-0.5339280784762833,-0.024893057803230534,0.24338502676989152,-0.26495018131041753,0.0,0.0,-0.6,0.0,0.005142927169799805,0.009337425231933594,0
0.5406115055084229,-0.05241912230849266,-0.01447606272995472,-0.3336506187915802,0.04405157651375277,-0.5310243478403632,-0.021404423504816934,0.17235607029896605,-0.28165878172594466,0.0,0.0,-0.6,0.0,0.005560874938964844,0.009358882904052734,0
0.5519144535064697,-0.05241912230849266,-0.01447606272995472,-0.3336506187915802,0.04405157651375277,-0.5310243478403632,-0.021404423504816934,0.17235607029896605,-0.28165878172594466,0.0,0.0,-0.6,0.0,0.0010771751403808594,0.005002737045288086,0
0.5589087009429932,-0.05058688670396805,-0.01451649609953165,-0.34132683277130127,0.04910576313702948,-0.5331067939947008,-0.04599541086501522,0.03318883931532599,-0.314002130503763,0.0,0.0,-0.6,0.0,0.006646871566772461,0.010628938674926758,0
0.5708909034729004,-0.05058688670396805,-0.01451649609953165,-0.34132683277130127,0.04910576313702948,-0.5331067939947008,-0.04599541086501522,0.03318883931532599,-0.314002130503763,0.0,0.0,-0.6,0.0,0.0011293888092041016,0.004739046096801758,0
0.5789015293121338,-0.04882485419511795,-0.014660417102277279,-0.3487081229686737,0.05414206997350059,-0.5323861769155127,0.024692308713951904,-0.07099305142268525,-0.3462597826714373,0.0,0.0,-0.6,0.0,0.00650334358215332,0.010341882705688477,0
0.5907547473907471,-0.04882485419511795,-0.014660417102277279,-0.3487081229686737,0.05414206997350059,-0.5323861769155127,0.024692308713951904,-0.07099305142268525,-0.3462597826714373,0.0,0.0,-0.6,0.0,0.0011000633239746094,0.00487208366394043,0
0.5994787216186523,-0.0471763014793396,-0.014884251169860363,-0.3558499813079834,0.05878404400379918,-0.5324406678755548,0.05612532624509921,-0.1307296223351636,-0.37601151005533057,0.0,0.0,-0.6,0.0,0.005468606948852539,0.009262561798095703,0
0.6110632419586182,-0.046310387551784515,-0.014987976290285587,-0.35934969782829285,0.06086886838999041,-0.5321946831003034,0.06352201712582058,-0.13705545013648887,-0.3893686271088596,0.0,0.0,-0.6,0.0,0.0054378509521484375,0.009265899658203125,0
0.6220881938934326,-0.04476756975054741,-0.015324221923947334,-0.36622804403305054,0.06494164638469295,-0.5321888529774232,0.10641588074941588,-0.19746052076935164,-0.4155053671287061,0.0,0.0,-0.6,0.0,0.005490541458129883,0.009157180786132812,0
0.633267879486084,-0.04476756975054741,-0.015324221923947334,-0.36622804403305054,0.06494164638469295,-0.5321888529774232,0.10641588074941588,-0.19746052076935164,-0.4155053671287061,0.0,0.0,-0.6,0.0,0.0011115074157714844,0.004950284957885742,0
0.6402499675750732,-0.04406851902604103,-0.015488899312913418,-0.3695105016231537,0.06699244855827093,-0.5323616739040203,0.11266188519204597,-0.21444393524234187,-0.4286500998075618,0.0,0.0,-0.6,0.0,0.0054454803466796875,0.009757041931152344,0
0.6517524719238281,-0.04406851902604103,-0.015488899312913418,-0.3695105016231537,0.06699244855827093,-0.5323616739040203,0.11266188519204597,-0.21444393524234187,-0.4286500998075618,0.0,0.0,-0.6,0.0,0.0010929107666015625,0.004889249801635742,0
0.6594469547271729,-0.04273046925663948,-0.01592307724058628,-0.37591204047203064,0.07057999422598664,-0.5310674887683616,0.07997988930523994,-0.2868706451437624,-0.4515580140869774,0.0,0.0,-0.6,0.0,0.0054624080657958984,0.009441852569580078,0
0.6708283424377441,-0.04152418300509453,-0.016357045620679855,-0.38207828998565674,0.07359157956939598,-0.5315279875471268,0.1281917049976364,-0.2597763393946922,-0.4709084367294023,0.0,0.0,-0.6,0.0,0.005369424819946289,0.009241104125976562,0
0.6819705963134766,-0.04152418300509453,-0.016357045620679855,-0.38207828998565674,0.07359157956939598,-0.5315279875471268,0.1281917049976364,-0.2597763393946922,-0.4709084367294023,0.0,0.0,-0.6,0.0,0.0010962486267089844,0.004701137542724609,0
0.6893677711486816,-0.04092959314584732,-0.016627676784992218,-0.3851073384284973,0.07503639260641752,-0.5311235548320411,0.10097982784418062,-0.25842065116262686,-0.48008426392098263,0.0,0.0,-0.6,0.0,0.00537419319152832,0.009470701217651367,0
0.7008106708526611,-0.04092959314584732,-0.016627676784992218,-0.3851073384284973,0.07503639260641752,-0.5311235548320411,0.10097982784418062,-0.25842065116262686,-0.48008426392098263,0.0,0.0,-0.6,0.0,0.0010633468627929688,0.0045719146728515625,0
0.709270715713501,-0.03919082507491112,-0.017263056710362434,-0.3938390910625458,0.07886034585910032,-0.5324245221402695,0.1461057660433099,-0.26466379245933436,-0.5046148408678528,0.0,0.0,-0.6,0.0,0.005292654037475586,0.009439229965209961,0
0.7200002670288086,-0.03919082507491112,-0.017263056710362434,-0.3938390910625458,0.07886034585910032,-0.5324245221402695,0.1461057660433099,-0.26466379245933436,-0.5046148408678528,0.0,0.0,-0.6,0.0,0.0010898113250732422,0.004770994186401367,0
0.7300229072570801,-0.038172781467437744,-0.01762310042977333,-0.3993193209171295,0.08081134486403117,-0.5335281320046045,0.13373617083920672,-0.2968644803668175,-0.5170730107358795,0.0,0.0,-0.6,0.0,0.005484580993652344,0.009364128112792969,0
0.7408092021942139,-0.038172781467437744,-0.01762310042977333,-0.3993193209171295,0.08081134486403117,-0.5335281320046045,0.13373617083920672,-0.2968644803668175,-0.5170730107358795,0.0,0.0,-0.6,0.0,0.0011200904846191406,0.00494384765625,0
0.7490348815917969,-0.037688203155994415,-0.017824800685048103,-0.4019925892353058,0.081677350634305,-0.5329554551030985,0.13368949026025723,-0.3086349045293099,-0.522606491424171,0.0,0.0,-0.6,0.0,0.005354166030883789,0.009353160858154297,0
0.760338544845581,-0.036763746291399,-0.018202435225248337,-0.40720677375793457,0.08322851017881513,-0.5340440700914005,0.08108822623158354,-0.26149221257381805,-0.5324343035074767,0.0,0.0,-0.6,0.0,0.005440950393676758,0.00927877426147461,0
0.7709853649139404,-0.036763746291399,-0.018202435225248337,-0.40720677375793457,0.08322851017881513,-0.5340440700914005,0.08108822623158354,-0.26149221257381805,-0.5324343035074767,0.0,0.0,-0.6,0.0,0.0011179447174072266,0.004875659942626953,0
0.7790889739990234,-0.036367662250995636,-0.018398860469460487,-0.4096826910972595,0.083734528519756,-0.5343751496913869,0.08738433964294554,-0.25570246388493023,-0.5356820528962197,0.0,0.0,-0.6,0.0,0.005323648452758789,0.009357690811157227,0
0.7898573875427246,-0.036367662250995636,-0.018398860469460487,-0.4096826910972595,0.083734528519756,-0.5343751496913869,0.08738433964294554,-0.25570246388493023,-0.5356820528962197,0.0,0.0,-0.6,0.0,0.0010995864868164062,0.005079746246337891,0
0.799354076385498,-0.035463422536849976,-0.018998149782419205,-0.41688796877861023,0.08463143284756447,-0.5323021571665759,-0.0012141216923555547,-0.159322105246234,-0.5413259205038721,0.0,0.0,-0.6,0.0,0.005505084991455078,0.009646177291870117,0
0.8103559017181396,-0.035463422536849976,-0.018998149782419205,-0.41688796877861023,0.08463143284756447,-0.5323021571665759,-0.0012141216923555547,-0.159322105246234,-0.5413259205038721,0.0,0.0,-0.6,0.0,0.0011324882507324219,0.005029439926147461,0
0.8188462257385254,-0.03490399569272995,-0.019311795011162758,-0.4215514361858368,0.08477915375106829,-0.5337955253658596,-0.03134917992810135,-0.12579025829194043,-0.5422652956096825,0.0,0.0,-0.6,0.0,0.005327701568603516,0.009027957916259766,0
0.8294000625610352,-0.03490399569272995,-0.019311795011162758,-0.4215514361858368,0.08477915375106829,-0.5337955253658596,-0.03134917992810135,-0.12579025829194043,-0.5422652956096825,0.0,0.0,-0.6,0.0,0.0011148452758789062,0.00492095947265625,0
0.8389730453491211,-0.03468070551753044,-0.01950053498148918,-0.42379507422447205,0.08474704663822978,-0.5340996467532432,0.024240661504098916,-0.124731082386011,-0.5420658249587514,0.0,0.0,-0.6,0.0,0.005475521087646484,0.009201526641845703,0
0.8495581150054932,-0.03468070551753044,-0.01950053498148918,-0.42379507422447205,0.08474704663822978,-0.5340996467532432,0.024240661504098916,-0.124731082386011,-0.5420658249587514,0.0,0.0,-0.6,0.0,0.0011310577392578125,0.00535893440246582,0
0.8589503765106201,-0.034330375492572784,-0.02005167305469513,-0.43037149310112,0.08429248965346717,-0.5327509936098673,-0.008914365750801918,-0.10358677420293445,-0.5391648744379841,0.0,0.0,-0.6,0.0,0.005487680435180664,0.00955963134765625,0
0.8699514865875244,-0.034330375492572784,-0.02005167305469513,-0.43037149310112,0.08429248965346717,-0.5327509936098673,-0.008914365750801918,-0.10358677420293445,-0.5391648744379841,0.0,0.0,-0.6,0.0,0.0010712146759033203,0.004967451095581055,0
0.8789284229278564,-0.034119803458452225,-0.02037123590707779,-0.4346839189529419,0.08363170914363544,-0.5332881309057561,-0.09339896605817903,-0.12410336807875605,-0.5350427303101865,0.0,0.0,-0.6,0.0,0.00540614128112793,0.00939178466796875,0
0.8896868228912354,-0.034119803458452225,-0.02037123590707779,-0.4346839189529419,0.08363170914363544,-0.5332881309057561,-0.09339896605817903,-0.12410336807875605,-0.5350427303101865,0.0,0.0,-0.6,0.0,0.0010585784912109375,0.0050885677337646484,0
0.899407148361206,-0.03402291610836983,-0.020770782604813576,-0.4388049244880676,0.08270527452047059,-0.5322940270549774,-0.051649719388877406,-0.01985420353647209,-0.5289555923256781,0.0,0.0,-0.6,0.0,0.005484342575073242,0.009592294692993164,0
0.9102838039398193,-0.03402291610836983,-0.020770782604813576,-0.4388049244880676,0.08270527452047059,-0.5322940270549774,-0.051649719388877406,-0.01985420353647209,-0.5289555923256781,0.0,0.0,-0.6,0.0,0.0011556148529052734,0.004888296127319336,0
0.9191074371337891,-0.03398234769701958,-0.02110244147479534,-0.442830890417099,0.08160714505930866,-0.5332944017845812,-0.07871922733598478,0.0004749337145607065,-0.5219452675390133,0.0,0.0,-0.6,0.0,0.0054395198822021484,0.009522199630737305,0
0.9300680160522461,-0.03398234769701958,-0.02110244147479534,-0.442830890417099,0.08160714505930866,-0.5332944017845812,-0.07871922733598478,0.0004749337145607065,-0.5219452675390133,0.0,0.0,-0.6,0.0,0.0010476112365722656,0.0051724910736083984,0
0.9389915466308594,-0.03394223749637604,-0.021485768258571625,-0.4467652440071106,0.08034791228770492,-0.5328768580725673,-0.049780769105682215,-0.03439788453643951,-0.5139042715783654,0.0,0.0,-0.6,0.0,0.0056536197662353516,0.009528636932373047,0
0.9499812126159668,-0.03394223749637604,-0.021485768258571625,-0.4467652440071106,0.08034791228770492,-0.5328768580725673,-0.049780769105682215,-0.03439788453643951,-0.5139042715783654,0.0,0.0,-0.6,0.0,0.001102447509765625,0.00503087043762207,0
0.9589307308197021,-0.0338362380862236,-0.02176310494542122,-0.4505683481693268,0.07898912600924814,-0.5342027601185112,-0.037358865681154006,0.01365229414430441,-0.5051300818217125,0.0,0.0,-0.6,0.0,0.00587010383605957,0.009870767593383789,0
0.9702305793762207,-0.0338362380862236,-0.02176310494542122,-0.4505683481693268,0.07898912600924814,-0.5342027601185112,-0.037358865681154006,0.01365229414430441,-0.5051300818217125,0.0,0.0,-0.6,0.0,0.001073598861694336,0.005200624465942383,0
0.9788739681243896,-0.03384692221879959,-0.022031232714653015,-0.4541988968849182,0.07747483892091904,-0.5338251667006052,-0.06596946529541879,0.012391190454090878,-0.4954977491823353,0.0,0.0,-0.6,0.0,0.005629539489746094,0.009541988372802734,0
0.9897942543029785,-0.03384692221879959,-0.022031232714653015,-0.4541988968849182,0.07747483892091904,-0.5338251667006052,-0.06596946529541879,0.012391190454090878,-0.4954977491823353,0.0,0.0,-0.6,0.0,0.0010867118835449219,0.004885673522949219,0
0.9994287490844727,-0.03379013016819954,-0.0222485288977623,-0.4577285349369049,0.07595452603350185,-0.5322161668148275,-0.09130744795998554,0.12622983501039406,-0.4856843724546835,0.0,0.0,-0.6,0.0,0.005861043930053711,0.009969711303710938,0
1.010718584060669,-0.03379013016819954,-0.0222485288977623,-0.4577285349369049,0.07595452603350185,-0.5322161668148275,-0.09130744795998554,0.12622983501039406,-0.4856843724546835,0.0,0.0,-0.6,0.0,0.0011217594146728516,0.004948616027832031,0
1.0189683437347412,-0.033691465854644775,-0.022429080680012703,-0.46111613512039185,0.07418459461560785,-0.534536069844019,-0.10006982660610056,0.11161941229123175,-0.47441480785124557,0.0,0.0,-0.6,0.0,0.004655122756958008,0.00878143310546875,0
1.0290329456329346,-0.033691465854644775,-0.022429080680012703,-0.46111613512039185,0.07418459461560785,-0.534536069844019,-0.10006982660610056,0.11161941229123175,-0.47441480785124557,0.0,0.0,-0.6,0.0,0.0010497570037841797,0.0047152042388916016,0
1.0390102863311768,-0.033644985407590866,-0.022486796602606773,-0.46432021260261536,0.07223214462413943,-0.534097635142653,-0.03233250168717359,0.15123394012706845,-0.4617392756294232,0.0,0.0,-0.6,0.0,0.005984783172607422,0.010202646255493164,0
1.0507440567016602,-0.033644985407590866,-0.022486796602606773,-0.46432021260261536,0.07223214462413943,-0.534097635142653,-0.03233250168717359,0.15123394012706845,-0.4617392756294232,0.0,0.0,-0.6,0.0,0.0011386871337890625,0.004981517791748047,0
1.0589017868041992,-0.033526476472616196,-0.022547844797372818,-0.46752768754959106,0.07039486115352105,-0.5352269645918053,-0.08664974151838532,0.08725923817177487,-0.45019309783017125,0.0,0.0,-0.6,0.0,0.005380868911743164,0.009359359741210938,0
1.0696239471435547,-0.033526476472616196,-0.022547844797372818,-0.46752768754959106,0.07039486115352105,-0.5352269645918053,-0.08664974151838532,0.08725923817177487,-0.45019309783017125,0.0,0.0,-0.6,0.0,0.001064300537109375,0.0049512386322021484,0
1.0789015293121338,-0.03342961147427559,-0.022530436515808105,-0.47053098678588867,0.06847600755899208,-0.5356457779224405,-0.04364961141749642,0.1034455669441767,-0.43780804887401875,0.0,0.0,-0.6,0.0,0.005679607391357422,0.009421825408935547,0
1.0898151397705078,-0.03342961147427559,-0.022530436515808105,-0.47053098678588867,0.06847600755899208,-0.5356457779224405,-0.04364961141749642,0.1034455669441767,-0.43780804887401875,0.0,0.0,-0.6,0.0,0.0010838508605957031,0.004983186721801758,0
1.0993404388427734,-0.03335314616560936,-0.022581348195672035,-0.47348159551620483,0.06666342016098409,-0.5337488399234208,-0.07185595899701197,0.17176581612843073,-0.42621559242210566,0.0,0.0,-0.6,0.0,0.0054318904876708984,0.009379863739013672,0
1.110140085220337,-0.03335314616560936,-0.022581348195672035,-0.47348159551620483,0.06666342016098409,-0.5337488399234208,-0.07185595899701197,0.17176581612843073,-0.42621559242210566,0.0,0.0,-0.6,0.0,0.0011322498321533203,0.0050201416015625,0
1.1190667152404785,-0.03315958008170128,-0.022513525560498238,-0.4762619137763977,0.0646454554522598,-0.5339695031041414,-0.11150351018416263,0.1879912722551805,-0.413390590179864,0.0,0.0,-0.6,0.0,0.0051004886627197266,0.009037017822265625,0
1.129471778869629,-0.03315958008170128,-0.022513525560498238,-0.4762619137763977,0.0646454554522598,-0.5339695031041414,-0.11150351018416263,0.1879912722551805,-0.413390590179864,0.0,0.0,-0.6,0.0,0.0010466575622558594,0.0047893524169921875,0
1.138960361480713,-0.03303587809205055,-0.022483063861727715,-0.47896039485931396,0.06258859952826364,-0.5351883907218243,-0.054533397482297616,0.1584473137971632,-0.4001481769008472,0.0,0.0,-0.6,0.0,0.005472660064697266,0.0094146728515625,0
1.1497950553894043,-0.03303587809205055,-0.022483063861727715,-0.47896039485931396,0.06258859952826364,-0.5351883907218243,-0.054533397482297616,0.1584473137971632,-0.4001481769008472,0.0,0.0,-0.6,0.0,0.001043081283569336,0.004989147186279297,0
1.1590821743011475,-0.032794930040836334,-0.02239171415567398,-0.4815344214439392,0.060519624124932524,-0.5357432699716079,0.046752976628986254,0.14269642509212874,-0.38672041691876874,0.0,0.0,-0.6,0.0,0.005696296691894531,0.010143756866455078,0
1.1705498695373535,-0.032794930040836334,-0.02239171415567398,-0.4815344214439392,0.060519624124932524,-0.5357432699716079,0.046752976628986254,0.14269642509212874,-0.38672041691876874,0.0,0.0,-0.6,0.0,0.001203775405883789,0.005186796188354492,0
1.1789348125457764,-0.03257168456912041,-0.022270791232585907,-0.48393481969833374,0.058645638035292436,-0.5368505870033504,-0.0008093759651919279,0.08216203107808864,-0.37489502070139835,0.0,0.0,-0.6,0.0,0.005511045455932617,0.009383678436279297,0
1.189802646636963,-0.03257168456912041,-0.022270791232585907,-0.48393481969833374,0.058645638035292436,-0.5368505870033504,-0.0008093759651919279,0.08216203107808864,-0.37489502070139835,0.0,0.0,-0.6,0.0,0.0010671615600585938,0.005169868469238281,0
1.1994836330413818,-0.032320160418748856,-0.022193320095539093,-0.48618432879447937,0.05693472282903961,-0.5360166562205341,0.026842135014975364,0.07992311559828463,-0.36391035369470853,0.0,0.0,-0.6,0.0,0.0046803951263427734,0.008740425109863281,0
1.2097947597503662,-0.032320160418748856,-0.022193320095539093,-0.48618432879447937,0.05693472282903961,-0.5360166562205341,0.026842135014975364,0.07992311559828463,-0.36391035369470853,0.0,0.0,-0.6,0.0,0.0011036396026611328,0.005013227462768555,0
1.2189123630523682,-0.03210640698671341,-0.022081786766648293,-0.488389790058136,0.05528534633919359,-0.5369120822222112,-0.009199868162031754,0.14153883852216162,-0.3534163502381399,0.0,0.0,-0.6,0.0,0.005586862564086914,0.009639263153076172,0
1.230058193206787,-0.03210640698671341,-0.022081786766648293,-0.488389790058136,0.05528534633919359,-0.5369120822222112,-0.009199868162031754,0.14153883852216162,-0.3534163502381399,0.0,0.0,-0.6,0.0,0.0011246204376220703,0.004819631576538086,0
1.2389345169067383,-0.031715650111436844,-0.02188418246805668,-0.4904843270778656,0.053620159894762154,-0.5369895057021076,0.03694027528047837,0.15051130458542986,-0.34269590805937167,0.0,0.0,-0.6,0.0,0.004431724548339844,0.008727788925170898,0
1.2490832805633545,-0.031715650111436844,-0.02188418246805668,-0.4904843270778656,0.053620159894762154,-0.5369895057021076,0.03694027528047837,0.15051130458542986,-0.34269590805937167,0.0,0.0,-0.6,0.0,0.001117706298828125,0.005110740661621094,0
1.2589032649993896,-0.03145911544561386,-0.021647250279784203,-0.4924274981021881,0.05212256217961168,-0.5379669671920896,-0.0037922521849243222,0.09334679460292639,-0.33321350828670876,0.0,0.0,-0.6,0.0,0.0043184757232666016,0.008241891860961914,0
1.2700722217559814,-0.031276486814022064,-0.02149815671145916,-0.49335977435112,0.05146005582472646,-0.5378261759376186,0.0031116011620015774,0.08740361987380885,-0.32897087682689236,0.0,0.0,-0.6,0.0,0.004608869552612305,0.008661746978759766,0
1.2808640003204346,-0.031047992408275604,-0.0213676318526268,-0.4943149983882904,0.05075758708370023,-0.5380185867198296,-0.006904533417040584,0.051493231745195066,-0.32450734189087854,0.0,0.0,-0.6,0.0,0.004380226135253906,0.00856328010559082,0
1.2911949157714844,-0.031047992408275604,-0.0213676318526268,-0.4943149983882904,0.05075758708370023,-0.5380185867198296,-0.006904533417040584,0.051493231745195066,-0.32450734189087854,0.0,0.0,-0.6,0.0,0.0011019706726074219,0.004850864410400391,0
1.2994108200073242,-0.03070729784667492,-0.021096087992191315,-0.4961172938346863,0.04946941920010968,-0.5396878685230642,0.010885342649041502,0.00505255534024315,-0.31626472506642306,0.0,0.0,-0.6,0.0,0.0045015811920166016,0.008277416229248047,0
1.3097989559173584,-0.030512752011418343,-0.02090560458600521,-0.49697738885879517,0.04889125339513248,-0.5394319712640481,0.056430250545773726,0.037320571364301815,-0.31250344424946525,0.0,0.0,-0.6,0.0,0.004395008087158203,0.00824284553527832,0
1.3205740451812744,-0.03007439151406288,-0.020608535036444664,-0.49864661693573,0.04770794747247404,-0.5395660930161171,0.04294889828623457,-0.004522703919339044,-0.30497735328963377,0.0,0.0,-0.6,0.0,0.004496574401855469,0.008515119552612305,0
1.3304328918457031,-0.03007439151406288,-0.020608535036444664,-0.49864661693573,0.04770794747247404,-0.5395660930161171,0.04294889828623457,-0.004522703919339044,-0.30497735328963377,0.0,0.0,-0.6,0.0,0.0011444091796875,0.004974842071533203,0
1.340045690536499,-0.02974000573158264,-0.020250337198376656,-0.5002352595329285,0.04665388117094456,-0.5400736163500383,-0.03744420218279486,-0.023541792505518955,-0.2983404637879731,0.0,0.0,-0.6,0.0,0.004491567611694336,0.008274555206298828,0
1.349855661392212,-0.02974000573158264,-0.020250337198376656,-0.5002352595329285,0.04665388117094456,-0.5400736163500383,-0.03744420218279486,-0.023541792505518955,-0.2983404637879731,0.0,0.0,-0.6,0.0,0.0011036396026611328,0.0051555633544921875,0
1.3600201606750488,-0.029291881248354912,-0.019982559606432915,-0.5016862750053406,0.045772474123564985,-0.5394898948978387,-0.024040881795471435,0.023418925703436618,-0.292673792180166,0.0,0.0,-0.6,0.0,0.004458427429199219,0.008433818817138672,0
1.369919776916504,-0.029291881248354912,-0.019982559606432915,-0.5016862750053406,0.045772474123564985,-0.5394898948978387,-0.024040881795471435,0.023418925703436618,-0.292673792180166,0.0,0.0,-0.6,0.0,0.001127481460571289,0.0051577091217041016,0
1.3795347213745117,-0.02894027717411518,-0.01970761828124523,-0.5030539631843567,0.04500456496501446,-0.5407890587952586,-0.058251638555145806,0.05613902628314042,-0.28778527353601596,0.0,0.0,-0.6,0.0,0.004467964172363281,0.008341073989868164,0
1.3894453048706055,-0.02894027717411518,-0.01970761828124523,-0.5030539631843567,0.04500456496501446,-0.5407890587952586,-0.058251638555145806,0.05613902628314042,-0.28778527353601596,0.0,0.0,-0.6,0.0,0.0010628700256347656,0.005017757415771484,0
1.400461196899414,-0.02846369706094265,-0.019420886412262917,-0.504328191280365,0.04420422124322283,-0.540840057803163,0.02004468071904252,0.05928848808001887,-0.2825937631058786,0.0,0.0,-0.6,0.0,0.004574298858642578,0.008572816848754883,0
1.410419225692749,-0.02846369706094265,-0.019420886412262917,-0.504328191280365,0.04420422124322283,-0.540840057803163,0.02004468071904252,0.05928848808001887,-0.2825937631058786,0.0,0.0,-0.6,0.0,0.0011096000671386719,0.004980802536010742,0
1.4188737869262695,-0.028124326840043068,-0.019103815779089928,-0.5055336952209473,0.04353375676139996,-0.5414061274438453,0.011673008466377999,0.03840547647667275,-0.2783208118038472,0.0,0.0,-0.6,0.0,0.004589557647705078,0.008470535278320312,0
1.4302961826324463,-0.027948567643761635,-0.01893029734492302,-0.5060769319534302,0.04323617565834845,-0.5418577808686159,0.03843969399089556,0.0045719671174095314,-0.27640329859948387,0.0,0.0,-0.6,0.0,0.004735708236694336,0.008898258209228516,0
1.4410226345062256,-0.027948567643761635,-0.01893029734492302,-0.5060769319534302,0.04323617565834845,-0.5418577808686159,0.03843969399089556,0.0045719671174095314,-0.27640329859948387,0.0,0.0,-0.6,0.0,0.0011143684387207031,0.005130290985107422,0
1.4489448070526123,-0.027539607137441635,-0.018661489710211754,-0.507131040096283,0.04259857955014532,-0.5421393983336921,0.0310487592964962,-0.05885201312822866,-0.27234571499096816,0.0,0.0,-0.6,0.0,0.004468202590942383,0.008474111557006836,0
1.460634708404541,-0.027384890243411064,-0.018526403233408928,-0.5076436996459961,0.04227447525822267,-0.5432131828082835,0.02184460940437609,-0.0854518168701928,-0.27028539837727145,0.0,0.0,-0.6,0.0,0.004475116729736328,0.008319616317749023,0
1.470376968383789,-0.027384890243411064,-0.018526403233408928,-0.5076436996459961,0.04227447525822267,-0.5432131828082835,0.02184460940437609,-0.0854518168701928,-0.27028539837727145,0.0,0.0,-0.6,0.0,0.0011136531829833984,0.0048983097076416016,0
1.4797565937042236,-0.02701902948319912,-0.01813465729355812,-0.5085843801498413,0.04178372779859037,-0.5444770360054452,0.04957483929054616,-0.032061912947072696,-0.2671162328924416,0.0,0.0,-0.6,0.0,0.0055539608001708984,0.009403705596923828,0
1.4905178546905518,-0.02701902948319912,-0.01813465729355812,-0.5085843801498413,0.04178372779859037,-0.5444770360054452,0.04957483929054616,-0.032061912947072696,-0.2671162328924416,0.0,0.0,-0.6,0.0,0.0011103153228759766,0.00473475456237793,0
1.5000276565551758,-0.02663193829357624,-0.017801091074943542,-0.5093808770179749,0.0413707535430907,-0.5443185092111166,0.0706199994235665,-0.08175623854442203,-0.264469285341566,0.0,0.0,-0.6,0.0,0.005536794662475586,0.009560108184814453,0
1.511460781097412,-0.02663193829357624,-0.017801091074943542,-0.5093808770179749,0.0413707535430907,-0.5443185092111166,0.0706199994235665,-0.08175623854442203,-0.264469285341566,0.0,0.0,-0.6,0.0,0.0010728836059570312,0.004980802536010742,0
1.5198664665222168,-0.026428069919347763,-0.017440278083086014,-0.5100467205047607,0.0409116477976419,-0.5452487970804151,0.011754056387051022,-0.06202377773559037,-0.26158612904822987,0.0,0.0,-0.6,0.0,0.005391120910644531,0.00937199592590332,0
1.530691385269165,-0.026428069919347763,-0.017440278083086014,-0.5100467205047607,0.0409116477976419,-0.5452487970804151,0.011754056387051022,-0.06202377773559037,-0.26158612904822987,0.0,0.0,-0.6,0.0,0.001092672348022461,0.004942178726196289,0
1.5391995906829834,-0.026102475821971893,-0.017073769122362137,-0.5105841755867004,0.040387450299567335,-0.5444970829944987,-0.003765136292395107,-0.015601026491778218,-0.2582387761839128,0.0,0.0,-0.6,0.0,0.0046994686126708984,0.008692741394042969,0
1.5492477416992188,-0.026102475821971893,-0.017073769122362137,-0.5105841755867004,0.040387450299567335,-0.5444970829944987,-0.003765136292395107,-0.015601026491778218,-0.2582387761839128,0.0,0.0,-0.6,0.0,0.001081705093383789,0.00501704216003418,0
1.558894395828247,-0.025848880410194397,-0.016741398721933365,-0.5111314058303833,0.04001544404141527,-0.544473666380129,-0.08089859085232043,-0.029144557719972812,-0.25592939583975594,0.0,0.0,-0.6,0.0,0.005859851837158203,0.009940385818481445,0
1.5703516006469727,-0.025848880410194397,-0.016741398721933365,-0.5111314058303833,0.04001544404141527,-0.544473666380129,-0.08089859085232043,-0.029144557719972812,-0.25592939583975594,0.0,0.0,-0.6,0.0,0.0011703968048095703,0.005111217498779297,0
1.5788769721984863,-0.025469891726970673,-0.016282130032777786,-0.5115282535552979,0.03955296235131339,-0.5461821698322418,-0.024160308477552433,0.045737435117768746,-0.25290224291409463,0.0,0.0,-0.6,0.0,0.006182432174682617,0.010226726531982422,0
1.5907044410705566,-0.025469891726970673,-0.016282130032777786,-0.5115282535552979,0.03955296235131339,-0.5461821698322418,-0.024160308477552433,0.045737435117768746,-0.25290224291409463,0.0,0.0,-0.6,0.0,0.001153707504272461,0.005070209503173828,0
1.599402666091919,-0.025190871208906174,-0.015872925519943237,-0.5118964314460754,0.038948218470099716,-0.5469641362508206,-0.010622741072112727,-0.024782056157959934,-0.24905723145635236,0.0,0.0,-0.6,0.0,0.005376338958740234,0.00970602035522461,0
1.6104769706726074,-0.025190871208906174,-0.015872925519943237,-0.5118964314460754,0.038948218470099716,-0.5469641362508206,-0.010622741072112727,-0.024782056157959934,-0.24905723145635236,0.0,0.0,-0.6,0.0,0.0011255741119384766,0.005152225494384766,0
1.6189262866973877,-0.02489350736141205,-0.01538787130266428,-0.512237012386322,0.03835720555548814,-0.5471337619566912,-0.043527960829178626,-0.025515688746156968,-0.24531795673795004,0.0,0.0,-0.6,0.0,0.004710674285888672,0.008512258529663086,0
1.6306114196777344,-0.024721048772335052,-0.015207776799798012,-0.5124123692512512,0.03816919784974307,-0.5471335338559604,-0.03173155328573098,-0.06378027815958949,-0.2441283350114976,0.0,0.0,-0.6,0.0,0.005364418029785156,0.009394407272338867,0
1.6413421630859375,-0.024721048772335052,-0.015207776799798012,-0.5124123692512512,0.03816919784974307,-0.5471335338559604,-0.03173155328573098,-0.06378027815958949,-0.2441283350114976,0.0,0.0,-0.6,0.0,0.001107931137084961,0.004831790924072266,0
1.6491076946258545,-0.024506671354174614,-0.014758755452930927,-0.5127482414245605,0.03794134294964013,-0.5474746358640052,-0.0785780721467924,-0.08271149786933243,-0.24273641276740585,0.0,0.0,-0.6,0.0,0.005501747131347656,0.009590864181518555,0
1.6605582237243652,-0.024506671354174614,-0.014758755452930927,-0.5127482414245605,0.03794134294964013,-0.5474746358640052,-0.0785780721467924,-0.08271149786933243,-0.24273641276740585,0.0,0.0,-0.6,0.0,0.0011205673217773438,0.004995822906494141,0
1.6693334579467773,-0.024231482297182083,-0.014347770251333714,-0.5130467414855957,0.03749250524761009,-0.5476445218017998,-0.07978935852596193,-0.05075711809846105,-0.23985186189488755,0.0,0.0,-0.6,0.0,0.005416393280029297,0.009560108184814453,0
1.6802127361297607,-0.024231482297182083,-0.014347770251333714,-0.5130467414855957,0.03749250524761009,-0.5476445218017998,-0.07978935852596193,-0.05075711809846105,-0.23985186189488755,0.0,0.0,-0.6,0.0,0.0011396408081054688,0.005112409591674805,0
1.6889264583587646,-0.0241348035633564,-0.013981048949062824,-0.5133306980133057,0.0369646025059847,-0.5470854398394037,-0.09921387836470143,-0.053096257236253525,-0.23649961263334884,0.0,0.0,-0.6,0.0,0.004884958267211914,0.008709907531738281,0
1.6997456550598145,-0.0241348035633564,-0.013981048949062824,-0.5133306980133057,0.0369646025059847,-0.5470854398394037,-0.09921387836470143,-0.053096257236253525,-0.23649961263334884,0.0,0.0,-0.6,0.0,0.0012023448944091797,0.005357027053833008,0
1.7088894844055176,-0.023906052112579346,-0.013614354655146599,-0.5136622786521912,0.03647374521697628,-0.5454497552433762,-0.06576715272764044,0.07317451925780234,-0.2332427870129435,0.0,0.0,-0.6,0.0,0.0057373046875,0.009602785110473633,0
1.7200534343719482,-0.023906052112579346,-0.013614354655146599,-0.5136622786521912,0.03647374521697628,-0.5454497552433762,-0.06576715272764044,0.07317451925780234,-0.2332427870129435,0.0,0.0,-0.6,0.0,0.0011680126190185547,0.00509953498840332,0
1.728940486907959,-0.023667918518185616,-0.013265728019177914,-0.5139870643615723,0.036062668045718296,-0.5464998145627326,-0.15591081207379096,0.05048773657915894,-0.23074097719823264,0.0,0.0,-0.6,0.0,0.005753517150878906,0.009763956069946289,0
1.740232229232788,-0.023667918518185616,-0.013265728019177914,-0.5139870643615723,0.036062668045718296,-0.5464998145627326,-0.15591081207379096,0.05048773657915894,-0.23074097719823264,0.0,0.0,-0.6,0.0,0.001116037368774414,0.004936695098876953,0
1.7490129470825195,-0.0234066154807806,-0.012948696501553059,-0.5142151713371277,0.035605938963771365,-0.5468127693814914,-0.040734998814571176,-0.014686159349792862,-0.22772079516511715,0.0,0.0,-0.6,0.0,0.005535602569580078,0.009491920471191406,0
1.7599153518676758,-0.0234066154807806,-0.012948696501553059,-0.5142151713371277,0.035605938963771365,-0.5468127693814914,-0.040734998814571176,-0.014686159349792862,-0.22772079516511715,0.0,0.0,-0.6,0.0,0.0011780261993408203,0.0052776336669921875,0
1.7690885066986084,-0.02328789234161377,-0.012653009966015816,-0.5144523978233337,0.03532488221785239,-0.5470825811263768,-0.005348663419771195,0.02912600923689437,-0.2258543027367253,0.0,0.0,-0.6,0.0,0.005104780197143555,0.009037494659423828,0
1.779463291168213,-0.02328789234161377,-0.012653009966015816,-0.5144523978233337,0.03532488221785239,-0.5470825811263768,-0.005348663419771195,0.02912600923689437,-0.2258543027367253,0.0,0.0,-0.6,0.0,0.0011005401611328125,0.005159139633178711,0
1.7889013290405273,-0.022987160831689835,-0.012374578975141048,-0.5147337317466736,0.03490987101529561,-0.5468175961607884,0.05975079309321005,0.017882618497133296,-0.22310877913731547,0.0,0.0,-0.6,0.0,0.005564689636230469,0.009607076644897461,0
1.8008928298950195,-0.022987160831689835,-0.012374578975141048,-0.5147337317466736,0.03490987101529561,-0.5468175961607884,0.05975079309321005,0.017882618497133296,-0.22310877913731547,0.0,0.0,-0.6,0.0,0.0011246204376220703,0.005118131637573242,0
1.809431552886963,-0.022882111370563507,-0.012123768217861652,-0.514878511428833,0.03457227331840831,-0.548573990846911,0.049554287748799934,-0.02548371302768346,-0.22096589420054816,0.0,0.0,-0.6,0.0,0.0055675506591796875,0.009469985961914062,0
1.8203344345092773,-0.022882111370563507,-0.012123768217861652,-0.514878511428833,0.03457227331840831,-0.548573990846911,0.049554287748799934,-0.02548371302768346,-0.22096589420054816,0.0,0.0,-0.6,0.0,0.0010809898376464844,0.005259990692138672,0
1.829312801361084,-0.022777268663048744,-0.011967482045292854,-0.5150067210197449,0.03431728930697009,-0.5464539856907588,0.05925354823870392,-0.0056685673274943895,-0.21931393944942681,0.0,0.0,-0.6,0.0,0.0044553279876708984,0.00842428207397461,0
1.839839220046997,-0.022763153538107872,-0.011887229047715664,-0.5151079893112183,0.03418962955877916,-0.5459997225374739,0.048733136883526124,-0.0039256392499094255,-0.21851107112790927,0.0,0.0,-0.6,0.0,0.004433631896972656,0.00830221176147461,0
1.849473237991333,-0.022763153538107872,-0.011887229047715664,-0.5151079893112183,0.03418962955877916,-0.5459997225374739,0.048733136883526124,-0.0039256392499094255,-0.21851107112790927,0.0,0.0,-0.6,0.0,0.0011317729949951172,0.004940986633300781,0
1.8590033054351807,-0.022645290940999985,-0.011632654815912247,-0.5152431726455688,0.03388749085514284,-0.5465572547492739,0.057615475270314805,0.04902012500883179,-0.2165801600823689,0.0,0.0,-0.6,0.0,0.005470991134643555,0.009407758712768555,0
1.8700659275054932,-0.022645290940999985,-0.011632654815912247,-0.5152431726455688,0.03388749085514284,-0.5465572547492739,0.057615475270314805,0.04902012500883179,-0.2165801600823689,0.0,0.0,-0.6,0.0,0.0011835098266601562,0.005386829376220703,0
1.8790302276611328,-0.02256033383309841,-0.011441466398537159,-0.5153716206550598,0.03353200777627128,-0.5475629649892758,0.11061670621470379,0.019951376254737925,-0.21423017323849924,0.0,0.0,-0.6,0.0,0.005102872848510742,0.00907135009765625,0
1.8901760578155518,-0.022538786754012108,-0.011258619837462902,-0.5153957605361938,0.03333507545050425,-0.5484875425960689,0.14163533062742453,0.02127549726298498,-0.21293452008070052,0.0,0.0,-0.6,0.0,0.005663871765136719,0.009586811065673828,0
1.901794672012329,-0.022538786754012108,-0.011258619837462902,-0.5153957605361938,0.03333507545050425,-0.5484875425960689,0.14163533062742453,0.02127549726298498,-0.21293452008070052,0.0,0.0,-0.6,0.0,0.0010838508605957031,0.005090951919555664,0
1.9095189571380615,-0.02240634709596634,-0.011084610596299171,-0.5154573321342468,0.03312190269466471,-0.5479485718575706,0.18310685505487828,-0.020710912396942446,-0.21150352954221188,0.0,0.0,-0.6,0.0,0.005198001861572266,0.009278059005737305,0
1.9212417602539062,-0.022275185212492943,-0.010841643437743187,-0.5155069231987,0.03301128726705246,-0.5490246086843692,0.1102350578925876,-0.03394923909588236,-0.21088793720857885,0.0,0.0,-0.6,0.0,0.005312919616699219,0.009156227111816406,0
1.9317121505737305,-0.022275185212492943,-0.010841643437743187,-0.5155069231987,0.03301128726705246,-0.5490246086843692,0.1102350578925876,-0.03394923909588236,-0.21088793720857885,0.0,0.0,-0.6,0.0,0.0010521411895751953,0.004851818084716797,0
1.9391541481018066,-0.02217411994934082,-0.010753951966762543,-0.5154914855957031,0.032983938575762414,-0.548690583709096,0.10600513562224992,-0.005177893201772172,-0.21072590888484002,0.0,0.0,-0.6,0.0,0.0053942203521728516,0.009380817413330078,0
1.949826955795288,-0.02217411994934082,-0.010753951966762543,-0.5154914855957031,0.032983938575762414,-0.548690583709096,0.10600513562224992,-0.005177893201772172,-0.21072590888484002,0.0,0.0,-0.6,0.0,0.0010569095611572266,0.004876375198364258,0
1.958907127380371,-0.022110730409622192,-0.010682031512260437,-0.5154191851615906,0.03290360356593213,-0.5492596242084314,0.054812683550905475,-0.05348394161635079,-0.21026827651877125,0.0,0.0,-0.6,0.0,0.005607128143310547,0.009474515914916992,0
1.9697694778442383,-0.022110730409622192,-0.010682031512260437,-0.5154191851615906,0.03290360356593213,-0.5492596242084314,0.054812683550905475,-0.05348394161635079,-0.21026827651877125,0.0,0.0,-0.6,0.0,0.0011320114135742188,0.0050127506256103516,0
1.9796743392944336,-0.021954501047730446,-0.010439879260957241,-0.5151824951171875,0.0327290202559313,-0.5496488347489693,0.08050079377372317,0.05619884984072532,-0.20914561277309732,0.0,0.0,-0.6,0.0,0.005684614181518555,0.0097503662109375,0
1.9909286499023438,-0.021954501047730446,-0.010439879260957241,-0.5151824951171875,0.0327290202559313,-0.5496488347489693,0.08050079377372317,0.05619884984072532,-0.20914561277309732,0.0,0.0,-0.6,0.0,0.0010991096496582031,0.0048122406005859375,0
2.0002424716949463,-0.021972309798002243,-0.010270626284182072,-0.5149911642074585,0.03265960808176792,-0.5505918953076601,0.0632488955284745,0.014839026035848317,-0.20872405933407975,0.0,0.0,-0.6,0.0,0.005350828170776367,0.00941324234008789,0
2.0109736919403076,-0.021972309798002243,-0.010270626284182072,-0.5149911642074585,0.03265960808176792,-0.5505918953076601,0.0632488955284745,0.014839026035848317,-0.20872405933407975,0.0,0.0,-0.6,0.0,0.0010902881622314453,0.004855632781982422,0
2.019254207611084,-0.02198181487619877,-0.010142800398170948,-0.5148174166679382,0.032591579711296025,-0.551132855859881,0.08024885012256922,0.016849481862329336,-0.20826989287747677,0.0,0.0,-0.6,0.0,0.005389690399169922,0.009862422943115234,0
2.030874490737915,-0.021888433024287224,-0.010056107304990292,-0.5145022869110107,0.03235719857396397,-0.5517821405361719,0.0553424118046448,-0.06336347342294152,-0.2068255003898645,0.0,0.0,-0.6,0.0,0.00532841682434082,0.00933980941772461,0
2.042141914367676,-0.021888433024287224,-0.010056107304990292,-0.5145022869110107,0.03235719857396397,-0.5517821405361719,0.0553424118046448,-0.06336347342294152,-0.2068255003898645,0.0,0.0,-0.6,0.0,0.0011737346649169922,0.005057573318481445,0
2.049427032470703,-0.021874982863664627,-0.009867729619145393,-0.5141480565071106,0.03230583125127989,-0.5522310854623501,-0.01817562831959207,-0.04591329821340008,-0.20660470348687654,0.0,0.0,-0.6,0.0,0.005429506301879883,0.009319067001342773,0
2.0601842403411865,-0.021874982863664627,-0.009867729619145393,-0.5141480565071106,0.03230583125127989,-0.5522310854623501,-0.01817562831959207,-0.04591329821340008,-0.20660470348687654,0.0,0.0,-0.6,0.0,0.0010793209075927734,0.004904270172119141,0
2.0689854621887207,-0.021799826994538307,-0.009798684157431126,-0.5139619708061218,0.032329737437336054,-0.552147292796828,-0.003132816453780249,-0.053167613612150125,-0.20674698390075424,0.0,0.0,-0.6,0.0,0.005415439605712891,0.009310007095336914,0
2.0796663761138916,-0.021799826994538307,-0.009798684157431126,-0.5139619708061218,0.032329737437336054,-0.552147292796828,-0.003132816453780249,-0.053167613612150125,-0.20674698390075424,0.0,0.0,-0.6,0.0,0.0010712146759033203,0.0048296451568603516,0
2.0897250175476074,-0.021839089691638947,-0.009568457491695881,-0.5132412314414978,0.0321553604900525,-0.5530882155914887,-0.08393417917375028,-0.03792519792015471,-0.2057382600175241,0.0,0.0,-0.6,0.0,0.0054929256439208984,0.00940704345703125,0
2.101047992706299,-0.021839089691638947,-0.009568457491695881,-0.5132412314414978,0.0321553604900525,-0.5530882155914887,-0.08393417917375028,-0.03792519792015471,-0.2057382600175241,0.0,0.0,-0.6,0.0,0.0011165142059326172,0.0049343109130859375,0
2.1094319820404053,-0.02188737317919731,-0.009474038146436214,-0.512752890586853,0.031802867635055534,-0.5522329613079402,-0.06060725711965924,-0.024016167562003993,-0.20345128317171954,0.0,0.0,-0.6,0.0,0.005610227584838867,0.009517908096313477,0
2.1208384037017822,-0.02188737317919731,-0.009474038146436214,-0.512752890586853,0.031802867635055534,-0.5522329613079402,-0.06060725711965924,-0.024016167562003993,-0.20345128317171954,0.0,0.0,-0.6,0.0,0.0011000633239746094,0.005149126052856445,0
2.1300272941589355,-0.022051138803362846,-0.00927084032446146,-0.5121443867683411,0.03156964152088575,-0.5536654707359702,-0.11226289278371744,-0.039931476929598426,-0.20203379545309638,0.0,0.0,-0.6,0.0,0.005519866943359375,0.00921320915222168,0
2.1405820846557617,-0.022051138803362846,-0.00927084032446146,-0.5121443867683411,0.03156964152088575,-0.5536654707359702,-0.11226289278371744,-0.039931476929598426,-0.20203379545309638,0.0,0.0,-0.6,0.0,0.001104116439819336,0.004938602447509766,0
2.149479627609253,-0.022120755165815353,-0.009131652303040028,-0.5116010904312134,0.03135421892928258,-0.5530511452845016,-0.1263638491214523,-0.1539492494791162,-0.20078513541149412,0.0,0.0,-0.6,0.0,0.005542755126953125,0.009435892105102539,0
2.1609323024749756,-0.022120755165815353,-0.009131652303040028,-0.5116010904312134,0.03135421892928258,-0.5530511452845016,-0.1263638491214523,-0.1539492494791162,-0.20078513541149412,0.0,0.0,-0.6,0.0,0.0010578632354736328,0.0048792362213134766,0
2.168907403945923,-0.022233031690120697,-0.008908351883292198,-0.5110025405883789,0.031097494353065164,-0.5540843367001511,-0.10565745011263285,-0.11922654206424296,-0.1990960803173588,0.0,0.0,-0.6,0.0,0.005657196044921875,0.009641647338867188,0
2.179999828338623,-0.022233031690120697,-0.008908351883292198,-0.5110025405883789,0.031097494353065164,-0.5540843367001511,-0.10565745011263285,-0.11922654206424296,-0.1990960803173588,0.0,0.0,-0.6,0.0,0.0012066364288330078,0.005141019821166992,0
2.1889209747314453,-0.022303512319922447,-0.008791234344244003,-0.5104861855506897,0.030934551966936372,-0.5545304223846248,-0.10767985198281489,-0.14350777832049524,-0.19807517825237553,0.0,0.0,-0.6,0.0,0.005812168121337891,0.009800910949707031,0
2.200796365737915,-0.022303512319922447,-0.008791234344244003,-0.5104861855506897,0.030934551966936372,-0.5545304223846248,-0.10767985198281489,-0.14350777832049524,-0.19807517825237553,0.0,0.0,-0.6,0.0,0.0011229515075683594,0.00520777702331543,0
2.20914626121521,-0.022365527227520943,-0.008650088682770729,-0.5099604725837708,0.030675723430500314,-0.5529972530697652,-0.07770922859579177,-0.10596354323344453,-0.19634751946906465,0.0,0.0,-0.6,0.0,0.005681514739990234,0.009646892547607422,0
2.220045328140259,-0.022365527227520943,-0.008650088682770729,-0.5099604725837708,0.030675723430500314,-0.5529972530697652,-0.07770922859579177,-0.10596354323344453,-0.19634751946906465,0.0,0.0,-0.6,0.0,0.0011036396026611328,0.0048143863677978516,0
2.2290611267089844,-0.022419758141040802,-0.00848805345594883,-0.5095399618148804,0.030549446771368706,-0.5520675852802828,-0.14320713370305432,-0.014236064230275862,-0.1955120815374711,0.0,0.0,-0.6,0.0,0.005715608596801758,0.009833812713623047,0
2.2402312755584717,-0.022419758141040802,-0.00848805345594883,-0.5095399618148804,0.030549446771368706,-0.5520675852802828,-0.14320713370305432,-0.014236064230275862,-0.1955120815374711,0.0,0.0,-0.6,0.0,0.0011241436004638672,0.0053021907806396484,0
2.248868227005005,-0.022345159202814102,-0.008355619385838509,-0.5091533660888672,0.030383544639586334,-0.5519550448822887,-0.15361401265282437,-0.023189141311416077,-0.19448889551507362,0.0,0.0,-0.6,0.0,0.005613565444946289,0.009579896926879883,0
2.259896755218506,-0.022345159202814102,-0.008355619385838509,-0.5091533660888672,0.030383544639586334,-0.5519550448822887,-0.15361401265282437,-0.023189141311416077,-0.19448889551507362,0.0,0.0,-0.6,0.0,0.0011169910430908203,0.005085468292236328,0
2.2694931030273438,-0.02236524596810341,-0.00815503764897585,-0.5087723135948181,0.030157080122771508,-0.5523179899853944,-0.10226306912246613,-0.02403370407215719,-0.19299099894269706,0.0,0.0,-0.6,0.0,0.00536656379699707,0.009116411209106445,0
2.2799205780029297,-0.02236524596810341,-0.00815503764897585,-0.5087723135948181,0.030157080122771508,-0.5523179899853944,-0.10226306912246613,-0.02403370407215719,-0.19299099894269706,0.0,0.0,-0.6,0.0,0.0010571479797363281,0.005003452301025391,0
2.2900545597076416,-0.022362150251865387,-0.00802543107420206,-0.5085065960884094,0.03007281698774762,-0.5508064473143107,-0.03620077850571505,0.010139271295234762,-0.1923395871863702,0.0,0.0,-0.6,0.0,0.00565028190612793,0.009643077850341797,0
2.3018429279327393,-0.022362150251865387,-0.00802543107420206,-0.5085065960884094,0.03007281698774762,-0.5508064473143107,-0.03620077850571505,0.010139271295234762,-0.1923395871863702,0.0,0.0,-0.6,0.0,0.0011527538299560547,0.005254507064819336,0
2.3091399669647217,-0.02223001979291439,-0.007824861444532871,-0.508313775062561,0.03001923828712792,-0.5518099860026981,0.017902446255521284,0.045436989467382574,-0.1918913443665274,0.0,0.0,-0.6,0.0,0.005478858947753906,0.009427547454833984,0
2.3199691772460938,-0.02223001979291439,-0.007824861444532871,-0.508313775062561,0.03001923828712792,-0.5518099860026981,0.017902446255521284,0.045436989467382574,-0.1918913443665274,0.0,0.0,-0.6,0.0,0.0010800361633300781,0.00493311882019043,0
2.329012632369995,-0.022297339513897896,-0.007674204185605049,-0.5080462694168091,0.02991692169841724,-0.5528920358792296,-0.030680032262002787,-0.014388733658631418,-0.1913404047110407,0.0,0.0,-0.6,0.0,0.005548715591430664,0.009586811065673828,0
2.340157985687256,-0.022297339513897896,-0.007674204185605049,-0.5080462694168091,0.02991692169841724,-0.5528920358792296,-0.030680032262002787,-0.014388733658631418,-0.1913404047110407,0.0,0.0,-0.6,0.0,0.0011005401611328125,0.005141496658325195,0
2.3489489555358887,-0.02229362353682518,-0.007614805828779936,-0.507750928401947,0.029726175058563658,-0.5499293842008867,-0.0008377246853314979,0.06775889482454689,-0.19004636143217876,0.0,0.0,-0.6,0.0,0.005597352981567383,0.009505033493041992,0
2.3599276542663574,-0.02229362353682518,-0.007614805828779936,-0.507750928401947,0.029726175058563658,-0.5499293842008867,-0.0008377246853314979,0.06775889482454689,-0.19004636143217876,0.0,0.0,-0.6,0.0,0.0011372566223144531,0.005120754241943359,0
2.368983030319214,-0.02233869582414627,-0.007494387216866016,-0.5075710415840149,0.02967107358979429,-0.5518475312488474,-0.03571257380821204,0.0928818464352232,-0.18976070587220062,0.0,0.0,-0.6,0.0,0.005556821823120117,0.00944375991821289,0
2.3797881603240967,-0.02233869582414627,-0.007494387216866016,-0.5075710415840149,0.02967107358979429,-0.5518475312488474,-0.03571257380821204,0.0928818464352232,-0.18976070587220062,0.0,0.0,-0.6,0.0,0.0011782646179199219,0.005129814147949219,0
2.38897705078125,-0.022295456379652023,-0.007336681243032217,-0.5073037147521973,0.02955759307165374,-0.5516145362428941,0.04902541056970791,0.09424699590180707,-0.18887422218471206,0.0,0.0,-0.6,0.0,0.005358219146728516,0.009491443634033203,0
2.4005930423736572,-0.022295456379652023,-0.007336681243032217,-0.5073037147521973,0.02955759307165374,-0.5516145362428941,0.04902541056970791,0.09424699590180707,-0.18887422218471206,0.0,0.0,-0.6,0.0,0.0011484622955322266,0.0050506591796875,0
2.4089980125427246,-0.022397233173251152,-0.007184297312051058,-0.5070841312408447,0.02928840873726754,-0.5513228880418398,0.08235154595015988,0.09638505251313333,-0.18709180151279392,0.0,0.0,-0.6,0.0,0.005496501922607422,0.009255647659301758,0
2.4197006225585938,-0.022397233173251152,-0.007184297312051058,-0.5070841312408447,0.02928840873726754,-0.5513228880418398,0.08235154595015988,0.09638505251313333,-0.18709180151279392,0.0,0.0,-0.6,0.0,0.0010731220245361328,0.0050199031829833984,0
2.428959846496582,-0.02228114753961563,-0.007119202520698309,-0.5068885684013367,0.029061101656711948,-0.5524487554394862,0.10463825633348545,0.035551626528576234,-0.18559103076635908,0.0,0.0,-0.6,0.0,0.00525665283203125,0.009170055389404297,0
