time,x,y,z,yaw,throttle,roll_rate,pitch_rate,yaw_rate,x_ref,y_ref,z_ref,yaw_ref,mpc_time,ctrl_callback_time_history,metadata
3.814697265625e-06,0.027481552213430405,0.13199883699417114,-0.24319511651992798,0.030780128645898172,-0.6352876868287968,-0.7999999999713857,0.2910486300352719,-0.19363258582729986,0.0,0.0,-0.6,0.0,0.018198490142822266,0.0223848819732666,Hardware
0.024799823760986328,0.02741583064198494,0.13203400373458862,-0.24318255484104156,0.030778233457996233,-0.6352876868288385,-0.7999999999727649,0.2925561735831036,-0.1935555405864438,0.0,0.0,-0.6,0.0,0.008297204971313477,0.012561321258544922,2x Speed
0.039168596267700195,0.02741583064198494,0.13203400373458862,-0.24318255484104156,0.030778233457996233,-0.6352876868288385,-0.7999999999727649,0.2925561735831036,-0.1935555405864438,0.0,0.0,-0.6,0.0,0.0010972023010253906,0.005146026611328125,Horizon:3.0
0.04847002029418945,0.0273817777633667,0.13205763697624207,-0.24317100644111633,0.030791469826419754,-0.6352876868288849,-0.7999999999731394,0.2927560440050051,-0.19363110645475715,0.0,0.0,-0.6,0.0,0.007077932357788086,0.01100921630859375,Num Steps:20
0.061559200286865234,0.02735339291393757,0.1320778876543045,-0.243190199136734,0.030811510622606012,-0.6352876868285308,-0.7999999999735474,0.2919120738069015,-0.1937769992634199,0.0,0.0,-0.6,0.0,0.008529901504516602,0.012592554092407227,No Pyjoules
0.07616305351257324,0.02735339291393757,0.1320778876543045,-0.243190199136734,0.030811510622606012,-0.6352876868285308,-0.7999999999735474,0.2919120738069015,-0.1937769992634199,0.0,0.0,-0.6,0.0,0.0010721683502197266,0.005054950714111328,0
0.08310461044311523,0.02731422893702984,0.13207903504371643,-0.24327020347118378,0.030541579104801857,-0.6352876868306434,-0.799999999961708,0.27482758190119966,-0.1925310171847644,0.0,0.0,-0.6,0.0,0.009855985641479492,0.013864755630493164,0
0.09879779815673828,0.02731422893702984,0.13207903504371643,-0.24327020347118378,0.030541579104801857,-0.6352876868306434,-0.799999999961708,0.27482758190119966,-0.1925310171847644,0.0,0.0,-0.6,0.0,0.001087188720703125,0.005013465881347656,0
0.10906672477722168,0.027164435014128685,0.13198362290859222,-0.2434900999069214,0.030183139175626292,-0.6352876868243117,-0.799999918387898,0.244823776105354,-0.19107127706255408,0.0,0.0,-0.6,0.0,0.009844779968261719,0.01388239860534668,0
0.1243143081665039,0.027164435014128685,0.13198362290859222,-0.2434900999069214,0.030183139175626292,-0.6352876868243117,-0.799999918387898,0.244823776105354,-0.19107127706255408,0.0,0.0,-0.6,0.0,0.0010957717895507812,0.005249500274658203,0
0.13155007362365723,0.027022989466786385,0.13164158165454865,-0.2437768131494522,0.030820458832696043,-0.6352876868339074,-0.7999999999664494,0.24775846074760463,-0.19656394469254956,0.0,0.0,-0.6,0.0,0.009614706039428711,0.013687372207641602,0
0.14718294143676758,0.027022989466786385,0.13164158165454865,-0.2437768131494522,0.030820458832696043,-0.6352876868339074,-0.7999999999664494,0.24775846074760463,-0.19656394469254956,0.0,0.0,-0.6,0.0,0.0010886192321777344,0.00490260124206543,0
0.15417051315307617,0.026856066659092903,0.1308407187461853,-0.2445012778043747,0.03081642895039651,-0.6352876866940543,-0.6925505369844952,0.23015297114450897,-0.19728630217548976,0.0,0.0,-0.6,0.0,0.010622739791870117,0.014394044876098633,0
0.17047715187072754,0.026856066659092903,0.1308407187461853,-0.2445012778043747,0.03081642895039651,-0.6352876866940543,-0.6925505369844952,0.23015297114450897,-0.19728630217548976,0.0,0.0,-0.6,0.0,0.0011436939239501953,0.004996299743652344,0
0.1788628101348877,0.026540745049715042,0.12947407364845276,-0.24584363400936127,0.030527579027663232,-0.633893566138821,-0.5420737508560259,0.1786173966630064,-0.19545900795207108,0.0,0.0,-0.6,0.0,0.008910894393920898,0.012892723083496094,0
0.19383597373962402,0.026203898712992668,0.12743604183197021,-0.24796774983406067,0.03003059023649012,-0.6242135478590021,-0.2458225502018068,0.1311796453204427,-0.19230576718116474,0.0,0.0,-0.6,0.0,0.007363319396972656,0.011310577392578125,0
0.2071671485900879,0.026203898712992668,0.12743604183197021,-0.24796774983406067,0.03003059023649012,-0.6242135478590021,-0.2458225502018068,0.1311796453204427,-0.19230576718116474,0.0,0.0,-0.6,0.0,0.001070261001586914,0.0051882266998291016,0
0.21470308303833008,0.025925276800990105,0.12498976290225983,-0.2509508728981018,0.02932351552884574,-0.6153150629631036,0.04139988828797178,0.1028175300511092,-0.1878530720217307,0.0,0.0,-0.6,0.0,0.006913661956787109,0.01100015640258789,0
0.2271561622619629,0.025925276800990105,0.12498976290225983,-0.2509508728981018,0.02932351552884574,-0.6153150629631036,0.04139988828797178,0.1028175300511092,-0.1878530720217307,0.0,0.0,-0.6,0.0,0.0010790824890136719,0.004872798919677734,0
0.23460006713867188,0.025472240522503853,0.12239721417427063,-0.2543901801109314,0.028261929701528955,-0.616048620853292,0.2339052450881082,0.03313836639528456,-0.18098538506570927,0.0,0.0,-0.6,0.0,0.006614208221435547,0.010521411895751953,0
0.2465817928314209,0.025472240522503853,0.12239721417427063,-0.2543901801109314,0.028261929701528955,-0.616048620853292,0.2339052450881082,0.03313836639528456,-0.18098538506570927,0.0,0.0,-0.6,0.0,0.0010933876037597656,0.005096912384033203,0
0.25406336784362793,0.024835389107465744,0.11939682811498642,-0.258888840675354,0.026830814111108842,-0.6024712842438691,0.500288073488992,-0.00530265993099816,-0.17181043092630102,0.0,0.0,-0.6,0.0,0.006798505783081055,0.01086568832397461,0
0.266355037689209,0.024835389107465744,0.11939682811498642,-0.258888840675354,0.026830814111108842,-0.6024712842438691,0.500288073488992,-0.00530265993099816,-0.17181043092630102,0.0,0.0,-0.6,0.0,0.0011258125305175781,0.00490260124206543,0
0.27362561225891113,0.024167681112885475,0.11621984094381332,-0.2641940712928772,0.025337945014357526,-0.5937882646771214,0.7814745645601011,-0.019756066772634334,-0.16236220357947312,0.0,0.0,-0.6,0.0,0.009946584701538086,0.014114618301391602,0
0.28905224800109863,0.024167681112885475,0.11621984094381332,-0.2641940712928772,0.025337945014357526,-0.5937882646771214,0.7814745645601011,-0.019756066772634334,-0.16236220357947312,0.0,0.0,-0.6,0.0,0.0011289119720458984,0.00494837760925293,0
0.2989480495452881,0.02311702072620392,0.11105785518884659,-0.2737734615802765,0.023109235466832183,-0.5791695390779653,0.7999999545759005,-0.04781868712524024,-0.14842932700572586,0.0,0.0,-0.6,0.0,0.008794069290161133,0.012844562530517578,0
0.3132331371307373,0.02311702072620392,0.11105785518884659,-0.2737734615802765,0.023109235466832183,-0.5791695390779653,0.7999999545759005,-0.04781868712524024,-0.14842932700572586,0.0,0.0,-0.6,0.0,0.0010838508605957031,0.005103111267089844,0
0.3205845355987549,0.022349892184138298,0.107384592294693,-0.28117167949676514,0.02165497426193337,-0.5758811794225883,0.7999999945927065,-0.038274515728962726,-0.13946172728533332,0.0,0.0,-0.6,0.0,0.008606672286987305,0.012738227844238281,0
0.3347592353820801,0.022349892184138298,0.107384592294693,-0.28117167949676514,0.02165497426193337,-0.5758811794225883,0.7999999945927065,-0.038274515728962726,-0.13946172728533332,0.0,0.0,-0.6,0.0,0.0010690689086914062,0.00520634651184082,0
0.3422238826751709,0.021597621962428093,0.10350418090820312,-0.2891600728034973,0.019969190240512656,-0.564296246563402,0.799999878515369,-0.0833722380480248,-0.1277512827060883,0.0,0.0,-0.6,0.0,0.008793115615844727,0.012784004211425781,0
0.3565673828125,0.021597621962428093,0.10350418090820312,-0.2891600728034973,0.019969190240512656,-0.564296246563402,0.799999878515369,-0.0833722380480248,-0.1277512827060883,0.0,0.0,-0.6,0.0,0.0011391639709472656,0.005312681198120117,0
0.36437201499938965,0.0207971204072237,0.09946631640195847,-0.2976044714450836,0.018252444144661702,-0.5596185560739312,0.7999999997174216,-0.06097069801605924,-0.1171628920339765,0.0,0.0,-0.6,0.0,0.006952047348022461,0.010936260223388672,0
0.3766210079193115,0.0207971204072237,0.09946631640195847,-0.2976044714450836,0.018252444144661702,-0.5596185560739312,0.7999999997174216,-0.06097069801605924,-0.1171628920339765,0.0,0.0,-0.6,0.0,0.0011224746704101562,0.004965305328369141,0
0.38406896591186523,0.020177427679300308,0.0951974093914032,-0.3064846098423004,0.016919313485911202,-0.554268393382285,0.7999999983878051,-0.03607818916229727,-0.10854485351932572,0.0,0.0,-0.6,0.0,0.008500099182128906,0.012617349624633789,0
0.39800333976745605,0.020177427679300308,0.0951974093914032,-0.3064846098423004,0.016919313485911202,-0.554268393382285,0.7999999983878051,-0.03607818916229727,-0.10854485351932572,0.0,0.0,-0.6,0.0,0.0011162757873535156,0.004798412322998047,0
0.40589022636413574,0.019352292641997337,0.0907968282699585,-0.31548020243644714,0.015285729782813014,-0.5503863189197828,0.7999999548446856,-0.031444385614476954,-0.09788708246682717,0.0,0.0,-0.6,0.0,0.00835871696472168,0.01262521743774414,0
0.41998744010925293,0.019352292641997337,0.0907968282699585,-0.31548020243644714,0.015285729782813014,-0.5503863189197828,0.7999999548446856,-0.031444385614476954,-0.09788708246682717,0.0,0.0,-0.6,0.0,0.0010776519775390625,0.004939556121826172,0
0.42842984199523926,0.01829580031335354,0.0838814452290535,-0.32922670245170593,0.01312438997761,-0.5441344824154188,0.7999999348707965,-0.021795109893915147,-0.08368318238021769,0.0,0.0,-0.6,0.0,0.00866246223449707,0.012559890747070312,0
0.44246482849121094,0.01829580031335354,0.0838814452290535,-0.32922670245170593,0.01312438997761,-0.5441344824154188,0.7999999348707965,-0.021795109893915147,-0.08368318238021769,0.0,0.0,-0.6,0.0,0.0011446475982666016,0.005350828170776367,0
0.4501936435699463,0.01745288260281086,0.07907024025917053,-0.3384235203266144,0.01150300559218909,-0.5428770004121941,0.7999993609426684,-0.07580662446776851,-0.07271452821677263,0.0,0.0,-0.6,0.0,0.008733272552490234,0.012675046920776367,0
0.4642965793609619,0.01745288260281086,0.07907024025917053,-0.3384235203266144,0.01150300559218909,-0.5428770004121941,0.7999993609426684,-0.07580662446776851,-0.07271452821677263,0.0,0.0,-0.6,0.0,0.001127481460571289,0.0048868656158447266,0
0.4716150760650635,0.016565773636102676,0.07415172457695007,-0.34762099385261536,0.009904786131369163,-0.5408253218460947,0.7999999995230667,-0.04905109221695165,-0.06285092969556977,0.0,0.0,-0.6,0.0,0.009910345077514648,0.013711690902709961,0
0.4866979122161865,0.016565773636102676,0.07415172457695007,-0.34762099385261536,0.009904786131369163,-0.5408253218460947,0.7999999995230667,-0.04905109221695165,-0.06285092969556977,0.0,0.0,-0.6,0.0,0.0010766983032226562,0.00494837760925293,0
0.49412012100219727,0.015824338421225548,0.06919894367456436,-0.3568098545074463,0.00835293768451338,-0.5385956772134889,0.7706803884807368,-0.013172712158412016,-0.053127767004194235,0.0,0.0,-0.6,0.0,0.009542703628540039,0.013474464416503906,0
0.5096609592437744,0.015824338421225548,0.06919894367456436,-0.3568098545074463,0.00835293768451338,-0.5385956772134889,0.7706803884807368,-0.013172712158412016,-0.053127767004194235,0.0,0.0,-0.6,0.0,0.0011301040649414062,0.005112886428833008,0
0.5186336040496826,0.014778822660446167,0.0616803802549839,-0.37045881152153015,0.0061830327036305295,-0.5364808700396838,0.6069143273575358,0.012899096670602374,-0.03918574386851116,0.0,0.0,-0.6,0.0,0.006717205047607422,0.011043548583984375,0
0.5309848785400391,0.014778822660446167,0.0616803802549839,-0.37045881152153015,0.0061830327036305295,-0.5364808700396838,0.6069143273575358,0.012899096670602374,-0.03918574386851116,0.0,0.0,-0.6,0.0,0.0011146068572998047,0.00510406494140625,0
0.5385854244232178,0.014033016748726368,0.056795068085193634,-0.3792547881603241,0.004761484923383096,-0.5365854345418387,0.42722489737067204,0.025237999460146824,-0.030092086707387933,0.0,0.0,-0.6,0.0,0.006821870803833008,0.010802507400512695,0
0.5507655143737793,0.014033016748726368,0.056795068085193634,-0.3792547881603241,0.004761484923383096,-0.5365854345418387,0.42722489737067204,0.025237999460146824,-0.030092086707387933,0.0,0.0,-0.6,0.0,0.0010809898376464844,0.004992485046386719,0
0.5586392879486084,0.01327698864042759,0.05208151414990425,-0.3878207802772522,0.003326981917460928,-0.5356775524164085,0.25053589035068613,0.038334968813934854,-0.020922995258599135,0.0,0.0,-0.6,0.0,0.006539344787597656,0.010747194290161133,0
0.5707826614379883,0.01327698864042759,0.05208151414990425,-0.3878207802772522,0.003326981917460928,-0.5356775524164085,0.25053589035068613,0.038334968813934854,-0.020922995258599135,0.0,0.0,-0.6,0.0,0.0010936260223388672,0.004985332489013672,0
0.5786268711090088,0.012526553124189377,0.04756556451320648,-0.3960951566696167,0.0018662001692817231,-0.5350327142794995,0.07767654884287055,0.054001297328460186,-0.011581292039628,0.0,0.0,-0.6,0.0,0.006718873977661133,0.01100468635559082,0
0.5909409523010254,0.012526553124189377,0.04756556451320648,-0.3960951566696167,0.0018662001692817231,-0.5350327142794995,0.07767654884287055,0.054001297328460186,-0.011581292039628,0.0,0.0,-0.6,0.0,0.001069784164428711,0.004993915557861328,0
0.5990595817565918,0.011810876429080963,0.04321742057800293,-0.4041498303413391,0.00048400232833235727,-0.5340828811709993,-0.08241459291379408,0.057800598725966185,-0.002798905468169365,0.0,0.0,-0.6,0.0,0.006474971771240234,0.010550260543823242,0
0.6110155582427979,0.011810876429080963,0.04321742057800293,-0.4041498303413391,0.00048400232833235727,-0.5340828811709993,-0.08241459291379408,0.057800598725966185,-0.002798905468169365,0.0,0.0,-0.6,0.0,0.001132965087890625,0.0051021575927734375,0
0.6185131072998047,0.011094699613749981,0.039091676473617554,-0.4119790196418762,-0.0008904849613243213,-0.53449195182562,-0.2543542743823299,0.040485968244901686,0.0057646114733123175,0.0,0.0,-0.6,0.0,0.006292104721069336,0.010286092758178711,0
0.6303832530975342,0.011094699613749981,0.039091676473617554,-0.4119790196418762,-0.0008904849613243213,-0.53449195182562,-0.2543542743823299,0.040485968244901686,0.0057646114733123175,0.0,0.0,-0.6,0.0,0.0011107921600341797,0.004994392395019531,0
0.6391451358795166,0.010376421734690666,0.03527334704995155,-0.41941896080970764,-0.0021944724136417817,-0.5357138982433401,-0.443730388456713,0.03173028212914718,0.013856828706857031,0.0,0.0,-0.6,0.0,0.006649494171142578,0.01074671745300293,0
0.6511547565460205,0.010376421734690666,0.03527334704995155,-0.41941896080970764,-0.0021944724136417817,-0.5357138982433401,-0.443730388456713,0.03173028212914718,0.013856828706857031,0.0,0.0,-0.6,0.0,0.0010793209075927734,0.004933834075927734,0
0.6588060855865479,0.009651525877416134,0.031833577901124954,-0.4265497028827667,-0.0033270339741844246,-0.5357104288465576,-0.6513611766663485,0.024195813603740464,0.02079585115562518,0.0,0.0,-0.6,0.0,0.006586790084838867,0.01063990592956543,0
0.6709253787994385,0.009651525877416134,0.031833577901124954,-0.4265497028827667,-0.0033270339741844246,-0.5357104288465576,-0.6513611766663485,0.024195813603740464,0.02079585115562518,0.0,0.0,-0.6,0.0,0.0010986328125,0.004967451095581055,0
0.6783223152160645,0.00894913263618946,0.028840186074376106,-0.4333997666835785,-0.004612704291339159,-0.5358079335884516,-0.7999999997510642,0.03293767095512198,0.02838334388602451,0.0,0.0,-0.6,0.0,0.009739398956298828,0.013510465621948242,0
0.6932473182678223,0.00894913263618946,0.028840186074376106,-0.4333997666835785,-0.004612704291339159,-0.5358079335884516,-0.7999999997510642,0.03293767095512198,0.02838334388602451,0.0,0.0,-0.6,0.0,0.001085519790649414,0.004843235015869141,0
0.7012763023376465,0.008281843736767769,0.026318181306123734,-0.43993890285491943,-0.005704981522637669,-0.5345815047724186,-0.7999999957709537,0.04985572987582031,0.03427910018165101,0.0,0.0,-0.6,0.0,0.008348941802978516,0.012447834014892578,0
0.7150402069091797,0.008281843736767769,0.026318181306123734,-0.43993890285491943,-0.005704981522637669,-0.5345815047724186,-0.7999999957709537,0.04985572987582031,0.03427910018165101,0.0,0.0,-0.6,0.0,0.0010721683502197266,0.0048716068267822266,0
0.7223610877990723,0.007671757135540247,0.024003783240914345,-0.44643086194992065,-0.006496227547881521,-0.5319062084682821,-0.7999999219939151,0.0874424934377883,0.03947253343057691,0.0,0.0,-0.6,0.0,0.00970458984375,0.013542890548706055,0
0.7373576164245605,0.007671757135540247,0.024003783240914345,-0.44643086194992065,-0.006496227547881521,-0.5319062084682821,-0.7999999219939151,0.0874424934377883,0.03947253343057691,0.0,0.0,-0.6,0.0,0.0010666847229003906,0.004990100860595703,0
0.7449076175689697,0.0071070436388254166,0.02179899998009205,-0.4529448449611664,-0.006820823021286478,-0.5302066649696379,-0.7999999319354306,0.14119519549030457,0.042918118569326376,0.0,0.0,-0.6,0.0,0.007079124450683594,0.011044979095458984,0
0.7572369575500488,0.0071070436388254166,0.02179899998009205,-0.4529448449611664,-0.006820823021286478,-0.5302066649696379,-0.7999999319354306,0.14119519549030457,0.042918118569326376,0.0,0.0,-0.6,0.0,0.0010609626770019531,0.004865884780883789,0
0.7646114826202393,0.006600870285183191,0.019738562405109406,-0.4594437777996063,-0.006793930308352984,-0.5298729788639229,-0.7999999992215232,0.1451632309127416,0.042848430438929296,0.0,0.0,-0.6,0.0,0.00715327262878418,0.011057138442993164,0
0.7770121097564697,0.006600870285183191,0.019738562405109406,-0.4594437777996063,-0.006793930308352984,-0.5298729788639229,-0.7999999992215232,0.1451632309127416,0.042848430438929296,0.0,0.0,-0.6,0.0,0.0010809898376464844,0.004886627197265625,0
0.7844247817993164,0.006010183598846197,0.01789589785039425,-0.4657896161079407,-0.006792581020226185,-0.5292531986003284,-0.7999999888965095,0.11608319974059317,0.042400851460468174,0.0,0.0,-0.6,0.0,0.0069811344146728516,0.011023998260498047,0
0.797471284866333,0.0054703159257769585,0.016476038843393326,-0.4720562994480133,-0.006798170940302776,-0.5284807820819553,-0.7999999039799143,0.11546258689619184,0.042678007853029686,0.0,0.0,-0.6,0.0,0.007002115249633789,0.010751724243164062,0
0.8106844425201416,0.0054703159257769585,0.016476038843393326,-0.4720562994480133,-0.006798170940302776,-0.5284807820819553,-0.7999999039799143,0.11546258689619184,0.042678007853029686,0.0,0.0,-0.6,0.0,0.0010755062103271484,0.005093574523925781,0
0.8191084861755371,0.005008942913264036,0.015464630909264088,-0.4781094193458557,-0.006534282404081993,-0.5296687699553406,-0.7999973561480814,0.0996299416867169,0.04107540135231186,0.0,0.0,-0.6,0.0,0.0068471431732177734,0.010860204696655273,0
0.8312432765960693,0.005008942913264036,0.015464630909264088,-0.4781094193458557,-0.006534282404081993,-0.5296687699553406,-0.7999973561480814,0.0996299416867169,0.04107540135231186,0.0,0.0,-0.6,0.0,0.0011494159698486328,0.005053043365478516,0
0.8383796215057373,0.004499990493059158,0.0147428959608078,-0.48377567529678345,-0.006158766411471245,-0.531179121651924,-0.7999976497042033,0.06363573453600053,0.03875779624384866,0.0,0.0,-0.6,0.0,0.007953405380249023,0.011906147003173828,0
0.852121114730835,0.004499990493059158,0.0147428959608078,-0.48377567529678345,-0.006158766411471245,-0.531179121651924,-0.7999976497042033,0.06363573453600053,0.03875779624384866,0.0,0.0,-0.6,0.0,0.0010857582092285156,0.00489497184753418,0
0.8590998649597168,0.003969693090766668,0.01418648473918438,-0.48908674716949463,-0.005858057796991322,-0.531906186151463,-0.7309708380787242,0.05070090394610642,0.03701784166753295,0.0,0.0,-0.6,0.0,0.007055997848510742,0.01121830940246582,0
0.8722023963928223,0.003969693090766668,0.01418648473918438,-0.48908674716949463,-0.005858057796991322,-0.531906186151463,-0.7309708380787242,0.05070090394610642,0.03701784166753295,0.0,0.0,-0.6,0.0,0.001081228256225586,0.005053997039794922,0
0.879401445388794,0.0034471084363758564,0.013747048564255238,-0.4941489100456238,-0.005656269667491108,-0.5320077201291168,-0.6356505406011175,0.048007750665047796,0.0358390722776484,0.0,0.0,-0.6,0.0,0.005339622497558594,0.009346485137939453,0
0.8906071186065674,0.0034471084363758564,0.013747048564255238,-0.4941489100456238,-0.005656269667491108,-0.5320077201291168,-0.6356505406011175,0.048007750665047796,0.0358390722776484,0.0,0.0,-0.6,0.0,0.0011000633239746094,0.004775285720825195,0
0.8989295959472656,0.0029375196900218725,0.013445340096950531,-0.4990213215351105,-0.005572501146192254,-0.5332779670050304,-0.546067158540981,0.040162628669601616,0.03538306158627715,0.0,0.0,-0.6,0.0,0.005743265151977539,0.009780406951904297,0
0.91007399559021,0.0029375196900218725,0.013445340096950531,-0.4990213215351105,-0.005572501146192254,-0.5332779670050304,-0.546067158540981,0.040162628669601616,0.03538306158627715,0.0,0.0,-0.6,0.0,0.0011281967163085938,0.0050127506256103516,0
0.9185261726379395,0.0024449783377349377,0.013281689956784248,-0.5036081075668335,-0.00558030727248153,-0.5347007997786551,-0.43723269046722396,0.030812527684443338,0.035506958301514124,0.0,0.0,-0.6,0.0,0.005719900131225586,0.01010894775390625,0
0.9299325942993164,0.0024449783377349377,0.013281689956784248,-0.5036081075668335,-0.00558030727248153,-0.5347007997786551,-0.43723269046722396,0.030812527684443338,0.035506958301514124,0.0,0.0,-0.6,0.0,0.0011701583862304688,0.0049130916595458984,0
0.9384288787841797,0.0019824285991489887,0.01321923453360796,-0.5078563094139099,-0.0056174730799124955,-0.5368756246102614,-0.29678864747223543,0.015986525124926956,0.03580679891871118,0.0,0.0,-0.6,0.0,0.005612373352050781,0.009714365005493164,0
0.9496245384216309,0.0019824285991489887,0.01321923453360796,-0.5078563094139099,-0.0056174730799124955,-0.5368756246102614,-0.29678864747223543,0.015986525124926956,0.03580679891871118,0.0,0.0,-0.6,0.0,0.0011212825775146484,0.0051119327545166016,0
0.95845627784729,0.001557211740873754,0.013200358487665653,-0.5117753148078918,-0.0057049061109416795,-0.5395446800415624,-0.15082102145004814,0.008308962455770582,0.036417030627728185,0.0,0.0,-0.6,0.0,0.005552768707275391,0.009560823440551758,0
0.9694545269012451,0.001557211740873754,0.013200358487665653,-0.5117753148078918,-0.0057049061109416795,-0.5395446800415624,-0.15082102145004814,0.008308962455770582,0.036417030627728185,0.0,0.0,-0.6,0.0,0.0012035369873046875,0.00521540641784668,0
0.9784626960754395,0.0011565223103389144,0.013231690041720867,-0.5154203176498413,-0.005780034237742938,-0.5410560525895068,-0.01281808165158278,-0.0029820625473426497,0.03694798427773322,0.0,0.0,-0.6,0.0,0.00542140007019043,0.009440898895263672,0
0.989323616027832,0.0011565223103389144,0.013231690041720867,-0.5154203176498413,-0.005780034237742938,-0.5410560525895068,-0.01281808165158278,-0.0029820625473426497,0.03694798427773322,0.0,0.0,-0.6,0.0,0.0011518001556396484,0.005392313003540039,0
0.9989912509918213,0.0007810271345078945,0.013284541666507721,-0.518882155418396,-0.005837844241264568,-0.541510923815976,0.12250319045779154,-0.020112353419314496,0.03739060783170586,0.0,0.0,-0.6,0.0,0.0054132938385009766,0.009454011917114258,0
1.0099353790283203,0.0007810271345078945,0.013284541666507721,-0.518882155418396,-0.005837844241264568,-0.541510923815976,0.12250319045779154,-0.020112353419314496,0.03739060783170586,0.0,0.0,-0.6,0.0,0.0011363029479980469,0.0053670406341552734,0
1.0190057754516602,0.0004375687858555466,0.013302101753652096,-0.5222479104995728,-0.006021167571786718,-0.5412922210847321,0.24232223441770426,-0.02812541018139276,0.03862341364380535,0.0,0.0,-0.6,0.0,0.0054895877838134766,0.009504079818725586,0
1.0298199653625488,0.0004375687858555466,0.013302101753652096,-0.5222479104995728,-0.006021167571786718,-0.5412922210847321,0.24232223441770426,-0.02812541018139276,0.03862341364380535,0.0,0.0,-0.6,0.0,0.0011065006256103516,0.005083560943603516,0
1.0386099815368652,0.00012666582188103348,0.013293116353452206,-0.5254656672477722,-0.006160341267309898,-0.5415064848492878,0.33327227444330054,-0.028029826937498507,0.03954775413967158,0.0,0.0,-0.6,0.0,0.004547834396362305,0.008450508117675781,0
1.048435926437378,0.00012666582188103348,0.013293116353452206,-0.5254656672477722,-0.006160341267309898,-0.5415064848492878,0.33327227444330054,-0.028029826937498507,0.03954775413967158,0.0,0.0,-0.6,0.0,0.0010614395141601562,0.005090951919555664,0
1.0585196018218994,-0.00011638184514595196,0.013260329142212868,-0.528562605381012,-0.006192833908708483,-0.5419423757389142,0.39779086786354445,-0.0019427190945477684,0.039713351965315724,0.0,0.0,-0.6,0.0,0.004727602005004883,0.00902414321899414,0
1.0689926147460938,-0.00011638184514595196,0.013260329142212868,-0.528562605381012,-0.006192833908708483,-0.5419423757389142,0.39779086786354445,-0.0019427190945477684,0.039713351965315724,0.0,0.0,-0.6,0.0,0.001077413558959961,0.0051386356353759766,0
1.078470230102539,-0.0003004766476806253,0.013163017109036446,-0.5315369963645935,-0.006067574964960996,-0.5418107277321521,0.4508988197721913,0.006302386323877409,0.03894227377035095,0.0,0.0,-0.6,0.0,0.0044405460357666016,0.008443832397460938,0
1.0896568298339844,-0.00038694238173775375,0.013069459237158298,-0.5330232381820679,-0.0059083920622640985,-0.5415779097113449,0.4621193314045999,0.00879227092105704,0.03794794116398725,0.0,0.0,-0.6,0.0,0.004572868347167969,0.00845956802368164,0
1.1000337600708008,-0.00038694238173775375,0.013069459237158298,-0.5330232381820679,-0.0059083920622640985,-0.5415779097113449,0.4621193314045999,0.00879227092105704,0.03794794116398725,0.0,0.0,-0.6,0.0,0.0010981559753417969,0.005096435546875,0
1.1085364818572998,-0.0005793721647933125,0.012808216735720634,-0.5360217690467834,-0.005615349235971963,-0.5399256822998043,0.46924952448426505,-0.005974236888334032,0.03618191095983425,0.0,0.0,-0.6,0.0,0.004782438278198242,0.008826971054077148,0
1.1188085079193115,-0.0005793721647933125,0.012808216735720634,-0.5360217690467834,-0.005615349235971963,-0.5399256822998043,0.46924952448426505,-0.005974236888334032,0.03618191095983425,0.0,0.0,-0.6,0.0,0.0010924339294433594,0.005158901214599609,0
1.1287438869476318,-0.0008101040730252862,0.012418498285114765,-0.539137065410614,-0.005465643547848793,-0.5385558040861863,0.4628280171613268,-0.012223885711186443,0.03528957041491397,0.0,0.0,-0.6,0.0,0.004453897476196289,0.008559226989746094,0
1.13861083984375,-0.0008101040730252862,0.012418498285114765,-0.539137065410614,-0.005465643547848793,-0.5385558040861863,0.4628280171613268,-0.012223885711186443,0.03528957041491397,0.0,0.0,-0.6,0.0,0.0010802745819091797,0.004975318908691406,0
1.1484789848327637,-0.001046513207256794,0.011927341111004353,-0.5422465205192566,-0.00529793568233213,-0.5389478218356829,0.42497402493303765,0.00383619125783278,0.03418921652028898,0.0,0.0,-0.6,0.0,0.004630565643310547,0.008831262588500977,0
1.158743143081665,-0.001046513207256794,0.011927341111004353,-0.5422465205192566,-0.00529793568233213,-0.5389478218356829,0.42497402493303765,0.00383619125783278,0.03418921652028898,0.0,0.0,-0.6,0.0,0.001119375228881836,0.005147218704223633,0
1.168548345565796,-0.0013071325374767184,0.01139314565807581,-0.5451238751411438,-0.005270581663641722,-0.5409014879950342,0.3588199710043433,0.01293529941055927,0.03397653670400045,0.0,0.0,-0.6,0.0,0.00462794303894043,0.008892297744750977,0
1.1788465976715088,-0.0013071325374767184,0.01139314565807581,-0.5451238751411438,-0.005270581663641722,-0.5409014879950342,0.3588199710043433,0.01293529941055927,0.03397653670400045,0.0,0.0,-0.6,0.0,0.0011610984802246094,0.005282402038574219,0
1.1884417533874512,-0.0015921483281999826,0.010817321948707104,-0.5477251410484314,-0.005295212138598161,-0.5421783629318453,0.28646486918207253,0.030793785690897437,0.0340641449004769,0.0,0.0,-0.6,0.0,0.004495143890380859,0.008227348327636719,0
1.1999998092651367,-0.0017322628991678357,0.010504058562219143,-0.5489577054977417,-0.005293049238118165,-0.5428974864336903,0.25421997276972486,0.04459316251373128,0.03401794271719164,0.0,0.0,-0.6,0.0,0.0045719146728515625,0.008471965789794922,0
1.2097885608673096,-0.0017322628991678357,0.010504058562219143,-0.5489577054977417,-0.005293049238118165,-0.5428974864336903,0.25421997276972486,0.04459316251373128,0.03401794271719164,0.0,0.0,-0.6,0.0,0.0011248588562011719,0.004958152770996094,0
1.2184138298034668,-0.00199443893507123,0.009823334403336048,-0.5512920022010803,-0.005333032305937307,-0.5435311564531207,0.18721281388314895,0.054439747360266875,0.034239371264759434,0.0,0.0,-0.6,0.0,0.00463557243347168,0.00892019271850586,0
1.2287802696228027,-0.00199443893507123,0.009823334403336048,-0.5512920022010803,-0.005333032305937307,-0.5435311564531207,0.18721281388314895,0.054439747360266875,0.034239371264759434,0.0,0.0,-0.6,0.0,0.0011248588562011719,0.00494837760925293,0
1.238455057144165,-0.0022796052508056164,0.009046287275850773,-0.5534884929656982,-0.005402874368390433,-0.5440902849863258,0.133801993054749,0.0606518732658489,0.03466810635447851,0.0,0.0,-0.6,0.0,0.004616737365722656,0.00856471061706543,0
1.248368740081787,-0.0022796052508056164,0.009046287275850773,-0.5534884929656982,-0.005402874368390433,-0.5440902849863258,0.133801993054749,0.0606518732658489,0.03466810635447851,0.0,0.0,-0.6,0.0,0.001062154769897461,0.005069732666015625,0
1.258497714996338,-0.0025863246992230415,0.008163472637534142,-0.5555424094200134,-0.005490069581732666,-0.5445862337046667,0.09098829935191416,0.056839437911909554,0.035210244502070734,0.0,0.0,-0.6,0.0,0.004647731781005859,0.008746623992919922,0
1.2686846256256104,-0.0025863246992230415,0.008163472637534142,-0.5555424094200134,-0.005490069581732666,-0.5445862337046667,0.09098829935191416,0.056839437911909554,0.035210244502070734,0.0,0.0,-0.6,0.0,0.001119375228881836,0.005188941955566406,0
1.2784533500671387,-0.0029193509835749865,0.007175500504672527,-0.5574515461921692,-0.005512532392761338,-0.5454640639013033,0.051479721725030646,0.03713069153712228,0.03531764508017049,0.0,0.0,-0.6,0.0,0.00468897819519043,0.008722305297851562,0
1.288635492324829,-0.0029193509835749865,0.007175500504672527,-0.5574515461921692,-0.005512532392761338,-0.5454640639013033,0.051479721725030646,0.03713069153712228,0.03531764508017049,0.0,0.0,-0.6,0.0,0.0011200904846191406,0.00526738166809082,0
1.2989356517791748,-0.0033001769334077835,0.006088061258196831,-0.5591979622840881,-0.005545232327212689,-0.5464346606864529,0.02039746485425251,0.017017087573631223,0.03548112846034306,0.0,0.0,-0.6,0.0,0.004640817642211914,0.008763790130615234,0
1.3091676235198975,-0.0033001769334077835,0.006088061258196831,-0.5591979622840881,-0.005545232327212689,-0.5464346606864529,0.02039746485425251,0.017017087573631223,0.03548112846034306,0.0,0.0,-0.6,0.0,0.0011141300201416016,0.005181789398193359,0
1.3184545040130615,-0.003724828362464905,0.004967993590980768,-0.5607991218566895,-0.005393311626470153,-0.5476051672484868,-0.013397079656145325,-0.0062833539305202,0.03444586787285777,0.0,0.0,-0.6,0.0,0.00437617301940918,0.008150100708007812,0
1.329409122467041,-0.0039538112469017506,0.004410974215716124,-0.561523973941803,-0.0052499176059058045,-0.548432750616093,-0.031200117113336395,-0.013482150937983411,0.033500855814250205,0.0,0.0,-0.6,0.0,0.004361867904663086,0.008471250534057617,0
1.3391759395599365,-0.0039538112469017506,0.004410974215716124,-0.561523973941803,-0.0052499176059058045,-0.548432750616093,-0.031200117113336395,-0.013482150937983411,0.033500855814250205,0.0,0.0,-0.6,0.0,0.001077890396118164,0.004911184310913086,0
1.3486542701721191,-0.004412026144564152,0.0033174806740134954,-0.5628583431243896,-0.004874898418525226,-0.5486829299367998,-0.05971910024623492,-0.02153776847154428,0.031063927501574908,0.0,0.0,-0.6,0.0,0.0043566226959228516,0.008493900299072266,0
1.358548641204834,-0.004412026144564152,0.0033174806740134954,-0.5628583431243896,-0.004874898418525226,-0.5486829299367998,-0.05971910024623492,-0.02153776847154428,0.031063927501574908,0.0,0.0,-0.6,0.0,0.0010766983032226562,0.004968166351318359,0
1.3684334754943848,-0.004852270241826773,0.0022636998910456896,-0.5641279816627502,-0.004421570441461804,-0.5483202088518568,-0.087974672038704,-0.023300305553863813,0.028141512592310573,0.0,0.0,-0.6,0.0,0.004569530487060547,0.00854349136352539,0
1.3798999786376953,-0.005066671408712864,0.0017567600589245558,-0.5647621750831604,-0.004248140670219766,-0.547988755145362,-0.09975711451122429,-0.022963629845751152,0.02702593522944819,0.0,0.0,-0.6,0.0,0.0037393569946289062,0.007966995239257812,0
1.3890721797943115,-0.005066671408712864,0.0017567600589245558,-0.5647621750831604,-0.004248140670219766,-0.547988755145362,-0.09975711451122429,-0.022963629845751152,0.02702593522944819,0.0,0.0,-0.6,0.0,0.0011124610900878906,0.004904747009277344,0
1.39888596534729,-0.005457428749650717,0.0007876205490902066,-0.5660439729690552,-0.003949080839280918,-0.547289907587143,-0.12434152099030785,-0.006387347380840141,0.025133276056768402,0.0,0.0,-0.6,0.0,0.0049285888671875,0.009239435195922852,0
1.4095838069915771,-0.005457428749650717,0.0007876205490902066,-0.5660439729690552,-0.003949080839280918,-0.547289907587143,-0.12434152099030785,-0.006387347380840141,0.025133276056768402,0.0,0.0,-0.6,0.0,0.0012996196746826172,0.005547285079956055,0
1.4185490608215332,-0.005782362539321184,-8.558440458728e-05,-0.5673481822013855,-0.0035094994752564537,-0.5469206586545075,-0.15932804063449307,0.01261398735091955,0.022337513285869998,0.0,0.0,-0.6,0.0,0.004785299301147461,0.009140491485595703,0
1.4294161796569824,-0.005782362539321184,-8.558440458728e-05,-0.5673481822013855,-0.0035094994752564537,-0.5469206586545075,-0.15932804063449307,0.01261398735091955,0.022337513285869998,0.0,0.0,-0.6,0.0,0.001276254653930664,0.005932807922363281,0
1.438427448272705,-0.006075258832424879,-0.0008438931545242667,-0.5686134696006775,-0.0030301570722595563,-0.5471924045131021,-0.186133922545391,0.027683186764876522,0.019282224203601667,0.0,0.0,-0.6,0.0,0.004643440246582031,0.008443832397460938,0
1.4502513408660889,-0.006219793111085892,-0.0011843678075820208,-0.5692201256752014,-0.002771827454926117,-0.5475792158914461,-0.19410060303950324,0.03358499814771454,0.01763499568376205,0.0,0.0,-0.6,0.0,0.003299713134765625,0.007528543472290039,0
1.459038257598877,-0.006219793111085892,-0.0011843678075820208,-0.5692201256752014,-0.002771827454926117,-0.5475792158914461,-0.19410060303950324,0.03358499814771454,0.01763499568376205,0.0,0.0,-0.6,0.0,0.0010693073272705078,0.005005836486816406,0
1.469681978225708,-0.006498886737972498,-0.0018266912084072828,-0.5703580975532532,-0.0022971280307763405,-0.5481038812039876,-0.1945272987652445,0.053485086544300925,0.014632183773551992,0.0,0.0,-0.6,0.0,0.004676342010498047,0.008985280990600586,0
1.480306625366211,-0.006498886737972498,-0.0018266912084072828,-0.5703580975532532,-0.0022971280307763405,-0.5481038812039876,-0.1945272987652445,0.053485086544300925,0.014632183773551992,0.0,0.0,-0.6,0.0,0.0012354850769042969,0.005498409271240234,0
1.4884495735168457,-0.006774536333978176,-0.00242205080576241,-0.5714201927185059,-0.0019756033847195924,-0.5486896393836976,-0.1890491268028955,0.06558862351230088,0.0125937704952985,0.0,0.0,-0.6,0.0,0.004593372344970703,0.008549690246582031,0
1.498934268951416,-0.006774536333978176,-0.00242205080576241,-0.5714201927185059,-0.0019756033847195924,-0.5486896393836976,-0.1890491268028955,0.06558862351230088,0.0125937704952985,0.0,0.0,-0.6,0.0,0.0010700225830078125,0.004934787750244141,0
1.5085439682006836,-0.007045458536595106,-0.0029511256143450737,-0.5723815560340881,-0.0016102091861523312,-0.5489682652375779,-0.17423235297259226,0.08115114503327714,0.01028776599295247,0.0,0.0,-0.6,0.0,0.0046617984771728516,0.008959293365478516,0
1.5189268589019775,-0.007045458536595106,-0.0029511256143450737,-0.5723815560340881,-0.0016102091861523312,-0.5489682652375779,-0.17423235297259226,0.08115114503327714,0.01028776599295247,0.0,0.0,-0.6,0.0,0.001210927963256836,0.0054399967193603516,0
1.5286850929260254,-0.007312500849366188,-0.00342455692589283,-0.5732949376106262,-0.0012511241033710309,-0.5491617523995713,-0.15013379989659892,0.07643724604222406,0.00799258499332742,0.0,0.0,-0.6,0.0,0.0036842823028564453,0.007580280303955078,0
1.5395350456237793,-0.00746046332642436,-0.003637779038399458,-0.5737363696098328,-0.0010564508046786742,-0.5493160964400111,-0.1385207787539011,0.0742622262901941,0.006749842708201322,0.0,0.0,-0.6,0.0,0.003544330596923828,0.007444143295288086,0
1.5496656894683838,-0.007614886853843927,-0.003840924706310034,-0.5741537809371948,-0.0008791982845121117,-0.5493768859045293,-0.11980988396865845,0.06784269791637607,0.005617725755367038,0.0,0.0,-0.6,0.0,0.0035386085510253906,0.007548332214355469,0
1.5585687160491943,-0.007614886853843927,-0.003840924706310034,-0.5741537809371948,-0.0008791982845121117,-0.5493768859045293,-0.11980988396865845,0.06784269791637607,0.005617725755367038,0.0,0.0,-0.6,0.0,0.0010716915130615234,0.004954099655151367,0
1.568542718887329,-0.007944207638502121,-0.004220010247081518,-0.5749731659889221,-0.0005822908686144837,-0.5495110904299411,-0.07943504021777305,0.05524275615319337,0.003725096042686386,0.0,0.0,-0.6,0.0,0.0035076141357421875,0.007653474807739258,0
1.5800249576568604,-0.008100593462586403,-0.004395436029881239,-0.5753701329231262,-0.00043596433183108225,-0.5493872631513196,-0.05889459220551322,0.05180457769075865,0.002795556234019016,0.0,0.0,-0.6,0.0,0.004002571105957031,0.008600234985351562,0
1.5898089408874512,-0.008100593462586403,-0.004395436029881239,-0.5753701329231262,-0.00043596433183108225,-0.5493872631513196,-0.05889459220551322,0.05180457769075865,0.002795556234019016,0.0,0.0,-0.6,0.0,0.001149892807006836,0.00492095947265625,0
1.5989038944244385,-0.008391456678509712,-0.004712817724794149,-0.5761572122573853,-0.00022531783266793745,-0.5492749868637447,-0.02050560881633739,0.03216393092818165,0.0014476750858816504,0.0,0.0,-0.6,0.0,0.0037136077880859375,0.007886648178100586,0
1.6101608276367188,-0.008538938127458096,-0.004848179407417774,-0.5765421390533447,-0.00011056381347409931,-0.5492641805382993,-0.007483715527397732,0.013421141040477038,0.0007066063724739317,0.0,0.0,-0.6,0.0,0.004545688629150391,0.008725643157958984,0
1.6203529834747314,-0.008538938127458096,-0.004848179407417774,-0.5765421390533447,-0.00011056381347409931,-0.5492641805382993,-0.007483715527397732,0.013421141040477038,0.0007066063724739317,0.0,0.0,-0.6,0.0,0.0011065006256103516,0.005135297775268555,0
1.6286673545837402,-0.008864829316735268,-0.0050683896988630295,-0.5773318409919739,0.00015294768821426513,-0.5487182594801187,0.009114472019115815,-0.03589555758720903,-0.000992350904783916,0.0,0.0,-0.6,0.0,0.00458216667175293,0.008515119552612305,0
1.6385726928710938,-0.008864829316735268,-0.0050683896988630295,-0.5773318409919739,0.00015294768821426513,-0.5487182594801187,0.009114472019115815,-0.03589555758720903,-0.000992350904783916,0.0,0.0,-0.6,0.0,0.0011527538299560547,0.005067110061645508,0
1.6484544277191162,-0.00927155464887619,-0.005238750483840704,-0.5781265497207642,0.00041421285025551976,-0.5483123460182121,0.025007649218916492,-0.08834291117519197,-0.0026658763134076204,0.0,0.0,-0.6,0.0,0.004427909851074219,0.008264303207397461,0
1.659538745880127,-0.009488812647759914,-0.005302722100168467,-0.5785269141197205,0.0004813976973083435,-0.5481315236639008,0.025210082660807535,-0.10457226929572534,-0.003093824504469687,0.0,0.0,-0.6,0.0,0.004643678665161133,0.00909733772277832,0
1.670008659362793,-0.009488812647759914,-0.005302722100168467,-0.5785269141197205,0.0004813976973083435,-0.5481315236639008,0.025210082660807535,-0.10457226929572534,-0.003093824504469687,0.0,0.0,-0.6,0.0,0.001123666763305664,0.005049467086791992,0
1.678966999053955,-0.00992615707218647,-0.00538110313937068,-0.5793268084526062,0.0006103915123164018,-0.5483828027164339,0.017760452658260272,-0.13114892085530042,-0.003914042145766455,0.0,0.0,-0.6,0.0,0.00434422492980957,0.008550643920898438,0
1.6889042854309082,-0.00992615707218647,-0.00538110313937068,-0.5793268084526062,0.0006103915123164018,-0.5483828027164339,0.017760452658260272,-0.13114892085530042,-0.003914042145766455,0.0,0.0,-0.6,0.0,0.0010652542114257812,0.0049669742584228516,0
1.6988849639892578,-0.010338714346289635,-0.005434124264866114,-0.5800679922103882,0.0008023505380570751,-0.5483661692020048,0.01868809061424919,-0.14455239592321448,-0.005136875822353551,0.0,0.0,-0.6,0.0,0.004337310791015625,0.008270263671875,0
1.7086327075958252,-0.010338714346289635,-0.005434124264866114,-0.5800679922103882,0.0008023505380570751,-0.5483661692020048,0.01868809061424919,-0.14455239592321448,-0.005136875822353551,0.0,0.0,-0.6,0.0,0.0011212825775146484,0.005246639251708984,0
1.719219446182251,-0.010735240764915943,-0.005529655143618584,-0.5808048248291016,0.0010296427451432957,-0.5483061053911575,0.02753785145560601,-0.1613184478737558,-0.006586011726321717,0.0,0.0,-0.6,0.0,0.004686594009399414,0.008945941925048828,0
1.7294986248016357,-0.010735240764915943,-0.005529655143618584,-0.5808048248291016,0.0010296427451432957,-0.5483061053911575,0.02753785145560601,-0.1613184478737558,-0.006586011726321717,0.0,0.0,-0.6,0.0,0.0011005401611328125,0.004928112030029297,0
1.738952875137329,-0.011185240000486374,-0.005643295124173164,-0.5815083980560303,0.0014014333169772688,-0.5491820441867881,0.024416452024951924,-0.17482278175853067,-0.008961604402362267,0.0,0.0,-0.6,0.0,0.004478931427001953,0.008534669876098633,0
1.7488665580749512,-0.011185240000486374,-0.005643295124173164,-0.5815083980560303,0.0014014333169772688,-0.5491820441867881,0.024416452024951924,-0.17482278175853067,-0.008961604402362267,0.0,0.0,-0.6,0.0,0.0010955333709716797,0.004903316497802734,0
1.758528232574463,-0.01164501253515482,-0.005762241315096617,-0.5821244120597839,0.0017195475867748198,-0.5501310903248566,0.03655391459702461,-0.1706746803044633,-0.010991722088155438,0.0,0.0,-0.6,0.0,0.0049283504486083984,0.009341955184936523,0
1.769566535949707,-0.01164501253515482,-0.005762241315096617,-0.5821244120597839,0.0017195475867748198,-0.5501310903248566,0.03655391459702461,-0.1706746803044633,-0.010991722088155438,0.0,0.0,-0.6,0.0,0.0011188983917236328,0.0050487518310546875,0
1.7785897254943848,-0.012074457481503487,-0.005890388507395983,-0.582684338092804,0.0018816280609925797,-0.5503544361983367,0.057482996609980956,-0.16534042124848639,-0.012015726496003706,0.0,0.0,-0.6,0.0,0.004891395568847656,0.009192705154418945,0
1.7892522811889648,-0.012074457481503487,-0.005890388507395983,-0.582684338092804,0.0018816280609925797,-0.5503544361983367,0.057482996609980956,-0.16534042124848639,-0.012015726496003706,0.0,0.0,-0.6,0.0,0.0010807514190673828,0.0050771236419677734,0
1.798912763595581,-0.01246238686144352,-0.006027413997799158,-0.5832276344299316,0.0021139493377543487,-0.5501847491903827,0.0792623366812073,-0.15361460492187778,-0.013482741860649149,0.0,0.0,-0.6,0.0,0.004743814468383789,0.008792638778686523,0
1.8092942237854004,-0.01246238686144352,-0.006027413997799158,-0.5832276344299316,0.0021139493377543487,-0.5501847491903827,0.0792623366812073,-0.15361460492187778,-0.013482741860649149,0.0,0.0,-0.6,0.0,0.001065969467163086,0.005149126052856445,0
1.818497657775879,-0.012842485681176186,-0.006180197931826115,-0.5838145017623901,0.002233058768002991,-0.5494888458143067,0.0895483413761283,-0.137186164800302,-0.014227358554302528,0.0,0.0,-0.6,0.0,0.0046863555908203125,0.00881648063659668,0
1.828794002532959,-0.012842485681176186,-0.006180197931826115,-0.5838145017623901,0.002233058768002991,-0.5494888458143067,0.0895483413761283,-0.137186164800302,-0.014227358554302528,0.0,0.0,-0.6,0.0,0.0010733604431152344,0.0049610137939453125,0
1.83841872215271,-0.013214216567575932,-0.006326169241219759,-0.5844584703445435,0.002534587272573798,-0.5484050760503163,0.0935219589177657,-0.10428443023048935,-0.016139297483908036,0.0,0.0,-0.6,0.0,0.005112648010253906,0.009422779083251953,0
1.8495097160339355,-0.013214216567575932,-0.006326169241219759,-0.5844584703445435,0.002534587272573798,-0.5484050760503163,0.0935219589177657,-0.10428443023048935,-0.016139297483908036,0.0,0.0,-0.6,0.0,0.0011391639709472656,0.005113124847412109,0
1.8584990501403809,-0.01359135378152132,-0.0064564975909888744,-0.5851626396179199,0.0028695441466732364,-0.5474845724273132,0.09933753649526385,-0.07240309322407085,-0.018260449946064867,0.0,0.0,-0.6,0.0,0.004645347595214844,0.008738994598388672,0
1.8687126636505127,-0.01359135378152132,-0.0064564975909888744,-0.5851626396179199,0.0028695441466732364,-0.5474845724273132,0.09933753649526385,-0.07240309322407085,-0.018260449946064867,0.0,0.0,-0.6,0.0,0.0011546611785888672,0.005142688751220703,0
1.8784434795379639,-0.013954706490039825,-0.0066164699383080006,-0.5859306454658508,0.0029669453730694732,-0.5460494686580665,0.11197268034634214,-0.0352316556208126,-0.018846942293887652,0.0,0.0,-0.6,0.0,0.004633903503417969,0.008834600448608398,0
1.8886983394622803,-0.013954706490039825,-0.0066164699383080006,-0.5859306454658508,0.0029669453730694732,-0.5460494686580665,0.11197268034634214,-0.0352316556208126,-0.018846942293887652,0.0,0.0,-0.6,0.0,0.0011310577392578125,0.005150318145751953,0
1.8988754749298096,-0.014301043935120106,-0.006789887323975563,-0.586788535118103,0.0030294739007771148,-0.5455087080334893,0.0909409028052223,0.014797353389710593,-0.0192380925629362,0.0,0.0,-0.6,0.0,0.004456520080566406,0.00880742073059082,0
1.9090802669525146,-0.014301043935120106,-0.006789887323975563,-0.586788535118103,0.0030294739007771148,-0.5455087080334893,0.0909409028052223,0.014797353389710593,-0.0192380925629362,0.0,0.0,-0.6,0.0,0.0011372566223144531,0.0051348209381103516,0
1.9184980392456055,-0.014609446749091148,-0.0069700367748737335,-0.5876516699790955,0.002924908866555422,-0.5454255952194609,0.06736597163698362,0.07278645433934829,-0.01855619500962028,0.0,0.0,-0.6,0.0,0.004406452178955078,0.00853872299194336,0
1.9283926486968994,-0.014609446749091148,-0.0069700367748737335,-0.5876516699790955,0.002924908866555422,-0.5454255952194609,0.06736597163698362,0.07278645433934829,-0.01855619500962028,0.0,0.0,-0.6,0.0,0.0010831356048583984,0.004922628402709961,0
1.9384117126464844,-0.014913731254637241,-0.0071258689276874065,-0.5885105133056641,0.0027991080295468045,-0.5452339570646239,0.031232080216682015,0.12000206160620587,-0.017759029663692777,0.0,0.0,-0.6,0.0,0.004877805709838867,0.00991678237915039,0
1.9499573707580566,-0.014913731254637241,-0.0071258689276874065,-0.5885105133056641,0.0027991080295468045,-0.5452339570646239,0.031232080216682015,0.12000206160620587,-0.017759029663692777,0.0,0.0,-0.6,0.0,0.001291036605834961,0.0053637027740478516,0
1.9584758281707764,-0.015205799601972103,-0.007266900036484003,-0.5893222093582153,0.0026035119560647657,-0.5452335935118239,0.004728025105795778,0.160356016799303,-0.01649989527730224,0.0,0.0,-0.6,0.0,0.004568338394165039,0.008418798446655273,0
1.9696660041809082,-0.01534008514136076,-0.007333338260650635,-0.5897068381309509,0.0024763421934768104,-0.5452966635601254,-0.012463270415333837,0.17514958687835824,-0.01569291901760213,0.0,0.0,-0.6,0.0,0.003475189208984375,0.0076084136962890625,0
1.9786481857299805,-0.01534008514136076,-0.007333338260650635,-0.5897068381309509,0.0024763421934768104,-0.5452966635601254,-0.012463270415333837,0.17514958687835824,-0.01569291901760213,0.0,0.0,-0.6,0.0,0.001094818115234375,0.005068540573120117,0
1.9884891510009766,-0.01556748989969492,-0.007465000730007887,-0.5904183387756348,0.002232661565306997,-0.5455159163325228,-0.02987210674236635,0.19865195663409047,-0.014122695447357104,0.0,0.0,-0.6,0.0,0.004355907440185547,0.008479595184326172,0
2.0005125999450684,-0.0156500656157732,-0.007534320931881666,-0.5907486081123352,0.002123592632950025,-0.5452557995861697,-0.03631941653223697,0.20354947460297643,-0.013423378101459878,0.0,0.0,-0.6,0.0,0.003328084945678711,0.007262229919433594,0
2.009202480316162,-0.0156500656157732,-0.007534320931881666,-0.5907486081123352,0.002123592632950025,-0.5452557995861697,-0.03631941653223697,0.20354947460297643,-0.013423378101459878,0.0,0.0,-0.6,0.0,0.001069784164428711,0.004900932312011719,0
2.0184481143951416,-0.015791522338986397,-0.007673772983253002,-0.591411292552948,0.001977937311216581,-0.5450801324170925,-0.051212957757489797,0.19910709829679876,-0.012512303084329737,0.0,0.0,-0.6,0.0,0.0036461353302001953,0.007844686508178711,0
2.029852867126465,-0.01585451140999794,-0.007741848938167095,-0.591751217842102,0.001915842421217775,-0.5449462103100897,-0.05511519075437056,0.19188975884944937,-0.01212654499245332,0.0,0.0,-0.6,0.0,0.0035042762756347656,0.007480144500732422,0
2.038607597351074,-0.01585451140999794,-0.007741848938167095,-0.591751217842102,0.001915842421217775,-0.5449462103100897,-0.05511519075437056,0.19188975884944937,-0.01212654499245332,0.0,0.0,-0.6,0.0,0.0010716915130615234,0.00493311882019043,0
2.0484089851379395,-0.015970023348927498,-0.007867349311709404,-0.5924249291419983,0.0017394181209546492,-0.5447536643020107,-0.0664439457797186,0.16635242126427538,-0.011043886374050764,0.0,0.0,-0.6,0.0,0.0035610198974609375,0.0073735713958740234,0
2.05857515335083,-0.01602638140320778,-0.007914678193628788,-0.5927532315254211,0.0016623285958136352,-0.5447444947339473,-0.07639478610624387,0.1497885137501756,-0.010584665617814196,0.0,0.0,-0.6,0.0,0.003504037857055664,0.0074307918548583984,0
2.0693211555480957,-0.01608431711792946,-0.00795155018568039,-0.5930811166763306,0.0015881253418623543,-0.5446154125682079,-0.08028694462231656,0.1337264826569626,-0.010131821619155944,0.0,0.0,-0.6,0.0,0.003473520278930664,0.007428169250488281,0
2.0794336795806885,-0.016131825745105743,-0.00797230377793312,-0.5933933854103088,0.001518498098637736,-0.5448294513241853,-0.08859304023827583,0.12328131733374713,-0.009706274815180457,0.0,0.0,-0.6,0.0,0.0034646987915039062,0.007420063018798828,0
2.089524030685425,-0.016163591295480728,-0.007975144311785698,-0.5936858654022217,0.0014587133611938846,-0.545039006482341,-0.0903313165324328,0.11618749237723412,-0.00932878870774454,0.0,0.0,-0.6,0.0,0.0030841827392578125,0.00697636604309082,0
2.100090503692627,-0.016169903799891472,-0.007970334962010384,-0.5939636826515198,0.0014400207792388527,-0.5450167577865536,-0.09068654756654251,0.1074004365154314,-0.00921375533925375,0.0,0.0,-0.6,0.0,0.003271341323852539,0.00696253776550293,0
2.10898756980896,-0.016159851104021072,-0.007961459457874298,-0.5942337512969971,0.0014584324389490411,-0.5451502980383269,-0.0831009744149271,0.09960605797482659,-0.009325861833854487,0.0,0.0,-0.6,0.0,0.003465414047241211,0.007146120071411133,0
2.1191861629486084,-0.016131294891238213,-0.007953416556119919,-0.5944938659667969,0.0015247802928353056,-0.5451774882968732,-0.07699969750187509,0.09261541518225323,-0.009746784768632895,0.0,0.0,-0.6,0.0,0.003251791000366211,0.007033824920654297,0
2.1287755966186523,-0.016089675948023796,-0.007947276346385479,-0.5947446823120117,0.0016264238000414538,-0.5454198614735039,-0.06868043611240221,0.08108482752445194,-0.010396683648524375,0.0,0.0,-0.6,0.0,0.0034973621368408203,0.007208824157714844,0
2.1391243934631348,-0.016038648784160614,-0.007949170656502247,-0.5949797630310059,0.0017287768791548817,-0.5453821844005597,-0.05377470383369997,0.07148276354477011,-0.011045257804687316,0.0,0.0,-0.6,0.0,0.0031609535217285156,0.006920337677001953,0
2.148655891418457,-0.01598837785422802,-0.007961239665746689,-0.5952126383781433,0.0017867335422420577,-0.5453599826277686,-0.04068085515363704,0.05289858671834773,-0.01142152453602481,0.0,0.0,-0.6,0.0,0.003737211227416992,0.0076944828033447266,0
2.1596126556396484,-0.015949467197060585,-0.00798054039478302,-0.5954483151435852,0.0018697247191397344,-0.5451493535936968,-0.02633112622204784,0.03292781250012099,-0.0119584036301759,0.0,0.0,-0.6,0.0,0.0035369396209716797,0.007538557052612305,0
2.168428421020508,-0.015949467197060585,-0.00798054039478302,-0.5954483151435852,0.0018697247191397344,-0.5451493535936968,-0.02633112622204784,0.03292781250012099,-0.0119584036301759,0.0,0.0,-0.6,0.0,0.0010933876037597656,0.005162715911865234,0
2.178544044494629,-0.015887856483459473,-0.008011735044419765,-0.59585040807724,0.0019717533205212624,-0.5457368685804688,0.00022528195142854597,0.00661874685824606,-0.012614924917905137,0.0,0.0,-0.6,0.0,0.0045473575592041016,0.008633136749267578,0
2.1886324882507324,-0.015887856483459473,-0.008011735044419765,-0.59585040807724,0.0019717533205212624,-0.5457368685804688,0.00022528195142854597,0.00661874685824606,-0.012614924917905137,0.0,0.0,-0.6,0.0,0.0010676383972167969,0.00495457649230957,0
2.199126720428467,-0.01578466407954693,-0.00804133340716362,-0.5961500406265259,0.0018788033994518965,-0.546170379831942,0.03376332961407399,-0.007779738887277826,-0.012018675763112323,0.0,0.0,-0.6,0.0,0.0046825408935546875,0.008728265762329102,0
2.2094998359680176,-0.01578466407954693,-0.00804133340716362,-0.5961500406265259,0.0018788033994518965,-0.546170379831942,0.03376332961407399,-0.007779738887277826,-0.012018675763112323,0.0,0.0,-0.6,0.0,0.0012309551239013672,0.005208253860473633,0
2.218566417694092,-0.01565426029264927,-0.008026021532714367,-0.5963318347930908,0.0019236894236821568,-0.5472072438295023,0.06005849223356139,-0.028562611495659744,-0.012314016492446449,0.0,0.0,-0.6,0.0,0.0046498775482177734,0.008619308471679688,0
2.2287638187408447,-0.01565426029264927,-0.008026021532714367,-0.5963318347930908,0.0019236894236821568,-0.5472072438295023,0.06005849223356139,-0.028562611495659744,-0.012314016492446449,0.0,0.0,-0.6,0.0,0.0011386871337890625,0.005030632019042969,0
2.2385709285736084,-0.015511504374444485,-0.008002043701708317,-0.59633868932724,0.0020627434774738666,-0.5481421641830021,0.0888849843532387,-0.06247913448025045,-0.013220579313700813,0.0,0.0,-0.6,0.0,0.004380702972412109,0.008342504501342773,0
2.250575542449951,-0.015444942750036716,-0.008003484457731247,-0.5962923169136047,0.002131163169983965,-0.5484270406358048,0.1061597313169824,-0.07597280580728319,-0.013667635524490908,0.0,0.0,-0.6,0.0,0.004678010940551758,0.008953332901000977,0
2.2615575790405273,-0.01537418644875288,-0.008021366782486439,-0.5962343811988831,0.002183961317251037,-0.5484843486605062,0.12140857474653287,-0.09020205790493283,-0.014014762017343235,0.0,0.0,-0.6,0.0,0.0042972564697265625,0.00834202766418457,0
2.271239757537842,-0.01537418644875288,-0.008021366782486439,-0.5962343811988831,0.002183961317251037,-0.5484843486605062,0.12140857474653287,-0.09020205790493283,-0.014014762017343235,0.0,0.0,-0.6,0.0,0.00107574462890625,0.005235910415649414,0
2.2791574001312256,-0.015240994282066822,-0.008081945590674877,-0.5960841774940491,0.0022904739286602766,-0.5492942936300219,0.1357169827255222,-0.11395174021822195,-0.014709089265128896,0.0,0.0,-0.6,0.0,0.004541158676147461,0.008507728576660156,0
2.289055824279785,-0.015240994282066822,-0.008081945590674877,-0.5960841774940491,0.0022904739286602766,-0.5492942936300219,0.1357169827255222,-0.11395174021822195,-0.014709089265128896,0.0,0.0,-0.6,0.0,0.0010747909545898438,0.005053043365478516,0
2.2989346981048584,-0.015130373649299145,-0.008072164840996265,-0.5958661437034607,0.002205177861426227,-0.5500672734400126,0.12506309979338404,-0.1305304374929923,-0.014169961321616137,0.0,0.0,-0.6,0.0,0.004620552062988281,0.009088277816772461,0
2.30940842628479,-0.015130373649299145,-0.008072164840996265,-0.5958661437034607,0.002205177861426227,-0.5500672734400126,0.12506309979338404,-0.1305304374929923,-0.014169961321616137,0.0,0.0,-0.6,0.0,0.0010917186737060547,0.004916667938232422,0
2.3184709548950195,-0.015032702125608921,-0.00800970196723938,-0.5955870747566223,0.0020935321467134877,-0.5507144920191765,0.09998123551043912,-0.14630681819724786,-0.013460283060397569,0.0,0.0,-0.6,0.0,0.00469517707824707,0.008839845657348633,0
2.3287649154663086,-0.015032702125608921,-0.00800970196723938,-0.5955870747566223,0.0020935321467134877,-0.5507144920191765,0.09998123551043912,-0.14630681819724786,-0.013460283060397569,0.0,0.0,-0.6,0.0,0.0011434555053710938,0.005275726318359375,0
2.338472366333008,-0.014952010475099087,-0.007888575084507465,-0.5952881574630737,0.001985445784432536,-0.5509374587130869,0.05902357118625522,-0.15125846465826273,-0.012773332747460318,0.0,0.0,-0.6,0.0,0.004765033721923828,0.008755207061767578,0
2.3487069606781006,-0.014952010475099087,-0.007888575084507465,-0.5952881574630737,0.001985445784432536,-0.5509374587130869,0.05902357118625522,-0.15125846465826273,-0.012773332747460318,0.0,0.0,-0.6,0.0,0.0010590553283691406,0.0051767826080322266,0
2.3584835529327393,-0.014913679100573063,-0.007720899302512407,-0.5950047373771667,0.0018495402481763454,-0.5506843870547051,0.015487262722608208,-0.14918127578608756,-0.011913717647813822,0.0,0.0,-0.6,0.0,0.004519939422607422,0.00853586196899414,0
2.3683860301971436,-0.014913679100573063,-0.007720899302512407,-0.5950047373771667,0.0018495402481763454,-0.5506843870547051,0.015487262722608208,-0.14918127578608756,-0.011913717647813822,0.0,0.0,-0.6,0.0,0.0011701583862304688,0.005132436752319336,0
2.378448009490967,-0.014921034686267376,-0.007549394853413105,-0.594754695892334,0.0016936097150459586,-0.5509248801738188,-0.024226613366684083,-0.15468979931462742,-0.010936227493950252,0.0,0.0,-0.6,0.0,0.004467964172363281,0.008529424667358398,0
2.388451337814331,-0.014921034686267376,-0.007549394853413105,-0.594754695892334,0.0016936097150459586,-0.5509248801738188,-0.024226613366684083,-0.15468979931462742,-0.010936227493950252,0.0,0.0,-0.6,0.0,0.0011279582977294922,0.005101680755615234,0
2.3989109992980957,-0.014975597150623798,-0.007353835739195347,-0.594430685043335,0.0015562621913541973,-0.5520263447751613,-0.07293241690814127,-0.15903478111866284,-0.01008832154689581,0.0,0.0,-0.6,0.0,0.004724740982055664,0.008983135223388672,0
2.40950083732605,-0.014975597150623798,-0.007353835739195347,-0.594430685043335,0.0015562621913541973,-0.5520263447751613,-0.07293241690814127,-0.15903478111866284,-0.01008832154689581,0.0,0.0,-0.6,0.0,0.0011289119720458984,0.005121469497680664,0
2.4185009002685547,-0.015016716904938221,-0.0071554784663021564,-0.5940201282501221,0.0014104492771540326,-0.5520065600155529,-0.10040642687180085,-0.13997011772927992,-0.009177101685345372,0.0,0.0,-0.6,0.0,0.004375934600830078,0.008434534072875977,0
2.429657220840454,-0.015014391392469406,-0.007060457486659288,-0.5938489437103271,0.001310828881320143,-0.5514677341278674,-0.1060651436567399,-0.13400552534629176,-0.00855063847017618,0.0,0.0,-0.6,0.0,0.003987789154052734,0.007976770401000977,0
2.4398350715637207,-0.015018933452665806,-0.006985012907534838,-0.593709409236908,0.0012352262655426442,-0.5509935339187696,-0.10518555059439365,-0.1343854855353273,-0.008079293140253777,0.0,0.0,-0.6,0.0,0.0044252872467041016,0.008368968963623047,0
2.4494519233703613,-0.015018933452665806,-0.006985012907534838,-0.593709409236908,0.0012352262655426442,-0.5509935339187696,-0.10518555059439365,-0.1343854855353273,-0.008079293140253777,0.0,0.0,-0.6,0.0,0.0010902881622314453,0.004708051681518555,0
2.4584741592407227,-0.015060565434396267,-0.006847217213362455,-0.593475878238678,0.0011272503361848137,-0.5508935282034734,-0.09786880214037867,-0.1242186829395452,-0.007392701063363202,0.0,0.0,-0.6,0.0,0.00469207763671875,0.008682966232299805,0
2.468702554702759,-0.015060565434396267,-0.006847217213362455,-0.593475878238678,0.0011272503361848137,-0.5508935282034734,-0.09786880214037867,-0.1242186829395452,-0.007392701063363202,0.0,0.0,-0.6,0.0,0.0011053085327148438,0.0052416324615478516,0
2.478466749191284,-0.015121583826839924,-0.0067156641744077206,-0.5932544469833374,0.001015590431561781,-0.5509161575813991,-0.09854606688833573,-0.08718442482150938,-0.006653096942119688,0.0,0.0,-0.6,0.0,0.0049169063568115234,0.00903630256652832,0
2.4891068935394287,-0.015121583826839924,-0.0067156641744077206,-0.5932544469833374,0.001015590431561781,-0.5509161575813991,-0.09854606688833573,-0.08718442482150938,-0.006653096942119688,0.0,0.0,-0.6,0.0,0.0011639595031738281,0.005100250244140625,0
