time,x,y,z,yaw,throttle,roll_rate,pitch_rate,yaw_rate,x_ref,y_ref,z_ref,yaw_ref,pred_time,nr_time,ctrl_callback_time,metadata
5.4836273193359375e-06,-0.12275033444166183,-0.07334117591381073,-0.24110014736652374,-0.014943366552202485,-0.5323214106955033,0.029859881868187554,-0.06219879566995828,0.0056037624570764045,0.0,0.0,-0.6,0.0,0.0014629364013671875,0.0023767948150634766,0.005163908004760742,Hardware
0.011699914932250977,-0.12276867777109146,-0.07337572425603867,-0.24111676216125488,-0.014943571398364795,-0.5411085734989786,0.04938725306494893,-0.1047355317557136,0.009526472994339761,0.0,0.0,-0.6,0.0,0.0012404918670654297,0.002227783203125,0.0048983097076416016,Nonlinear
0.020472049713134766,-0.12280254065990448,-0.07344630360603333,-0.24113814532756805,-0.014944819633734683,-0.5480915690153596,0.06187718644255669,-0.13344111455908456,0.012272838458688273,0.0,0.0,-0.6,0.0,0.0012116432189941406,0.0021162033081054688,0.004492282867431641,2x Speed
0.029880762100219727,-0.12282734364271164,-0.07347844541072845,-0.24115614593029022,-0.014926464409355095,-0.5536626661850941,0.06913366150074739,-0.15184364453784027,0.014188411074589697,0.0,0.0,-0.6,0.0,0.0013422966003417969,0.002524137496948242,0.005116462707519531,0OrderHold
0.039917707443237305,-0.12282734364271164,-0.07347844541072845,-0.24115614593029022,-0.014926464409355095,-0.5581082159363621,0.07313774388519607,-0.16309942092631605,0.01552931190572048,0.0,0.0,-0.6,0.0,0.0016748905181884766,0.0028204917907714844,0.005560398101806641,QuatYawError
0.050421953201293945,-0.12288078665733337,-0.07353390008211136,-0.24120263755321503,-0.01499929796766668,-0.561671429989848,0.07512211043279386,-0.16939322532970483,0.01649525507187963,0.0,0.0,-0.6,0.0,0.001994609832763672,0.002973318099975586,0.005956411361694336,NoPyJoules
0.06042361259460449,-0.12289731204509735,-0.0735657662153244,-0.24120967090129852,-0.015141927917894487,-0.5644513734351092,0.07623044892054419,-0.17261275016612954,0.01722490151952655,0.0,0.0,-0.6,0.0,0.0013632774353027344,0.0022377967834472656,0.00503849983215332,0
0.07059383392333984,-0.12292466312646866,-0.07360368967056274,-0.2412353903055191,-0.015162616429081137,-0.5666502577200981,0.07707672032243335,-0.17469787921982208,0.01774341222457417,0.0,0.0,-0.6,0.0,0.0012598037719726562,0.0022754669189453125,0.005324363708496094,0
0.07993817329406738,-0.12297026067972183,-0.07363203912973404,-0.24127249419689178,-0.015018610868983165,-0.5683795280604129,0.07600308674045812,-0.17626586226251217,0.018052367633070696,0.0,0.0,-0.6,0.0,0.0019147396087646484,0.0030465126037597656,0.006505489349365234,0
0.0907125473022461,-0.12302243709564209,-0.07367164641618729,-0.24132414162158966,-0.014919602457596253,-0.5697439953703097,0.07688623246019917,-0.17675707852626465,0.018231508264748137,0.0,0.0,-0.6,0.0,0.0018801689147949219,0.003236055374145508,0.006200075149536133,0
0.10096955299377441,-0.12308496981859207,-0.07373906672000885,-0.24141013622283936,-0.014534030212392583,-0.5708092482307731,0.07892677486929878,-0.17602118924489693,0.018212317114970903,0.0,0.0,-0.6,0.0,0.0016167163848876953,0.0025238990783691406,0.004981517791748047,0
0.11213493347167969,-0.12310817092657089,-0.07381266355514526,-0.24148668348789215,-0.014266080289506735,-0.5716379423979274,0.07874086235696384,-0.174523855332587,0.018098402089044698,0.0,0.0,-0.6,0.0,0.0018143653869628906,0.0028057098388671875,0.006273984909057617,0
0.12042474746704102,-0.12310817092657089,-0.07381266355514526,-0.24148668348789215,-0.014266080289506735,-0.5722922390693205,0.07845041778294194,-0.17323042728503552,0.01801866157089629,0.0,0.0,-0.6,0.0,0.0015277862548828125,0.0027735233306884766,0.005927085876464844,0
0.13140249252319336,-0.12308166176080704,-0.0739835724234581,-0.24162867665290833,-0.014129901418211273,-0.5727953540942977,0.08247528128825948,-0.16748708724764608,0.01791177613145667,0.0,0.0,-0.6,0.0,0.0016331672668457031,0.002594470977783203,0.005684614181518555,0
0.140946626663208,-0.12303098291158676,-0.0740935206413269,-0.24171988666057587,-0.01417809254159056,-0.5731746757379609,0.08675701770707041,-0.16186774096891077,0.01785502799511611,0.0,0.0,-0.6,0.0,0.0017554759979248047,0.0030112266540527344,0.0064792633056640625,0
0.15107393264770508,-0.1229524239897728,-0.07420709729194641,-0.2418261617422104,-0.014195081879420906,-0.573393563302699,0.08771684709155927,-0.1573235974583584,0.017821675301364137,0.0,0.0,-0.6,0.0,0.001988649368286133,0.00301361083984375,0.006308794021606445,0
0.16109681129455566,-0.12284916639328003,-0.07429894804954529,-0.2419869303703308,-0.014010158959542073,-0.5734612809272762,0.08652144138884076,-0.15306940332824467,0.017728982320783206,0.0,0.0,-0.6,0.0,0.001556396484375,0.002517223358154297,0.005484819412231445,0
0.17047858238220215,-0.12277136743068695,-0.07433627545833588,-0.24212561547756195,-0.013727173346661134,-0.5735188612629152,0.08205652422899969,-0.14974954283590464,0.01755797762954623,0.0,0.0,-0.6,0.0,0.0014615058898925781,0.0025925636291503906,0.006350517272949219,0
0.17998600006103516,-0.12263312190771103,-0.0744200274348259,-0.24235385656356812,-0.013230931310857461,-0.5734296964073248,0.07961138744663594,-0.14505863219063134,0.017252183582254083,0.0,0.0,-0.6,0.0,0.0010547637939453125,0.0025947093963623047,0.005320072174072266,0
0.19014525413513184,-0.12246926873922348,-0.0745031088590622,-0.24263614416122437,-0.012583759881023346,-0.5732454256949711,0.07880431331317192,-0.13969907627866227,0.01679543846296187,0.0,0.0,-0.6,0.0,0.001832723617553711,0.003123044967651367,0.006456851959228516,0
0.2009127140045166,-0.12228390574455261,-0.07459535449743271,-0.24297456443309784,-0.011810928997765311,-0.5730315223305447,0.07885330924206461,-0.1329956392147305,0.016185905298234982,0.0,0.0,-0.6,0.0,0.0014805793762207031,0.0029289722442626953,0.00717473030090332,0
0.2115039825439453,-0.12196918576955795,-0.07481058686971664,-0.24371252954006195,-0.009785929969715773,-0.5726213035039331,0.07651496572376608,-0.12528336851275837,0.014999857447407545,0.0,0.0,-0.6,0.0,0.0016047954559326172,0.0024466514587402344,0.005605936050415039,0
0.2204740047454834,-0.12196918576955795,-0.07481058686971664,-0.24371252954006195,-0.009785929969715773,-0.5722797575527202,0.07498453639024953,-0.12011835707167084,0.014169623951828986,0.0,0.0,-0.6,0.0,0.0017702579498291016,0.0028166770935058594,0.006471157073974609,0
0.23042869567871094,-0.12174904346466064,-0.0749410092830658,-0.24425959587097168,-0.008684444125855019,-0.5718744634350125,0.07216141275868054,-0.11267152974922721,0.013175403313475623,0.0,0.0,-0.6,0.0,0.0019214153289794922,0.0031561851501464844,0.0066204071044921875,0
0.2411508560180664,-0.12141422182321548,-0.07516104727983475,-0.245075985789299,-0.006761440451648697,-0.5713782081443693,0.07592476533744413,-0.09678185323465327,0.01175832248880077,0.0,0.0,-0.6,0.0,0.0015130043029785156,0.0027494430541992188,0.006992816925048828,0
0.25144219398498535,-0.12122034281492233,-0.07530477643013,-0.24584296345710754,-0.005303482351614482,-0.5707755154074913,0.07787599129268617,-0.08205989957958752,0.010219631624016174,0.0,0.0,-0.6,0.0,0.00449371337890625,0.005670309066772461,0.008922576904296875,0
0.26224303245544434,-0.12122034281492233,-0.07530477643013,-0.24584296345710754,-0.005303482351614482,-0.5702745559043619,0.07931937507554801,-0.07215118517364856,0.009142548018666662,0.0,0.0,-0.6,0.0,0.0014712810516357422,0.0025217533111572266,0.0055882930755615234,0
0.2705349922180176,-0.12082915753126144,-0.07566343247890472,-0.24770183861255646,-0.0017624359413095953,-0.5694594997217773,0.07944495420055125,-0.05320414786306163,0.007060697091057134,0.0,0.0,-0.6,0.0,0.001926422119140625,0.003057718276977539,0.006098508834838867,0
0.28026580810546875,-0.12061328440904617,-0.07589175552129745,-0.24878700077533722,0.00011100960724900322,-0.5685377368016052,0.07856577559179136,-0.037239005662379546,0.00490085936102167,0.0,0.0,-0.6,0.0,0.0009748935699462891,0.001787424087524414,0.0046579837799072266,0
0.29021620750427246,-0.12039010971784592,-0.07611820101737976,-0.24997207522392273,0.0017265097390061455,-0.5675960366160909,0.07568547600121073,-0.02258176238900733,0.0027831604005876857,0.0,0.0,-0.6,0.0,0.0017495155334472656,0.002797365188598633,0.0063970088958740234,0
0.30058956146240234,-0.12016009539365768,-0.07636184245347977,-0.25129368901252747,0.00378987375967686,-0.5665208635345977,0.07161818889476415,-0.010835473876176421,0.0005270096205326116,0.0,0.0,-0.6,0.0,0.002191305160522461,0.0033829212188720703,0.0069925785064697266,0
0.31226396560668945,-0.11993459612131119,-0.07660675793886185,-0.2527373731136322,0.005888894659737544,-0.5654224433320669,0.06531100701360314,0.00040527912147744587,-0.00183942876302895,0.0,0.0,-0.6,0.0,0.0018773078918457031,0.0032958984375,0.006907224655151367,0
0.3210759162902832,-0.11993459612131119,-0.07660675793886185,-0.2527373731136322,0.005888894659737544,-0.5645291504061657,0.06123758908267803,0.00777067351825426,-0.003495935631521804,0.0,0.0,-0.6,0.0,0.0012598037719726562,0.0022270679473876953,0.0057735443115234375,0
0.3305354118347168,-0.11949548870325089,-0.07709315419197083,-0.25601890683174133,0.010012351046498459,-0.5632495362959539,0.052982879856303775,0.015570359353886447,-0.006201786584502413,0.0,0.0,-0.6,0.0,0.0017275810241699219,0.0029785633087158203,0.006734609603881836,0
0.3404068946838379,-0.11926626414060593,-0.0773453637957573,-0.25782641768455505,0.01222506237001918,-0.562036558586826,0.045712449506835104,0.023169591536675964,-0.00892564899790911,0.0,0.0,-0.6,0.0,0.002014636993408203,0.0035369396209716797,0.0067903995513916016,0
0.3512599468231201,-0.11902544647455215,-0.0776410698890686,-0.25974583625793457,0.014336383429412531,-0.5608150993070308,0.04097513313170536,0.029574795682918317,-0.011624098084566012,0.0,0.0,-0.6,0.0,0.0014832019805908203,0.0025916099548339844,0.005876302719116211,0
0.3609192371368408,-0.11879018694162369,-0.07794733345508575,-0.26178187131881714,0.01682802945713896,-0.5596624504004547,0.03825327066332641,0.03533140507331486,-0.014447379705622944,0.0,0.0,-0.6,0.0,0.002034425735473633,0.003077268600463867,0.006986141204833984,0
0.3713517189025879,-0.11854691058397293,-0.07825455069541931,-0.263924241065979,0.019419962586532787,-0.5584832323630261,0.03665459364323123,0.04017603289907955,-0.017395651763886105,0.0,0.0,-0.6,0.0,0.001804351806640625,0.0027413368225097656,0.0055370330810546875,0
0.3803701400756836,-0.11826630681753159,-0.07855477184057236,-0.26617228984832764,0.02158280277260449,-0.5573335225496491,0.03720794163948002,0.044837126366536396,-0.020270507274447822,0.0,0.0,-0.6,0.0,0.0010266304016113281,0.0018277168273925781,0.004479169845581055,0
0.39078760147094727,-0.1179644912481308,-0.07886195927858353,-0.26850348711013794,0.024229254170969647,-0.556183253726776,0.03933712422142883,0.049568732613793416,-0.023275325406228,0.0,0.0,-0.6,0.0,0.001934051513671875,0.003036022186279297,0.0070569515228271484,0
0.40163707733154297,-0.11765071004629135,-0.0791642814874649,-0.27092671394348145,0.027020322598640133,-0.5550524313834506,0.042574542271862095,0.05478317503011598,-0.02642534875884923,0.0,0.0,-0.6,0.0,0.0021266937255859375,0.003047943115234375,0.006736278533935547,0
0.4108614921569824,-0.11765071004629135,-0.0791642814874649,-0.27092671394348145,0.027020322598640133,-0.5541514727560571,0.04505505714004034,0.058037316581716625,-0.02863036510568613,0.0,0.0,-0.6,0.0,0.002022981643676758,0.003358602523803711,0.006402492523193359,0
0.41995835304260254,-0.11693098396062851,-0.07976283133029938,-0.2760210931301117,0.03197456686248977,-0.5530105948801967,0.04858161972939219,0.06590338894383642,-0.032031718147413506,0.0,0.0,-0.6,0.0,0.0020360946655273438,0.0031931400299072266,0.006379604339599609,0
0.4307124614715576,-0.11655797064304352,-0.08005504310131073,-0.27870845794677734,0.0348203163895546,-0.5519067907347589,0.05174593838285163,0.0739069533529955,-0.035479821349270475,0.0,0.0,-0.6,0.0,0.016638755798339844,0.01805424690246582,0.021761655807495117,0
0.45447778701782227,-0.11655797064304352,-0.08005504310131073,-0.27870845794677734,0.0348203163895546,-0.5510257558373929,0.05419390183582549,0.0790906386230461,-0.03789349359057094,0.0,0.0,-0.6,0.0,0.007293224334716797,0.008420944213867188,0.012337923049926758,0
0.4698796272277832,-0.11486905068159103,-0.08137106895446777,-0.2907417416572571,0.046462255429703274,-0.5496785017227832,0.05176371305144163,0.08297036656460315,-0.04394879129953495,0.0,0.0,-0.6,0.0,0.0015773773193359375,0.0027081966400146484,0.005881786346435547,0
0.4804677963256836,-0.11452597379684448,-0.08170882612466812,-0.2937138080596924,0.048976224545901774,-0.5484849891717999,0.052931737234662796,0.08633362957561938,-0.04913023811438245,0.0,0.0,-0.6,0.0,0.0011856555938720703,0.0020143985748291016,0.005326032638549805,0
0.4909496307373047,-0.11413343995809555,-0.08205598592758179,-0.29672476649284363,0.05156433432992607,-0.547380427466032,0.05716786931840602,0.0898149400889656,-0.05372779205378539,0.0,0.0,-0.6,0.0,0.0018551349639892578,0.003140687942504883,0.00664067268371582,0
0.5008225440979004,-0.11371038854122162,-0.08242053538560867,-0.29975953698158264,0.05404329852239487,-0.546335572674053,0.061239008516224304,0.09218700865979976,-0.0578756913835473,0.0,0.0,-0.6,0.0,0.0019273757934570312,0.002915620803833008,0.006373405456542969,0
0.5125875473022461,-0.11335846781730652,-0.08279453963041306,-0.3020493686199188,0.05709228972446476,-0.5453951665698752,0.06489172202406936,0.09995653799799675,-0.061922592615156855,0.0,0.0,-0.6,0.0,0.0015535354614257812,0.0026602745056152344,0.006404876708984375,0
0.5206155776977539,-0.11335846781730652,-0.08279453963041306,-0.3020493686199188,0.05709228972446476,-0.5446460669655367,0.06765299681505006,0.10505226397392699,-0.06475542347728125,0.0,0.0,-0.6,0.0,0.0018534660339355469,0.002864360809326172,0.006175518035888672,0
0.5311882495880127,-0.11240625381469727,-0.08353390544652939,-0.30824485421180725,0.06209076837392427,-0.543777025019373,0.06779478213645918,0.10826013594682013,-0.06861283457431797,0.0,0.0,-0.6,0.0,0.002074718475341797,0.0038907527923583984,0.0074427127838134766,0
0.5403563976287842,-0.11240625381469727,-0.08353390544652939,-0.30824485421180725,0.06209076837392427,-0.5430830639690254,0.06816088677741315,0.11026119460020668,-0.07131302234224382,0.0,0.0,-0.6,0.0,0.0020797252655029297,0.0033006668090820312,0.006659507751464844,0
0.5499701499938965,-0.11129187047481537,-0.08426501601934433,-0.31538334488868713,0.06881601891610067,-0.5423355431948351,0.060494603518996354,0.11393262829451278,-0.07572512273310784,0.0,0.0,-0.6,0.0,0.001321554183959961,0.0024483203887939453,0.0055315494537353516,0
0.560481071472168,-0.11075260490179062,-0.08462858200073242,-0.31856095790863037,0.07137573030607987,-0.5416015095811886,0.057109333471856094,0.11842955951079473,-0.0797734847779549,0.0,0.0,-0.6,0.0,0.0015511512756347656,0.0025756359100341797,0.006180286407470703,0
0.5702276229858398,-0.11017728596925735,-0.08499690145254135,-0.3217467963695526,0.07395373617759159,-0.5409330731838665,0.05517993483603856,0.12292847615054067,-0.08357409041116147,0.0,0.0,-0.6,0.0,0.0015537738800048828,0.002545595169067383,0.005589962005615234,0
0.5806517601013184,-0.10969813168048859,-0.08535770326852798,-0.32411545515060425,0.07691762541931846,-0.5403189705758233,0.05455287605058839,0.13122054369946173,-0.08734597282006022,0.0,0.0,-0.6,0.0,0.0017452239990234375,0.0029175281524658203,0.0065572261810302734,0
0.5910658836364746,-0.10910879820585251,-0.08574797958135605,-0.3272906243801117,0.07942275177002768,-0.5398100424380166,0.0510846488282342,0.1351699467399523,-0.09092571288779895,0.0,0.0,-0.6,0.0,0.0018477439880371094,0.0029065608978271484,0.0066263675689697266,0
0.6013336181640625,-0.10851330310106277,-0.08613723516464233,-0.3304829001426697,0.08192001524437241,-0.5392968086224151,0.04711667771864122,0.13635759301137174,-0.09436800473810145,0.0,0.0,-0.6,0.0,0.0017631053924560547,0.0026595592498779297,0.006026029586791992,0
0.6115772724151611,-0.1079140231013298,-0.08651724457740784,-0.333686888217926,0.0844107940687044,-0.5387770897421108,0.04193064261543695,0.13564678455726087,-0.09771165109243182,0.0,0.0,-0.6,0.0,0.0015823841094970703,0.0029273033142089844,0.006586790084838867,0
0.6217894554138184,-0.10684309154748917,-0.08713213354349136,-0.33928191661834717,0.08973698961798163,-0.5382868411534545,0.03155549936489356,0.1329062962789528,-0.10204952687144857,0.0,0.0,-0.6,0.0,0.0016460418701171875,0.0028791427612304688,0.00609278678894043,0
0.6302917003631592,-0.10684309154748917,-0.08713213354349136,-0.33928191661834717,0.08973698961798163,-0.5378821232082082,0.024634759184274754,0.1309409194749158,-0.10508603991675407,0.0,0.0,-0.6,0.0,0.0020928382873535156,0.003194093704223633,0.006447315216064453,0
0.6410632133483887,-0.10617689043283463,-0.08748515695333481,-0.34248876571655273,0.09217392405349548,-0.5374643048267028,0.02207665454055004,0.12864054709373562,-0.10812544946179616,0.0,0.0,-0.6,0.0,0.001844644546508789,0.002771615982055664,0.006118059158325195,0
0.6505053043365479,-0.10495822131633759,-0.08816242218017578,-0.3480817973613739,0.09749508027410853,-0.5370219218539556,0.02338145843099486,0.13004055881333923,-0.11224846972604388,0.0,0.0,-0.6,0.0,0.0015611648559570312,0.0025072097778320312,0.006356477737426758,0
0.6602566242218018,-0.10423450917005539,-0.08852221071720123,-0.3513004779815674,0.099943400386294,-0.5366216243130932,0.024023851130849195,0.12919037561486163,-0.11605270395308716,0.0,0.0,-0.6,0.0,0.0015921592712402344,0.0024633407592773438,0.005631923675537109,0
0.6699872016906738,-0.10423450917005539,-0.08852221071720123,-0.3513004779815674,0.099943400386294,-0.5363025425768214,0.024599009121122492,0.1285585520298901,-0.1187156679120186,0.0,0.0,-0.6,0.0,0.009079694747924805,0.01030874252319336,0.013637781143188477,0
0.6851098537445068,-0.10423450917005539,-0.08852221071720123,-0.3513004779815674,0.099943400386294,-0.5360482730386206,0.02510060586542198,0.12808518403082483,-0.1205797426832714,0.0,0.0,-0.6,0.0,0.0026738643646240234,0.003766775131225586,0.00685882568359375,0
0.6940572261810303,-0.10196077823638916,-0.08953098952770233,-0.36097803711891174,0.1079576498906231,-0.5356167650559276,0.022564545522711806,0.125565671960045,-0.12488993858727682,0.0,0.0,-0.6,0.0,0.0013189315795898438,0.0030145645141601562,0.0055027008056640625,0
0.7016868591308594,-0.10196077823638916,-0.08953098952770233,-0.36097803711891174,0.1079576498906231,-0.5352688257280248,0.020985104323375258,0.12379160533466518,-0.12790707572007443,0.0,0.0,-0.6,0.0,0.001973867416381836,0.002908945083618164,0.006872415542602539,0
0.711611270904541,-0.10038401931524277,-0.09016282111406326,-0.3673798739910126,0.11301138994181817,-0.5347819231482845,0.015557015664348793,0.12479884925524971,-0.1319142242322299,0.0,0.0,-0.6,0.0,0.00217437744140625,0.0032477378845214844,0.00666356086730957,0
0.7208647727966309,-0.10038401931524277,-0.09016282111406326,-0.3673798739910126,0.11301138994181817,-0.5343869591766509,0.012011992293329282,0.12542497188109406,-0.13471922819073995,0.0,0.0,-0.6,0.0,0.0016107559204101562,0.0025703907012939453,0.005877256393432617,0
0.7302722930908203,-0.09957366436719894,-0.090473473072052,-0.37056899070739746,0.11564488987576989,-0.5340635378238912,0.005982853220449307,0.12479873748460774,-0.13767029343692871,0.0,0.0,-0.6,0.0,0.005591154098510742,0.006708383560180664,0.009736299514770508,0
0.7421531677246094,-0.09957366436719894,-0.090473473072052,-0.37056899070739746,0.11564488987576989,-0.5337986615990123,0.001969761550054532,0.12433189289697873,-0.13973603910926174,0.0,0.0,-0.6,0.0,0.00577998161315918,0.006905078887939453,0.00991964340209961,0
0.7544651031494141,-0.09715038537979126,-0.0913190096616745,-0.3801804184913635,0.12344042237529546,-0.5332864820653705,-0.002638319626882997,0.11634471072737232,-0.14410538576721466,0.0,0.0,-0.6,0.0,0.0020813941955566406,0.0031630992889404297,0.006505489349365234,0
0.7635025978088379,-0.09715038537979126,-0.0913190096616745,-0.3801804184913635,0.12344042237529546,-0.532870205450209,-0.005604186533481376,0.1108450813979428,-0.147163928427783,0.0,0.0,-0.6,0.0,0.0016503334045410156,0.002564668655395508,0.005734920501708984,0
0.7724149227142334,-0.09630978852510452,-0.09158883988857269,-0.38342300057411194,0.12567441494354625,-0.5324238964125155,-0.005567850215658968,0.10623796958647819,-0.15014265550327496,0.0,0.0,-0.6,0.0,0.0015041828155517578,0.0028824806213378906,0.00607609748840332,0
0.780275821685791,-0.09630978852510452,-0.09158883988857269,-0.38342300057411194,0.12567441494354625,-0.5320663946166609,-0.005396262190265639,0.10305133997767871,-0.1522277644561202,0.0,0.0,-0.6,0.0,0.0014235973358154297,0.00249481201171875,0.005627870559692383,0
0.7907311916351318,-0.09378381073474884,-0.09231110662221909,-0.3930281400680542,0.13315427085301929,-0.5315891046786717,-0.006718923218856957,0.102253845888362,-0.1564922866891621,0.0,0.0,-0.6,0.0,0.0008802413940429688,0.0016739368438720703,0.003951549530029297,0
0.8009920120239258,-0.09378381073474884,-0.09231110662221909,-0.3930281400680542,0.13315427085301929,-0.531206247441415,-0.007469526836699033,0.10166884667471016,-0.1594774522522927,0.0,0.0,-0.6,0.0,0.0018208026885986328,0.0031423568725585938,0.006999492645263672,0
0.8119866847991943,-0.09211882948875427,-0.092765212059021,-0.3994201421737671,0.137651571798079,-0.5307249750280495,-0.008844986978194929,0.10014720540996644,-0.16325355600088073,0.0,0.0,-0.6,0.0,0.0019004344940185547,0.0036983489990234375,0.006921529769897461,0
0.821610689163208,-0.09211882948875427,-0.092765212059021,-0.3994201421737671,0.137651571798079,-0.5303386561510581,-0.00963014897790267,0.09907512291136189,-0.1658968286248935,0.0,0.0,-0.6,0.0,0.0017523765563964844,0.002671957015991211,0.006169795989990234,0
0.830214262008667,-0.09127582609653473,-0.09298867732286453,-0.40263617038726807,0.14000652688311052,-0.5298955526555837,-0.008323408084083338,0.09732865920808857,-0.16863022761858917,0.0,0.0,-0.6,0.0,0.0017626285552978516,0.002821683883666992,0.006253719329833984,0
0.8408215045928955,-0.09043074399232864,-0.09319563210010529,-0.40584489703178406,0.14200743050025133,-0.5295099142518306,-0.006798248112003088,0.0948440823657843,-0.171293945770604,0.0,0.0,-0.6,0.0,0.0018458366394042969,0.002748250961303711,0.00606846809387207,0
0.8507125377655029,-0.0887138769030571,-0.093610018491745,-0.4122752249240875,0.14668329064755112,-0.5289848741010155,-0.0025014160988290493,0.08984616769337592,-0.17491199603225085,0.0,0.0,-0.6,0.0,0.007679462432861328,0.009886980056762695,0.013249874114990234,0
0.8709309101104736,-0.0887138769030571,-0.093610018491745,-0.4122752249240875,0.14668329064755112,-0.5285669809128217,0.0006062140613949255,0.08642230013238728,-0.1774446312154047,0.0,0.0,-0.6,0.0,0.003958225250244141,0.00738978385925293,0.016534805297851562,0
0.8937039375305176,-0.08611109107732773,-0.09420332312583923,-0.42190176248550415,0.15329649761887587,-0.528114130596566,-0.006106159178390854,0.07907386875042785,-0.1816974284578575,0.0,0.0,-0.6,0.0,0.003993034362792969,0.00774073600769043,0.016139745712280273,0
0.9120595455169678,-0.08611109107732773,-0.09420332312583923,-0.42190176248550415,0.15329649761887587,-0.5277433324982284,-0.010527344622034411,0.0740288781669879,-0.18467438652757573,0.0,0.0,-0.6,0.0,0.003950357437133789,0.007265806198120117,0.013894796371459961,0
0.9330294132232666,-0.08267960697412491,-0.09491012245416641,-0.4346098005771637,0.1614201256874866,-0.5271911253209338,-0.008508368643812447,0.07277420677585651,-0.18980461770210535,0.0,0.0,-0.6,0.0,0.004359006881713867,0.008157014846801758,0.014472007751464844,0
0.9520738124847412,-0.08074316382408142,-0.09517722576856613,-0.4417054355144501,0.166424337758318,-0.5267057406441823,-0.009861975367619255,0.06729862832799521,-0.19527235905083754,0.0,0.0,-0.6,0.0,0.0045893192291259766,0.007496833801269531,0.014213323593139648,0
0.9727399349212646,-0.07911064475774765,-0.09536947309970856,-0.44790950417518616,0.17007462805711335,-0.5261913529152722,-0.01274603088117049,0.06320388555928094,-0.20046863685699856,0.0,0.0,-0.6,0.0,0.0037131309509277344,0.0077970027923583984,0.016308307647705078,0
0.9930830001831055,-0.07911064475774765,-0.09536947309970856,-0.44790950417518616,0.17007462805711335,-0.5257764342604472,-0.014548278549251174,0.060389660755553534,-0.20410603132131286,0.0,0.0,-0.6,0.0,0.002537965774536133,0.004435300827026367,0.011357784271240234,0
1.0125036239624023,-0.07653023302555084,-0.09557297825813293,-0.457969605922699,0.1763737259822652,-0.5253252800438556,-0.014424835429888727,0.05236345768954016,-0.20901436916826355,0.0,0.0,-0.6,0.0,0.002991199493408203,0.005116462707519531,0.013375282287597656,0
1.0338680744171143,-0.07472153007984161,-0.095687635242939,-0.4648195803165436,0.18062007180495512,-0.5248724386730743,-0.017317002351674406,0.048217489073014534,-0.21404258534463763,0.0,0.0,-0.6,0.0,0.004001140594482422,0.0072138309478759766,0.016070842742919922,0
1.0563511848449707,-0.07254814356565475,-0.09580928832292557,-0.4728381335735321,0.18561656293983333,-0.5245256306383635,-0.025387618360327026,0.03950617676591316,-0.21943602084367844,0.0,0.0,-0.6,0.0,0.0021224021911621094,0.005675554275512695,0.013139486312866211,0
1.0768654346466064,-0.07100295275449753,-0.09592994302511215,-0.47859394550323486,0.18871750852104194,-0.5241658075840165,-0.02377167049077722,0.03315502394248486,-0.22437428028596068,0.0,0.0,-0.6,0.0,0.0036792755126953125,0.006864786148071289,0.01531362533569336,0
1.0972158908843994,-0.07100295275449753,-0.09592994302511215,-0.47859394550323486,0.18871750852104194,-0.5238779269035263,-0.02255022403759979,0.028821510621090552,-0.22783106189555974,0.0,0.0,-0.6,0.0,0.0010609626770019531,0.0019028186798095703,0.007332324981689453,0
1.1034893989562988,-0.06897573918104172,-0.09600399434566498,-0.48627689480781555,0.1929600410660589,-0.5236581826185851,-0.023254269837802263,0.02009069771410171,-0.23184175872665988,0.0,0.0,-0.6,0.0,0.001497507095336914,0.0025272369384765625,0.005143642425537109,0
1.1111912727355957,-0.06897573918104172,-0.09600399434566498,-0.48627689480781555,0.1929600410660589,-0.523480837278395,-0.02365373982758856,0.014128851685395367,-0.2346492465084312,0.0,0.0,-0.6,0.0,0.0013828277587890625,0.0022995471954345703,0.004606008529663086,0
1.120312213897705,-0.06757951527833939,-0.09596298635005951,-0.4917845129966736,0.19564383740209673,-0.5232891132682501,-0.02458372281522202,0.0031642788193420746,-0.23762091158168513,0.0,0.0,-0.6,0.0,0.0012726783752441406,0.002389192581176758,0.005293607711791992,0
1.1298832893371582,-0.06644199788570404,-0.09593181312084198,-0.496518611907959,0.1984564466284207,-0.5230510495313302,-0.021986548773128695,-0.0023864031240401753,-0.24075580559283422,0.0,0.0,-0.6,0.0,0.0011622905731201172,0.002352476119995117,0.0047206878662109375,0
1.1399924755096436,-0.06644199788570404,-0.09593181312084198,-0.496518611907959,0.1984564466284207,-0.522862524504145,-0.02013782889414381,-0.00617893868076152,-0.2429502314006395,0.0,0.0,-0.6,0.0,0.00217437744140625,0.003225088119506836,0.006896257400512695,0
1.1529459953308105,-0.06580714136362076,-0.09586860239505768,-0.4992007613182068,0.19965199183562232,-0.5227500247103168,-0.018807068337088853,-0.010681610905686756,-0.24493465891880403,0.0,0.0,-0.6,0.0,0.0023195743560791016,0.004780292510986328,0.008534908294677734,0
1.1635782718658447,-0.06580714136362076,-0.09586860239505768,-0.4992007613182068,0.19965199183562232,-0.5226615842504648,-0.01786095373443726,-0.013758594061947464,-0.2463237581815198,0.0,0.0,-0.6,0.0,0.0021209716796875,0.0033919811248779297,0.008229970932006836,0
1.175546407699585,-0.06416110694408417,-0.0957503467798233,-0.506521999835968,0.20323551881293875,-0.5224863836571064,-0.02166578306207362,-0.02390523656798131,-0.24863995028191357,0.0,0.0,-0.6,0.0,0.0022809505462646484,0.0039103031158447266,0.008808135986328125,0
1.1867506504058838,-0.06416110694408417,-0.0957503467798233,-0.506521999835968,0.20323551881293875,-0.5223445501790931,-0.02419945558319401,-0.030840997247967995,-0.2502612847521899,0.0,0.0,-0.6,0.0,0.0017981529235839844,0.003492593765258789,0.008055448532104492,0
1.199077844619751,-0.06304404884576797,-0.09560403227806091,-0.5117718577384949,0.2055686626285497,-0.5222297208962708,-0.02378513148629104,-0.03517121240164334,-0.2522711478122371,0.0,0.0,-0.6,0.0,0.0011167526245117188,0.0020580291748046875,0.006230831146240234,0
1.209336519241333,-0.062485337257385254,-0.09553246945142746,-0.5143711566925049,0.2067459162082426,-0.5220272507538802,-0.022627816203531034,-0.0369814837088505,-0.25411952204665506,0.0,0.0,-0.6,0.0,0.0014224052429199219,0.0026619434356689453,0.007122516632080078,0
1.221308946609497,-0.062485337257385254,-0.09553246945142746,-0.5143711566925049,0.2067459162082426,-0.5218663893937172,-0.021781055914424297,-0.03822881457573883,-0.2554133840107302,0.0,0.0,-0.6,0.0,0.002275705337524414,0.0045320987701416016,0.008394956588745117,0
1.2330513000488281,-0.06085715815424919,-0.09523939341306686,-0.5221197605133057,0.20980479836362836,-0.5216551796287802,-0.0233342767866321,-0.04132013596788752,-0.25746616819386975,0.0,0.0,-0.6,0.0,0.0018312931060791016,0.003717660903930664,0.008546113967895508,0
1.2444703578948975,-0.06085715815424919,-0.09523939341306686,-0.5221197605133057,0.20980479836362836,-0.5214860141712797,-0.02433465389170652,-0.04344505875116052,-0.25890311712206804,0.0,0.0,-0.6,0.0,0.0024254322052001953,0.003767728805541992,0.008887290954589844,0
1.2571520805358887,-0.05982162430882454,-0.09499480575323105,-0.5271676778793335,0.2117097091911126,-0.521245304435456,-0.022514031277990166,-0.04762852490921898,-0.260623322932137,0.0,0.0,-0.6,0.0,0.0014770030975341797,0.003529787063598633,0.0069544315338134766,0
1.2686712741851807,-0.059299107640981674,-0.0948810949921608,-0.5296785235404968,0.21265763576034383,-0.5211212366469843,-0.02207041969837666,-0.05292745736687694,-0.2621829394626233,0.0,0.0,-0.6,0.0,0.001959562301635742,0.00354766845703125,0.007868766784667969,0
1.2793996334075928,-0.05880851671099663,-0.09475082159042358,-0.5321575403213501,0.21358548640273492,-0.520953637566034,-0.02022314031455455,-0.05592769284627826,-0.26362261502486045,0.0,0.0,-0.6,0.0,0.001959085464477539,0.004044532775878906,0.008460044860839844,0
1.2906641960144043,-0.05880851671099663,-0.09475082159042358,-0.5321575403213501,0.21358548640273492,-0.520821820747184,-0.01891868736374831,-0.05799095792786558,-0.2646303879184269,0.0,0.0,-0.6,0.0,0.004370927810668945,0.0055315494537353516,0.009565353393554688,0
1.302330732345581,-0.057388026267290115,-0.09433028101921082,-0.5395659804344177,0.21595034861304543,-0.5206350347444962,-0.014992521919100752,-0.04945712427940246,-0.2662226522727893,0.0,0.0,-0.6,0.0,0.005230903625488281,0.00757145881652832,0.01031804084777832,0
1.3168716430664062,-0.057388026267290115,-0.09433028101921082,-0.5395659804344177,0.21595034861304543,-0.5204814658368793,-0.012281475267980804,-0.04365455349051831,-0.2673372373208434,0.0,0.0,-0.6,0.0,0.0064961910247802734,0.00766444206237793,0.01251077651977539,0
1.332458257675171,-0.0560896210372448,-0.09381463378667831,-0.5467726588249207,0.21787114890671613,-0.5203186242079346,-0.011896200798716002,-0.039630440839849165,-0.26883774696460744,0.0,0.0,-0.6,0.0,0.0023915767669677734,0.005013465881347656,0.008563041687011719,0
1.344867467880249,-0.0560896210372448,-0.09381463378667831,-0.5467726588249207,0.21787114890671613,-0.5201859440167923,-0.011600703202318567,-0.03690513773337437,-0.2698881037152427,0.0,0.0,-0.6,0.0,0.0013191699981689453,0.0025691986083984375,0.0071103572845458984,0
1.3564541339874268,-0.05526156350970268,-0.09341627359390259,-0.5514487028121948,0.2192386097767893,-0.5200789093717555,-0.00894818604898089,-0.03391027547321861,-0.2711361512669473,0.0,0.0,-0.6,0.0,0.002237558364868164,0.003296375274658203,0.007431745529174805,0
1.3652255535125732,-0.05526156350970268,-0.09341627359390259,-0.5514487028121948,0.2192386097767893,-0.519992817569306,-0.007116203826805197,-0.03187947170980669,-0.27200978455314606,0.0,0.0,-0.6,0.0,0.002193450927734375,0.004057407379150391,0.009083271026611328,0
1.3779296875,-0.05441388487815857,-0.09291645884513855,-0.5566007494926453,0.22056361527725063,-0.5200220576239529,-0.01034276079488561,-0.02611892384476956,-0.2731182049161701,0.0,0.0,-0.6,0.0,0.0020380020141601562,0.003648996353149414,0.007256746292114258,0
1.3859577178955078,-0.05441388487815857,-0.09291645884513855,-0.5566007494926453,0.22056361527725063,-0.5200399204107342,-0.012557743663984416,-0.022183693995726443,-0.2738940991702873,0.0,0.0,-0.6,0.0,0.001722097396850586,0.003754854202270508,0.007256507873535156,0
1.3970952033996582,-0.05368557199835777,-0.09249643236398697,-0.5610139966011047,0.22165180516776214,-0.5200000494919592,-0.01109716258642486,-0.013877780950165248,-0.27484529635711097,0.0,0.0,-0.6,0.0,0.0018548965454101562,0.0031120777130126953,0.0074727535247802734,0
1.407078742980957,-0.05368557199835777,-0.09249643236398697,-0.5610139966011047,0.22165180516776214,-0.5199638339322025,-0.010098635780873723,-0.008214190112896813,-0.2755111343878878,0.0,0.0,-0.6,0.0,0.0012249946594238281,0.0031843185424804688,0.007308483123779297,0
1.4180889129638672,-0.053006287664175034,-0.09213899821043015,-0.5647538900375366,0.22265743602266835,-0.5199640843250665,-0.009098283116252978,-0.0002026522139441031,-0.2763543325800095,0.0,0.0,-0.6,0.0,0.0021893978118896484,0.0035300254821777344,0.006730794906616211,0
1.4292371273040771,-0.052334751933813095,-0.09176299721002579,-0.5689412355422974,0.22363462434442707,-0.5200151240221137,-0.005716895240431153,0.0021174403053481274,-0.2773110169351792,0.0,0.0,-0.6,0.0,0.0019190311431884766,0.002816915512084961,0.005330801010131836,0
1.437117338180542,-0.052334751933813095,-0.09176299721002579,-0.5689412355422974,0.22363462434442707,-0.5200566540417297,-0.0034210080289973827,0.0037106040312836035,-0.2779806959837849,0.0,0.0,-0.6,0.0,0.002251148223876953,0.003227710723876953,0.00750732421875,0
1.4466564655303955,-0.052334751933813095,-0.09176299721002579,-0.5689412355422974,0.22363462434442707,-0.5200904853533151,-0.001863586820267975,0.004804983985364018,-0.2784494713178091,0.0,0.0,-0.6,0.0,0.0019459724426269531,0.0035355091094970703,0.0076258182525634766,0
1.4555022716522217,-0.05160442367196083,-0.09135520458221436,-0.5734913349151611,0.22471949567671912,-0.5202289330931691,-0.0014970956778888437,0.009554410923835972,-0.27918444080122506,0.0,0.0,-0.6,0.0,0.0016911029815673828,0.0033006668090820312,0.006285667419433594,0
1.4645919799804688,-0.05160442367196083,-0.09135520458221436,-0.5734913349151611,0.22471949567671912,-0.5203377193349646,-0.001280555232186563,0.01281990943711833,-0.2796989194396267,0.0,0.0,-0.6,0.0,0.0017921924591064453,0.0033769607543945312,0.0072748661041259766,0
1.4752540588378906,-0.05099722743034363,-0.09099800139665604,-0.5773642659187317,0.22553818229352837,-0.5203715026667498,0.0030724347646501056,0.02207241018611588,-0.28036606196781116,0.0,0.0,-0.6,0.0,0.0022110939025878906,0.003839254379272461,0.007905721664428711,0
1.4861161708831787,-0.05099722743034363,-0.09099800139665604,-0.5773642659187317,0.22553818229352837,-0.5203961776859114,0.006030999451290103,0.028394915607008454,-0.28083306173754047,0.0,0.0,-0.6,0.0,0.0011398792266845703,0.0031175613403320312,0.007544040679931641,0
1.495051383972168,-0.0504496693611145,-0.09063838422298431,-0.5806021690368652,0.22639901542669905,-0.5205365186704104,0.005779538996031307,0.033644760433154515,-0.28148277400128985,0.0,0.0,-0.6,0.0,0.001865386962890625,0.003458738327026367,0.0068950653076171875,0
1.5037426948547363,-0.0504496693611145,-0.09063838422298431,-0.5806021690368652,0.22639901542669905,-0.5206468315365952,0.00557362978773435,0.03725005935078866,-0.28193757258591456,0.0,0.0,-0.6,0.0,0.0017576217651367188,0.003325939178466797,0.0070340633392333984,0
1.5156846046447754,-0.04989200085401535,-0.0902174711227417,-0.5841634273529053,0.22710209095015776,-0.5207698322557173,0.008111959521191472,0.040933811482476115,-0.28251958491644874,0.0,0.0,-0.6,0.0,0.0019783973693847656,0.003930330276489258,0.008805513381958008,0
1.526590347290039,-0.04989200085401535,-0.0902174711227417,-0.5841634273529053,0.22710209095015776,-0.5208686801871735,0.009816844168360242,0.04346686215175505,-0.28292699354782286,0.0,0.0,-0.6,0.0,0.0015125274658203125,0.0023856163024902344,0.005957365036010742,0
1.5379750728607178,-0.04938874766230583,-0.08980358392000198,-0.5871577262878418,0.22786174707059173,-0.520986782462575,0.012253746810453773,0.04772771105235075,-0.28349705063494735,0.0,0.0,-0.6,0.0,0.002095937728881836,0.0035126209259033203,0.008254766464233398,0
1.547454833984375,-0.04938874766230583,-0.08980358392000198,-0.5871577262878418,0.22786174707059173,-0.5210816986825563,0.013889880840098472,0.050653055356473395,-0.2838960905959346,0.0,0.0,-0.6,0.0,0.0019071102142333984,0.00353240966796875,0.007324934005737305,0
1.559190034866333,-0.04865496978163719,-0.08910036832094193,-0.5915998816490173,0.22884114657900734,-0.5214043193348925,0.012168273872422173,0.05095525288226882,-0.28454269338427235,0.0,0.0,-0.6,0.0,0.0017900466918945312,0.0029976367950439453,0.007325410842895508,0
1.5673387050628662,-0.04865496978163719,-0.08910036832094193,-0.5915998816490173,0.22884114657900734,-0.5216615432244696,0.010921017146095223,0.051203301081000935,-0.28499531533611794,0.0,0.0,-0.6,0.0,0.0011484622955322266,0.002941608428955078,0.005782365798950195,0
1.5776588916778564,-0.048395607620477676,-0.08884676545858383,-0.5931282043457031,0.22913362921044045,-0.5218775412858697,0.012330980585617737,0.05139191440665598,-0.2854218316891973,0.0,0.0,-0.6,0.0,0.0022377967834472656,0.0038514137268066406,0.0071828365325927734,0
1.588902473449707,-0.04786255583167076,-0.08835659921169281,-0.5960654616355896,0.22972745964366342,-0.522206511212957,0.016693044617553984,0.05243052904506681,-0.2859430795488114,0.0,0.0,-0.6,0.0,0.0018246173858642578,0.002902507781982422,0.007176399230957031,0
1.5975992679595947,-0.04786255583167076,-0.08835659921169281,-0.5960654616355896,0.22972745964366342,-0.5224722725264015,0.019601114283638206,0.05318284491058986,-0.2863079530505414,0.0,0.0,-0.6,0.0,0.00103759765625,0.0025582313537597656,0.00564885139465332,0
1.6069631576538086,-0.04762744903564453,-0.08810172230005264,-0.5974693298339844,0.23005565123534436,-0.5227019312660659,0.02080669336467008,0.05198499318710758,-0.2866864363486327,0.0,0.0,-0.6,0.0,0.00128936767578125,0.0030355453491210938,0.007108926773071289,0
1.6164562702178955,-0.04762744903564453,-0.08810172230005264,-0.5974693298339844,0.23005565123534436,-0.5228868016676734,0.021578441828177822,0.051195473391653916,-0.28695137465729675,0.0,0.0,-0.6,0.0,0.0020303726196289062,0.004060029983520508,0.00822758674621582,0
1.627683162689209,-0.046845171600580215,-0.08731090277433395,-0.6014530062675476,0.23066633440079604,-0.5231506621297628,0.015626311232068396,0.051052322638719734,-0.2873658376604058,0.0,0.0,-0.6,0.0,0.0015778541564941406,0.0033676624298095703,0.006186008453369141,0
1.6362674236297607,-0.046845171600580215,-0.08731090277433395,-0.6014530062675476,0.23066633440079604,-0.5233573894205429,0.01149800245160987,0.050986508284424595,-0.2876559617625823,0.0,0.0,-0.6,0.0,0.0010437965393066406,0.0018506050109863281,0.005130767822265625,0
1.6451687812805176,-0.0465705543756485,-0.08708515018224716,-0.6026912927627563,0.2308429933389992,-0.5235933042578853,0.01031182300330665,0.05302758177983311,-0.287925295735932,0.0,0.0,-0.6,0.0,0.0025849342346191406,0.003503084182739258,0.007481098175048828,0
1.654801368713379,-0.0465705543756485,-0.08708515018224716,-0.6026912927627563,0.2308429933389992,-0.5237810554668705,0.009449616650349286,0.05444896234202948,-0.2881138295172769,0.0,0.0,-0.6,0.0,0.001313924789428711,0.003076791763305664,0.0067980289459228516,0
1.6657092571258545,-0.04602445289492607,-0.0866401195526123,-0.605087161064148,0.23136823498323908,-0.5239888051145736,0.012163718667626389,0.053151545178680114,-0.28844276878080816,0.0,0.0,-0.6,0.0,0.0011408329010009766,0.0019960403442382812,0.006366252899169922,0
1.675624132156372,-0.04577444866299629,-0.08639650046825409,-0.606218159198761,0.23163585240817972,-0.5242531635760204,0.013501364192512726,0.05045953715669484,-0.28877338279962816,0.0,0.0,-0.6,0.0,0.00145721435546875,0.0031082630157470703,0.007822513580322266,0
1.6867895126342773,-0.04577444866299629,-0.08639650046825409,-0.606218159198761,0.23163585240817972,-0.5244658045148396,0.014355414379407969,0.0486477596248005,-0.2890048126128101,0.0,0.0,-0.6,0.0,0.0026922225952148438,0.004408597946166992,0.008314847946166992,0
1.6971375942230225,-0.044993992894887924,-0.08568604290485382,-0.6094540357589722,0.23197835509734466,-0.524759308928747,0.009456708862315918,0.043797766142720976,-0.289295251990471,0.0,0.0,-0.6,0.0,0.0010085105895996094,0.0018239021301269531,0.004863262176513672,0
1.7059054374694824,-0.044993992894887924,-0.08568604290485382,-0.6094540357589722,0.23197835509734466,-0.5249907315321922,0.006039618576568335,0.04051301646459133,-0.2894985595548338,0.0,0.0,-0.6,0.0,0.0020117759704589844,0.003493070602416992,0.007246971130371094,0
1.7165582180023193,-0.044993992894887924,-0.08568604290485382,-0.6094540357589722,0.23197835509734466,-0.5251738845657474,0.0036517799593351235,0.03829344817073586,-0.28964087484988776,0.0,0.0,-0.6,0.0,0.0017857551574707031,0.003390073776245117,0.0071146488189697266,0
1.7259995937347412,-0.044229134917259216,-0.08495523780584335,-0.612363874912262,0.2323240371796731,-0.5253459822733836,0.0001005250242331157,0.03584960526558306,-0.28987012633729864,0.0,0.0,-0.6,0.0,0.0012547969818115234,0.002152681350708008,0.004809379577636719,0
1.734123945236206,-0.044229134917259216,-0.08495523780584335,-0.612363874912262,0.2323240371796731,-0.52548158395574,-0.0023651207506467744,0.03419762808124859,-0.29003060237848405,0.0,0.0,-0.6,0.0,0.002675294876098633,0.00429844856262207,0.008349180221557617,0
1.7450153827667236,-0.044229134917259216,-0.08495523780584335,-0.612363874912262,0.2323240371796731,-0.5255887664520734,-0.004079858026672707,0.033083438944057665,-0.29014293560731613,0.0,0.0,-0.6,0.0,0.0018529891967773438,0.0035858154296875,0.007302522659301758,0
1.75639009475708,-0.04347803816199303,-0.08419380336999893,-0.6150311827659607,0.23256090623861853,-0.5257857561889892,-0.0027473841956153744,0.03113531686009574,-0.2903103947646031,0.0,0.0,-0.6,0.0,0.0013360977172851562,0.002213716506958008,0.005602836608886719,0
1.7638461589813232,-0.04347803816199303,-0.08419380336999893,-0.6150311827659607,0.23256090623861853,-0.5259444423808991,-0.001882094356862329,0.02982336764494348,-0.29042761617470564,0.0,0.0,-0.6,0.0,0.0020780563354492188,0.0036852359771728516,0.007898092269897461,0
1.7744114398956299,-0.04347803816199303,-0.08419380336999893,-0.6150311827659607,0.23256090623861853,-0.5260721546623753,-0.0013276607679784105,0.028942818578999534,-0.2905096711617758,0.0,0.0,-0.6,0.0,0.002322673797607422,0.00430607795715332,0.007370948791503906,0
1.7856805324554443,-0.042994387447834015,-0.08368106931447983,-0.616645097732544,0.23254918046751555,-0.5262958858627915,-0.0060448947325323936,0.02339337663797535,-0.2905627124885613,0.0,0.0,-0.6,0.0,0.001157522201538086,0.00302886962890625,0.007064104080200195,0
1.7954211235046387,-0.042994387447834015,-0.08368106931447983,-0.616645097732544,0.23254918046751555,-0.5264722398245818,-0.009321847964710186,0.0196250605088474,-0.2905998414173112,0.0,0.0,-0.6,0.0,0.0018622875213623047,0.003513813018798828,0.006342649459838867,0
1.8052904605865479,-0.04255148023366928,-0.0831720158457756,-0.6183363199234009,0.2325116556675458,-0.526660393749408,-0.015218521118034106,0.017050751535417276,-0.2906117598674477,0.0,0.0,-0.6,0.0,0.001680612564086914,0.0033495426177978516,0.0071239471435546875,0
1.8166322708129883,-0.04255148023366928,-0.0831720158457756,-0.6183363199234009,0.2325116556675458,-0.5268075741813251,-0.019290911758797203,0.015313030883694413,-0.2906201027825431,0.0,0.0,-0.6,0.0,0.001895904541015625,0.003590822219848633,0.008016586303710938,0
1.8282318115234375,-0.04212460666894913,-0.08261246979236603,-0.619907796382904,0.23254892913793365,-0.527041315820964,-0.020200880594140984,0.008847975469177798,-0.29063992037450526,0.0,0.0,-0.6,0.0,0.0010509490966796875,0.0019028186798095703,0.005356788635253906,0
1.835340976715088,-0.0419289730489254,-0.0823206752538681,-0.6205571889877319,0.23243509618515018,-0.5272570787362072,-0.02196327853744447,0.005578983895052958,-0.290611105331585,0.0,0.0,-0.6,0.0,0.0023887157440185547,0.004037618637084961,0.007387638092041016,0
1.845099687576294,-0.0419289730489254,-0.0823206752538681,-0.6205571889877319,0.23243509618515018,-0.5274295793342729,-0.023213936961993697,0.0033699007048629947,-0.2905909348015411,0.0,0.0,-0.6,0.0,0.0020673274993896484,0.0032401084899902344,0.0074596405029296875,0
1.8568263053894043,-0.04160797595977783,-0.08175655454397202,-0.6217857599258423,0.2322545888241295,-0.527665041258924,-0.02611395101013476,0.003016547734959583,-0.2905091251701274,0.0,0.0,-0.6,0.0,0.0011432170867919922,0.0026807785034179688,0.0073697566986083984,0
1.8665471076965332,-0.04160797595977783,-0.08175655454397202,-0.6217857599258423,0.2322545888241295,-0.5278519228846874,-0.02814551246905056,0.0028018335125089616,-0.29045185842813775,0.0,0.0,-0.6,0.0,0.0010807514190673828,0.002239704132080078,0.007203817367553711,0
1.8764867782592773,-0.041346073150634766,-0.0811396986246109,-0.6227625608444214,0.23194937905851548,-0.5280202141067339,-0.029245751781319693,0.002418234669365626,-0.290297318046642,0.0,0.0,-0.6,0.0,0.0021271705627441406,0.0031273365020751953,0.007426738739013672,0
1.8878941535949707,-0.041346073150634766,-0.0811396986246109,-0.6227625608444214,0.23194937905851548,-0.5281543933737667,-0.030031541673629647,0.002174545023351706,-0.2901891397795928,0.0,0.0,-0.6,0.0,0.001249551773071289,0.0031898021697998047,0.007663726806640625,0
1.8984465599060059,-0.041091714054346085,-0.08054964989423752,-0.6238306760787964,0.2318298980272867,-0.5283023601418799,-0.03095854390376858,-0.002473878100207454,-0.2900686096059476,0.0,0.0,-0.6,0.0,0.0020294189453125,0.003686666488647461,0.00727391242980957,0
1.9097189903259277,-0.04090810939669609,-0.07995616644620895,-0.6247199177742004,0.23143391524070833,-0.5284061914085197,-0.02803801712627834,-0.004198599828085781,-0.28983574493942915,0.0,0.0,-0.6,0.0,0.002134084701538086,0.0037903785705566406,0.007320880889892578,0
1.923137903213501,-0.040820490568876266,-0.0796341821551323,-0.6252226233482361,0.23122796446479169,-0.528459527214941,-0.025082469295954257,-0.005060772762650142,-0.2895955081318975,0.0,0.0,-0.6,0.0,0.0020668506622314453,0.00368499755859375,0.007869958877563477,0
1.9323396682739258,-0.040820490568876266,-0.0796341821551323,-0.6252226233482361,0.23122796446479169,-0.528503651773781,-0.02307405328818264,-0.005644824053998246,-0.289427342366623,0.0,0.0,-0.6,0.0,0.002340555191040039,0.004117727279663086,0.007651805877685547,0
1.943699598312378,-0.04060588777065277,-0.07893586903810501,-0.6263132095336914,0.2308105998769446,-0.5285705771997371,-0.02250533156330583,-0.009322417067177463,-0.2891531146104906,0.0,0.0,-0.6,0.0,0.002270936965942383,0.004059314727783203,0.00868678092956543,0
1.9575512409210205,-0.04060588777065277,-0.07893586903810501,-0.6263132095336914,0.2308105998769446,-0.5286254577355046,-0.022130308927061207,-0.011827637644864279,-0.28896115518119786,0.0,0.0,-0.6,0.0,0.0018911361694335938,0.0033423900604248047,0.011234045028686523,0
1.9691345691680908,-0.040372882038354874,-0.0779205933213234,-0.6275805234909058,0.22991795320808875,-0.5287513441005387,-0.023582898428779038,-0.015876647983074352,-0.28849204107987225,0.0,0.0,-0.6,0.0,0.0026683807373046875,0.004300594329833984,0.007871866226196289,0
1.978452444076538,-0.040372882038354874,-0.0779205933213234,-0.6275805234909058,0.22991795320808875,-0.5288527411672297,-0.024600095159007518,-0.01862785548872838,-0.2881636612089442,0.0,0.0,-0.6,0.0,0.001771688461303711,0.004434108734130859,0.008396625518798828,0
1.9909429550170898,-0.0402958020567894,-0.0775696411728859,-0.628013551235199,0.22961091944110176,-0.5289696567789034,-0.025295612231859523,-0.018705943102712657,-0.28781865763667447,0.0,0.0,-0.6,0.0,0.0018401145935058594,0.00439000129699707,0.008508443832397461,0
2.0019984245300293,-0.04018168896436691,-0.07689652591943741,-0.6288449764251709,0.22902553088796787,-0.5290153646666161,-0.02306575324052726,-0.019094750823543068,-0.2873576344286605,0.0,0.0,-0.6,0.0,0.0018572807312011719,0.0030405521392822266,0.0071258544921875,0
2.0133414268493652,-0.04018168896436691,-0.07689652591943741,-0.6288449764251709,0.22902553088796787,-0.5290529227528368,-0.02155097628593107,-0.019355601895766666,-0.28703491818305066,0.0,0.0,-0.6,0.0,0.0017063617706298828,0.002843141555786133,0.0071201324462890625,0
2.022059440612793,-0.04009757563471794,-0.07626044750213623,-0.6295465230941772,0.22821310500761602,-0.5291132292572893,-0.021757329325775395,-0.02037269770346246,-0.286504357105992,0.0,0.0,-0.6,0.0,0.0015766620635986328,0.0044994354248046875,0.008040904998779297,0
2.0335910320281982,-0.04009757563471794,-0.07626044750213623,-0.6295465230941772,0.22821310500761602,-0.5291618276483241,-0.021909325231093096,-0.0210595971327766,-0.28613296435205077,0.0,0.0,-0.6,0.0,0.002545595169067383,0.0035583972930908203,0.008009910583496094,0
2.0453577041625977,-0.04006771743297577,-0.07535764575004578,-0.6305699348449707,0.22703617190822534,-0.5291956883184399,-0.01687997456684625,-0.020890127714355437,-0.2854316395120207,0.0,0.0,-0.6,0.0,0.002023935317993164,0.0033805370330810547,0.007681608200073242,0
2.0554916858673096,-0.04006771743297577,-0.07535764575004578,-0.6305699348449707,0.22703617190822534,-0.529224377324524,-0.013450697775956373,-0.020772748209099363,-0.2849407121239995,0.0,0.0,-0.6,0.0,0.0027151107788085938,0.0040187835693359375,0.0074384212493896484,0
2.067634105682373,-0.04012139514088631,-0.07466871291399002,-0.6312793493270874,0.22623296031994203,-0.5293028031816339,-0.012547655917525317,-0.024517034549005817,-0.28429585860676965,0.0,0.0,-0.6,0.0,0.0021517276763916016,0.0035581588745117188,0.0076215267181396484,0
2.078016519546509,-0.04012139514088631,-0.07466871291399002,-0.6312793493270874,0.22623296031994203,-0.5293676521843267,-0.01194590043592553,-0.027064601605012915,-0.28384446114471124,0.0,0.0,-0.6,0.0,0.001598358154296875,0.002840757369995117,0.0068361759185791016,0
2.088427782058716,-0.0401572659611702,-0.07394981384277344,-0.6320801377296448,0.2250514415957698,-0.5293905895420992,-0.01531797354990606,-0.025501330472609208,-0.28308541339971227,0.0,0.0,-0.6,0.0,0.0020253658294677734,0.0032377243041992188,0.006948232650756836,0
2.0993988513946533,-0.0401572659611702,-0.07394981384277344,-0.6320801377296448,0.2250514415957698,-0.5294063525985699,-0.017625508924715833,-0.024428179789959027,-0.2825540799782128,0.0,0.0,-0.6,0.0,0.0020809173583984375,0.0037276744842529297,0.0077686309814453125,0
2.111584424972534,-0.0402844063937664,-0.07326900959014893,-0.6327928304672241,0.2241302378565693,-0.5294286826237917,-0.01758398319443394,-0.02850092544629151,-0.28183669518096316,0.0,0.0,-0.6,0.0,0.001459360122680664,0.0028450489044189453,0.0061473846435546875,0
2.1213059425354004,-0.04034796729683876,-0.07290257513523102,-0.6331251263618469,0.2235772267329078,-0.5294872945820047,-0.015554208623427513,-0.029902990431909648,-0.28112714665151534,0.0,0.0,-0.6,0.0,0.0015077590942382812,0.003000974655151367,0.006286144256591797,0
2.131376028060913,-0.040434710681438446,-0.07255243510007858,-0.6334547996520996,0.22312127556493427,-0.52950320120436,-0.012293639606288577,-0.031010523809910505,-0.28045948099291174,0.0,0.0,-0.6,0.0,0.0014188289642333984,0.003765583038330078,0.009040355682373047,0
2.1424691677093506,-0.040434710681438446,-0.07255243510007858,-0.6334547996520996,0.22312127556493427,-0.5295178088412761,-0.010069613513585365,-0.03176647136833137,-0.27999211503188903,0.0,0.0,-0.6,0.0,0.0017609596252441406,0.004010200500488281,0.008121728897094727,0
2.152939796447754,-0.040619295090436935,-0.07182877510786057,-0.6340985298156738,0.2220604365164515,-0.5295355124803024,-0.009710775826661203,-0.027340940666858198,-0.27926714421599236,0.0,0.0,-0.6,0.0,0.002519369125366211,0.0037698745727539062,0.008393049240112305,0
2.1639270782470703,-0.040619295090436935,-0.07182877510786057,-0.6340985298156738,0.2220604365164515,-0.5295466812253433,-0.009468455498866844,-0.024314840562628212,-0.27875966464486446,0.0,0.0,-0.6,0.0,0.001971721649169922,0.004052400588989258,0.00698399543762207,0
2.173921823501587,-0.041017837822437286,-0.0707787424325943,-0.6349983811378479,0.22031445701512584,-0.529557319844329,-0.00789499998552515,-0.021917633889383333,-0.27774968663207833,0.0,0.0,-0.6,0.0,0.0013201236724853516,0.0023627281188964844,0.005454063415527344,0
2.181175708770752,-0.041017837822437286,-0.0707787424325943,-0.6349983811378479,0.22031445701512584,-0.5295648920413347,-0.006821641354304838,-0.02027961200290238,-0.27704270202312775,0.0,0.0,-0.6,0.0,0.0010442733764648438,0.0019102096557617188,0.0044634342193603516,0
2.191913366317749,-0.04116790369153023,-0.0704292505979538,-0.6352927684783936,0.21978935504725786,-0.5296164608571857,-0.0050682978798269095,-0.02250466996271531,-0.2763508995589118,0.0,0.0,-0.6,0.0,0.0017714500427246094,0.007816553115844727,0.011939048767089844,0
2.20695424079895,-0.04116790369153023,-0.0704292505979538,-0.6352927684783936,0.21978935504725786,-0.5296597175453902,-0.003879919503241613,-0.024017040516629572,-0.2758666378339604,0.0,0.0,-0.6,0.0,0.001975536346435547,0.003445148468017578,0.008264303207397461,0
2.2185752391815186,-0.04148082062602043,-0.06976436078548431,-0.6358299851417542,0.21859087831132853,-0.5296939351835654,-0.004923370000555828,-0.027092935193594694,-0.2750782258505213,0.0,0.0,-0.6,0.0,0.0010671615600585938,0.0019464492797851562,0.004632234573364258,0
2.225346803665161,-0.04164774343371391,-0.06943292915821075,-0.6361184120178223,0.2180425811670844,-0.5297778395854398,-0.005928514238353752,-0.026536828197451748,-0.27432072603302227,0.0,0.0,-0.6,0.0,0.000995635986328125,0.0017728805541992188,0.004152536392211914,0
2.2346959114074707,-0.041814710944890976,-0.06908337771892548,-0.6363775134086609,0.21743192828327154,-0.5297863896075365,-0.0053170817528384925,-0.024088294878389684,-0.27356148132933267,0.0,0.0,-0.6,0.0,0.002352476119995117,0.003690958023071289,0.008349418640136719,0
2.2440664768218994,-0.041814710944890976,-0.06908337771892548,-0.6363775134086609,0.21743192828327154,-0.5297917355368568,-0.004900806742047251,-0.02241436449216996,-0.2730300100367602,0.0,0.0,-0.6,0.0,0.0022430419921875,0.003563404083251953,0.00806117057800293,0
2.2572903633117676,-0.0421985499560833,-0.06841252744197845,-0.6369600892066956,0.21599385236953664,-0.5298312202195926,-0.002633341709985699,-0.02073365895010466,-0.2721187016643093,0.0,0.0,-0.6,0.0,0.0016684532165527344,0.0030584335327148438,0.008258581161499023,0
2.267604351043701,-0.0421985499560833,-0.06841252744197845,-0.6369600892066956,0.21599385236953664,-0.5298625799463951,-0.001091065853140093,-0.019579500019880746,-0.27148078580359336,0.0,0.0,-0.6,0.0,0.0018367767333984375,0.0034339427947998047,0.007588624954223633,0
2.2798540592193604,-0.04283522069454193,-0.06730800122022629,-0.6377010345458984,0.21398599426784465,-0.5299425316207697,-0.002804696243254451,-0.014977769496234139,-0.2702812979129583,0.0,0.0,-0.6,0.0,0.0016064643859863281,0.0027854442596435547,0.00675511360168457,0
2.288093090057373,-0.04283522069454193,-0.06730800122022629,-0.6377010345458984,0.21398599426784465,-0.5300023137420732,-0.0039877952093130276,-0.01181628303423955,-0.26944165638950174,0.0,0.0,-0.6,0.0,0.001829385757446289,0.003321409225463867,0.008879899978637695,0
2.300628185272217,-0.04283522069454193,-0.06730800122022629,-0.6377010345458984,0.21398599426784465,-0.5300474552005182,-0.004805782468298648,-0.009644117482933113,-0.26885390732310166,0.0,0.0,-0.6,0.0,0.0023043155670166016,0.004343986511230469,0.008489370346069336,0
2.3124139308929443,-0.04336017370223999,-0.06633435189723969,-0.6383631229400635,0.21214331944759146,-0.5300002516038053,-0.004529249025261476,-0.00942308360877882,-0.26775147991901904,0.0,0.0,-0.6,0.0,0.0017375946044921875,0.002829313278198242,0.006730318069458008,0
2.32182240486145,-0.04336017370223999,-0.06633435189723969,-0.6383631229400635,0.21214331944759146,-0.5299624978839356,-0.004333071585241224,-0.009281780552928635,-0.2669797807361502,0.0,0.0,-0.6,0.0,0.0018382072448730469,0.0034279823303222656,0.0065419673919677734,0
2.3300282955169678,-0.04374568164348602,-0.06564036756753922,-0.6387807726860046,0.21110253033820317,-0.5300522053744052,-0.002726910005877676,-0.009785026135017656,-0.2660492953921323,0.0,0.0,-0.6,0.0,0.0009284019470214844,0.0016765594482421875,0.0037848949432373047,0
2.3432860374450684,-0.043946024030447006,-0.06528214365243912,-0.6390201449394226,0.21004473311447314,-0.5301483778817417,-0.005359060842050433,-0.009441201193173621,-0.2650012816924211,0.0,0.0,-0.6,0.0,0.0024878978729248047,0.00439453125,0.0075151920318603516,0
2.353142499923706,-0.043946024030447006,-0.06528214365243912,-0.6390201449394226,0.21004473311447314,-0.5302238351115375,-0.007173017760530607,-0.009184707541825534,-0.2642676721026229,0.0,0.0,-0.6,0.0,0.002166748046875,0.0039675235748291016,0.007199525833129883,0
2.3646953105926514,-0.04413163661956787,-0.06492319703102112,-0.6392035484313965,0.20949899482633136,-0.5302803154179364,-0.009676972837216413,-0.007685735281210346,-0.26354949353171103,0.0,0.0,-0.6,0.0,0.0019989013671875,0.0032918453216552734,0.008079767227172852,0
2.3764166831970215,-0.04456285759806633,-0.06416720896959305,-0.6395255923271179,0.20830601336406132,-0.5302933961258157,-0.007352728348687947,-0.00252824004319817,-0.2625994004837348,0.0,0.0,-0.6,0.0,0.002085447311401367,0.0036573410034179688,0.008051156997680664,0
2.3876733779907227,-0.04456285759806633,-0.06416720896959305,-0.6395255923271179,0.20830601336406132,-0.530300982852527,-0.005765894177823611,0.000996410633514297,-0.26193433535013805,0.0,0.0,-0.6,0.0,0.0019218921661376953,0.003122091293334961,0.006649494171142578,0
2.3982419967651367,-0.04491499066352844,-0.0634029433131218,-0.6397833228111267,0.20694398822383178,-0.5303451777144931,-0.007573151504743194,0.0014823997793390025,-0.26095803032903453,0.0,0.0,-0.6,0.0,0.0014884471893310547,0.0026483535766601562,0.006924629211425781,0
2.408961057662964,-0.04491499066352844,-0.0634029433131218,-0.6397833228111267,0.20694398822383178,-0.5303794808740064,-0.008814556538529163,0.0018244327352948805,-0.2602746168142618,0.0,0.0,-0.6,0.0,0.0020279884338378906,0.0035533905029296875,0.007111072540283203,0
2.419649124145508,-0.04548175632953644,-0.062365129590034485,-0.6401028037071228,0.2050862038303126,-0.5305117694832541,-0.006185251741493002,0.004971069390057989,-0.25909955820633535,0.0,0.0,-0.6,0.0,0.002766847610473633,0.004153728485107422,0.007349491119384766,0
2.4283947944641113,-0.04548175632953644,-0.062365129590034485,-0.6401028037071228,0.2050862038303126,-0.5306163056179567,-0.0044060935047030144,0.00714627042465322,-0.25827701718080276,0.0,0.0,-0.6,0.0,0.0014138221740722656,0.002537965774536133,0.0055084228515625,0
2.4386627674102783,-0.04567691683769226,-0.06202075630426407,-0.640173614025116,0.20449306954201021,-0.530801701661054,-0.0027400305710402213,0.009003404440000872,-0.2574788131048166,0.0,0.0,-0.6,0.0,0.00186920166015625,0.0031080245971679688,0.007607460021972656,0
