time,x,y,z,yaw,throttle,roll_rate,pitch_rate,yaw_rate,x_ref,y_ref,z_ref,yaw_ref,pred_time,nr_time,metadata
3.5762786865234375e-06,-0.08199703693389893,-0.1848135143518448,-0.23859047889709473,-0.010764514701725274,-0.5484642309601896,0.0918421655275357,-0.024955327338268787,0.004036693013147318,0.0,0.0,-0.6,0.0,0.007861614227294922,0.009229660034179688,Hardware
0.014608144760131836,-0.08199703693389893,-0.1848135143518448,-0.23859047889709473,-0.010764514701725274,-0.5575102735754476,0.15496282904521652,-0.0411731474227639,0.006862378122350644,0.0,0.0,-0.6,0.0,0.0014750957489013672,0.0026209354400634766,Nonlinear
0.02239537239074707,-0.08197642862796783,-0.18476906418800354,-0.23850835859775543,-0.010714288354023539,-0.5647132251825258,0.1970598273323384,-0.05147421298733497,0.008821522818404655,0.0,0.0,-0.6,0.0,0.0010042190551757812,0.001979351043701172,1x Speed
0.031096935272216797,-0.08197642862796783,-0.18476906418800354,-0.23850835859775543,-0.010714288354023539,-0.5704685131653225,0.22410924256764903,-0.05740482891646614,0.010192924105642051,0.0,0.0,-0.6,0.0,0.002863168716430664,0.0054645538330078125,0OrderHold
0.044359445571899414,-0.08197642862796783,-0.18476906418800354,-0.23850835859775543,-0.010714288354023539,-0.5750757045699414,0.24079267615239974,-0.060443193252999454,0.011152905006708552,0.0,0.0,-0.6,0.0,0.002553701400756836,0.004835844039916992,QuatYawError
0.05941271781921387,-0.08196079730987549,-0.18476824462413788,-0.23845408856868744,-0.010695564172762038,-0.5786664545760263,0.2519990806656237,-0.0618510048608721,0.011817870069481807,0.0,0.0,-0.6,0.0,0.002382516860961914,0.004748344421386719,NoPyJoules
0.0729057788848877,-0.08196079730987549,-0.18476824462413788,-0.23845408856868744,-0.010695564172762038,-0.5815377936117826,0.25825456205532393,-0.062103283946381004,0.012283345613423069,0.0,0.0,-0.6,0.0,0.002613067626953125,0.004838228225708008,0
0.08722376823425293,-0.08195136487483978,-0.18488198518753052,-0.23848645389080048,-0.01018185027590208,-0.5838162808683148,0.26160412706666375,-0.060535439945266674,0.012416535782859438,0.0,0.0,-0.6,0.0,0.0025947093963623047,0.0047419071197509766,0
0.10223507881164551,-0.08195136487483978,-0.18488198518753052,-0.23848645389080048,-0.01018185027590208,-0.5856281736535703,0.2629174428380944,-0.05898548746770573,0.012509768901464893,0.0,0.0,-0.6,0.0,0.002559185028076172,0.004999637603759766,0
0.11767196655273438,-0.08184913545846939,-0.18501460552215576,-0.23856979608535767,-0.010505132090788618,-0.5870322530457149,0.2652638841561884,-0.05465894468841764,0.012696262765071173,0.0,0.0,-0.6,0.0,0.002490520477294922,0.004651308059692383,0
0.1315765380859375,-0.08184913545846939,-0.18501460552215576,-0.23856979608535767,-0.010505132090788618,-0.5881462783486825,0.26626202281706385,-0.05139342376602552,0.012826808469595536,0.0,0.0,-0.6,0.0,0.0027909278869628906,0.005283355712890625,0
0.14637398719787598,-0.08156653493642807,-0.18507671356201172,-0.23873063921928406,-0.010035845496783167,-0.589015873561751,0.263594352018654,-0.042991371135209254,0.012742207990010537,0.0,0.0,-0.6,0.0,0.0027544498443603516,0.004939079284667969,0
0.15965032577514648,-0.08156653493642807,-0.18507671356201172,-0.23873063921928406,-0.010035845496783167,-0.5896883817147066,0.2613530821602253,-0.03703190060571431,0.012682987654301045,0.0,0.0,-0.6,0.0,0.002475261688232422,0.0048389434814453125,0
0.1747591495513916,-0.08121388405561447,-0.18507148325443268,-0.2391258180141449,-0.009655915740348922,-0.5899694118560799,0.2597915190522194,-0.03411025541833217,0.012499059760641602,0.0,0.0,-0.6,0.0,0.002390146255493164,0.004763126373291016,0
0.18829917907714844,-0.08121388405561447,-0.18507148325443268,-0.2391258180141449,-0.009655915740348922,-0.5901851110153465,0.25858685942699133,-0.032045625009627,0.012370310235079956,0.0,0.0,-0.6,0.0,0.0023355484008789062,0.00455927848815918,0
0.20247602462768555,-0.08078420162200928,-0.18488550186157227,-0.2398296445608139,-0.008507798921878447,-0.5900581933560648,0.2458629736197983,-0.018551404152326867,0.011849641760260344,0.0,0.0,-0.6,0.0,0.0024635791778564453,0.004878044128417969,0
0.21781158447265625,-0.08078420162200928,-0.18488550186157227,-0.2398296445608139,-0.008507798921878447,-0.5899063838021771,0.23712050520059977,-0.009296713883542612,0.011485173827886627,0.0,0.0,-0.6,0.0,0.002165555953979492,0.004202842712402344,0
0.23179078102111816,-0.0801711454987526,-0.18461596965789795,-0.24144412577152252,-0.006002993657206274,-0.5892690989741541,0.2201755266050195,0.004237215951743178,0.010290744300972892,0.0,0.0,-0.6,0.0,0.0027930736541748047,0.005110740661621094,0
0.24952483177185059,-0.0801711454987526,-0.18461596965789795,-0.24144412577152252,-0.006002993657206274,-0.5887018716601226,0.20876471717541148,0.013404367423014991,0.009454643632133306,0.0,0.0,-0.6,0.0,0.0022430419921875,0.00445246696472168,0
0.26439380645751953,-0.07950931787490845,-0.18424850702285767,-0.24400880932807922,-0.002163063589737156,-0.5876255778786909,0.1887421278671103,0.025879529101572783,0.007429399388644137,0.0,0.0,-0.6,0.0,0.002735137939453125,0.004903316497802734,0
0.27905893325805664,-0.07904816418886185,-0.1839689165353775,-0.24629470705986023,0.0007549748006436065,-0.5862673428315396,0.1677990653103684,0.04096519775310329,0.004917464021809604,0.0,0.0,-0.6,0.0,0.0023572444915771484,0.0045583248138427734,0
0.2923619747161865,-0.07904816418886185,-0.1839689165353775,-0.24629470705986023,0.0007549748006436065,-0.5851193828310878,0.15401047971570367,0.051031977115233745,0.0031591092650252225,0.0,0.0,-0.6,0.0,0.0025730133056640625,0.00506281852722168,0
0.3079648017883301,-0.07826986908912659,-0.18337392807006836,-0.25069329142570496,0.005588526906976539,-0.5834020092531261,0.1285135615740646,0.06855383073375917,0.00011567889540185653,0.0,0.0,-0.6,0.0,0.0022611618041992188,0.004336833953857422,0
0.3221590518951416,-0.07826986908912659,-0.18337392807006836,-0.25069329142570496,0.005588526906976539,-0.5819569485098441,0.11180667931506305,0.08020161686632828,-0.002014722363334851,0.0,0.0,-0.6,0.0,0.002537965774536133,0.004887104034423828,0
0.3365437984466553,-0.07742296904325485,-0.18259185552597046,-0.2560634911060333,0.011216629495950023,-0.5803455401773364,0.07938968779133684,0.09487355551328955,-0.005616541715315178,0.0,0.0,-0.6,0.0,0.002301931381225586,0.004292011260986328,0
0.35080718994140625,-0.07742296904325485,-0.18259185552597046,-0.2560634911060333,0.011216629495950023,-0.5789716059238511,0.05791661585293391,0.10458059385822038,-0.008137815261702095,0.0,0.0,-0.6,0.0,0.002457857131958008,0.004542350769042969,0
0.3649277687072754,-0.07652033865451813,-0.18167434632778168,-0.26240459084510803,0.018068927785297926,-0.5772344182508445,0.029344326520734147,0.11440995555354891,-0.012472318602680435,0.0,0.0,-0.6,0.0,0.0027098655700683594,0.004619598388671875,0
0.37848448753356934,-0.07652033865451813,-0.18167434632778168,-0.26240459084510803,0.018068927785297926,-0.5757855289201492,0.010584851377568982,0.12080014090634214,-0.015506470941362625,0.0,0.0,-0.6,0.0,0.0022699832916259766,0.004071950912475586,0
0.3920609951019287,-0.07561186701059341,-0.18066038191318512,-0.2695993185043335,0.02545857900037647,-0.5740898388540241,-0.015101708172239148,0.12330479245529453,-0.020401496784094364,0.0,0.0,-0.6,0.0,0.002570629119873047,0.00511479377746582,0
0.40584897994995117,-0.07561186701059341,-0.18066038191318512,-0.2695993185043335,0.02545857900037647,-0.5726919042017691,-0.03190874915046438,0.12471761100499211,-0.023828014874006778,0.0,0.0,-0.6,0.0,0.002376556396484375,0.0034646987915039062,0
0.4171125888824463,-0.07482799887657166,-0.17985162138938904,-0.27536541223526,0.031801481454993424,-0.5711707657415174,-0.05749205111368559,0.12951039427949715,-0.028605165957428718,0.0,0.0,-0.6,0.0,0.0015721321105957031,0.002974271774291992,0
0.4289212226867676,-0.07482799887657166,-0.17985162138938904,-0.27536541223526,0.031801481454993424,-0.569920002958635,-0.07436056582185707,0.13251356967843148,-0.03194917171582074,0.0,0.0,-0.6,0.0,0.002355337142944336,0.003406047821044922,0
0.44035935401916504,-0.0740790143609047,-0.1790478378534317,-0.28068050742149353,0.036741103384528455,-0.5685913195193801,-0.08658603819903998,0.1358977299519137,-0.036142333970270314,0.0,0.0,-0.6,0.0,0.0014193058013916016,0.003936767578125,0
0.4542255401611328,-0.0740790143609047,-0.1790478378534317,-0.28068050742149353,0.036741103384528455,-0.5675226766217215,-0.09444648228751483,0.1380049518297245,-0.03907754754838573,0.0,0.0,-0.6,0.0,0.0023145675659179688,0.003418445587158203,0
0.46613049507141113,-0.07323995232582092,-0.17804594337940216,-0.2868608236312866,0.04364547527962174,-0.5664803480238448,-0.10204839611148668,0.14079228684741588,-0.043721336513727546,0.0,0.0,-0.6,0.0,0.00170135498046875,0.0030014514923095703,0
0.47812390327453613,-0.07323995232582092,-0.17804594337940216,-0.2868608236312866,0.04364547527962174,-0.565646369997997,-0.10688506797874056,0.1425447318294545,-0.046971988789467005,0.0,0.0,-0.6,0.0,0.003559589385986328,0.006997108459472656,0
0.49927282333374023,-0.0716329962015152,-0.1762865036725998,-0.29743751883506775,0.05412440610101523,-0.5644324162480274,-0.1071550937396081,0.14980869867448765,-0.05317704444050141,0.0,0.0,-0.6,0.0,0.002907276153564453,0.007116079330444336,0
0.521399736404419,-0.0716329962015152,-0.1762865036725998,-0.29743751883506775,0.05412440610101523,-0.5634688909485855,-0.10696945411859436,0.15462377857544687,-0.05752058339622736,0.0,0.0,-0.6,0.0,0.003673553466796875,0.0066792964935302734,0
0.5427367687225342,-0.06991460919380188,-0.1741274893283844,-0.3083368241786957,0.06469649580451493,-0.5623820691162622,-0.1107739330611739,0.15802628662019141,-0.06452559430405132,0.0,0.0,-0.6,0.0,0.00353240966796875,0.007279872894287109,0
0.5636014938354492,-0.06991460919380188,-0.1741274893283844,-0.3083368241786957,0.06469649580451493,-0.5615175366424839,-0.1130766011660607,0.16020788781790304,-0.06942910193952838,0.0,0.0,-0.6,0.0,0.0031464099884033203,0.0068585872650146484,0
0.5816152095794678,-0.06747032701969147,-0.17082153260707855,-0.32263073325157166,0.07802926541017885,-0.5601639482320379,-0.10753735098787003,0.17232648609467158,-0.07786134588648581,0.0,0.0,-0.6,0.0,0.0043337345123291016,0.0077762603759765625,0
0.602442741394043,-0.06747032701969147,-0.17082153260707855,-0.32263073325157166,0.07802926541017885,-0.5590918288946273,-0.10348884038177461,0.1804930815172745,-0.08376391664935635,0.0,0.0,-0.6,0.0,0.0037674903869628906,0.0058803558349609375,0
0.624319314956665,-0.0658349022269249,-0.16844242811203003,-0.331897497177124,0.08664499643418361,-0.5579392399391473,-0.09751076678668218,0.1806441232455592,-0.09112661531736094,0.0,0.0,-0.6,0.0,0.0030541419982910156,0.006074190139770508,0
0.6427135467529297,-0.06413741409778595,-0.16606523096561432,-0.34130555391311646,0.09513539837123229,-0.5567988415920803,-0.09674765420604306,0.17339260726859496,-0.09946440511137089,0.0,0.0,-0.6,0.0,0.0034945011138916016,0.007547140121459961,0
0.6639137268066406,-0.06413741409778595,-0.16606523096561432,-0.34130555391311646,0.09513539837123229,-0.5558873900535327,-0.09594958891442786,0.1684026058320137,-0.10530085796717602,0.0,0.0,-0.6,0.0,0.025859832763671875,0.02941441535949707,0
0.7081806659698486,-0.06047207489609718,-0.1608227789402008,-0.3605349063873291,0.11181393045966292,-0.5545271725842159,-0.08801660922769575,0.15949336382809104,-0.11564082449938647,0.0,0.0,-0.6,0.0,0.0021882057189941406,0.0055234432220458984,0
0.7282676696777344,-0.06047207489609718,-0.1608227789402008,-0.3605349063873291,0.11181393045966292,-0.5534382612201842,-0.08233282232211872,0.15346632990496376,-0.12287880107193688,0.0,0.0,-0.6,0.0,0.00218963623046875,0.004087686538696289,0
0.7468850612640381,-0.05832416191697121,-0.15754665434360504,-0.3710120916366577,0.12093084453680883,-0.5523648478012685,-0.08031352745834024,0.14753280536705296,-0.13136422745166537,0.0,0.0,-0.6,0.0,0.002753734588623047,0.004850625991821289,0
0.7654595375061035,-0.05651235207915306,-0.15477105975151062,-0.3797363042831421,0.12843978653223992,-0.551336760134065,-0.07336599699025298,0.14228692054953995,-0.14011987916574697,0.0,0.0,-0.6,0.0,0.001642465591430664,0.0032541751861572266,0
0.7756564617156982,-0.05651235207915306,-0.15477105975151062,-0.3797363042831421,0.12843978653223992,-0.5505149643616967,-0.06845430287165814,0.13876464795631546,-0.14624883536560673,0.0,0.0,-0.6,0.0,0.004361867904663086,0.00590205192565918,0
0.7973034381866455,-0.05516891926527023,-0.15265609323978424,-0.386055052280426,0.13319988122305912,-0.5496853873287821,-0.06127287886657009,0.13607025179084156,-0.1523241402145658,0.0,0.0,-0.6,0.0,0.00449681282043457,0.007414579391479492,0
0.8202197551727295,-0.0533246248960495,-0.14971046149730682,-0.3947092592716217,0.14076607969211222,-0.5488927141604586,-0.05675406790336436,0.12690523829458825,-0.15941417803473104,0.0,0.0,-0.6,0.0,0.004496335983276367,0.007988691329956055,0
0.84311842918396,-0.0533246248960495,-0.14971046149730682,-0.3947092592716217,0.14076607969211222,-0.5482552804545078,-0.05353263567893476,0.12068964437388244,-0.16437720450884885,0.0,0.0,-0.6,0.0,0.003149747848510742,0.00666046142578125,0
0.8639037609100342,-0.05021122470498085,-0.14470620453357697,-0.40970245003700256,0.1519484007634082,-0.547511972276485,-0.04403818215747011,0.10764025829096313,-0.17204469344246462,0.0,0.0,-0.6,0.0,0.004188060760498047,0.0077593326568603516,0
0.8838851451873779,-0.05021122470498085,-0.14470620453357697,-0.40970245003700256,0.1519484007634082,-0.5469096959446034,-0.037423956822962866,0.09880991802821318,-0.17741193569599795,0.0,0.0,-0.6,0.0,0.0047664642333984375,0.008154153823852539,0
0.9053037166595459,-0.047771476209163666,-0.14089718461036682,-0.42132946848869324,0.160271222673644,-0.5463006286972366,-0.026175402816232846,0.09071130074845107,-0.18429006348980817,0.0,0.0,-0.6,0.0,0.003825664520263672,0.007874011993408203,0
0.9280917644500732,-0.04607267677783966,-0.13817140460014343,-0.42967066168785095,0.16609879280888032,-0.5456866995712609,-0.01633834352724078,0.079748302535982,-0.19129009174618883,0.0,0.0,-0.6,0.0,0.0034422874450683594,0.0075626373291015625,0
0.9482614994049072,-0.04607267677783966,-0.13817140460014343,-0.42967066168785095,0.16609879280888032,-0.5451912486088698,-0.009523376627652326,0.07233093855122256,-0.1961901115256574,0.0,0.0,-0.6,0.0,0.00354766845703125,0.00579524040222168,0
0.9692695140838623,-0.04393412172794342,-0.13459354639053345,-0.4408150315284729,0.1734395359388067,-0.5446627768517573,-0.0011410642885444182,0.06299486335673843,-0.20237290404500652,0.0,0.0,-0.6,0.0,0.004166841506958008,0.007219791412353516,0
0.9910886287689209,-0.04282147437334061,-0.13270150125026703,-0.4466777443885803,0.17696710597464874,-0.5442163568058809,0.01009786310896166,0.052425475347743396,-0.20802369757199218,0.0,0.0,-0.6,0.0,0.003038167953491211,0.005037784576416016,0
1.011136531829834,-0.04179000481963158,-0.13088779151439667,-0.45238518714904785,0.18079315008347718,-0.5438754236335727,0.01665567757029522,0.03818490144426527,-0.21341401958169307,0.0,0.0,-0.6,0.0,0.0036520957946777344,0.007991552352905273,0
1.033421277999878,-0.04179000481963158,-0.13088779151439667,-0.45238518714904785,0.18079315008347718,-0.543598928194705,0.0212168990812439,0.028488905349759716,-0.21718724498848532,0.0,0.0,-0.6,0.0,0.003984689712524414,0.008025884628295898,0
1.056680679321289,-0.03942646458745003,-0.12658387422561646,-0.46637603640556335,0.18863296359493226,-0.5431032309104799,0.029215535169260953,0.019172086409268117,-0.22276843284003373,0.0,0.0,-0.6,0.0,0.0028657913208007812,0.0064356327056884766,0
1.07586669921875,-0.03942646458745003,-0.12658387422561646,-0.46637603640556335,0.18863296359493226,-0.542707951394109,0.03476451853848136,0.012851626412716543,-0.22667526433611931,0.0,0.0,-0.6,0.0,0.003683328628540039,0.0052144527435302734,0
1.0951364040374756,-0.03779914230108261,-0.1232524961233139,-0.47747963666915894,0.1945818396249063,-0.5422279497707951,0.03634498984086546,-0.0009263035715720708,-0.23164087489461843,0.0,0.0,-0.6,0.0,0.002804279327392578,0.0058553218841552734,0
1.1161396503448486,-0.03779914230108261,-0.1232524961233139,-0.47747963666915894,0.1945818396249063,-0.5418424882595875,0.03752867603809647,-0.010319607322174669,-0.23511680228556928,0.0,0.0,-0.6,0.0,0.004031658172607422,0.007748126983642578,0
1.1363301277160645,-0.03644633665680885,-0.12022534757852554,-0.4884784519672394,0.19991899946252778,-0.5413211488598196,0.040022670057830376,-0.021182328284741384,-0.23955138639834198,0.0,0.0,-0.6,0.0,0.0035521984100341797,0.006873130798339844,0
1.1553287506103516,-0.03644633665680885,-0.12022534757852554,-0.4884784519672394,0.19991899946252778,-0.5409060920640961,0.041826411632935614,-0.028593755579675025,-0.2426555952772842,0.0,0.0,-0.6,0.0,0.0029754638671875,0.005061149597167969,0
1.1717162132263184,-0.03558163717389107,-0.11792568862438202,-0.49713465571403503,0.20378610180703174,-0.5405385057380466,0.04540379103643341,-0.03845512767063744,-0.2462787048717322,0.0,0.0,-0.6,0.0,0.003451108932495117,0.006656169891357422,0
1.1893651485443115,-0.03558163717389107,-0.11792568862438202,-0.49713465571403503,0.20378610180703174,-0.5402483051602489,0.04791945666964554,-0.04519414900420628,-0.24881488158784693,0.0,0.0,-0.6,0.0,0.003557443618774414,0.007851600646972656,0
1.209697961807251,-0.03482363000512123,-0.11546722054481506,-0.5069125890731812,0.20774108034365527,-0.5399220888959467,0.04981197873021202,-0.054168586323914227,-0.25207332224036033,0.0,0.0,-0.6,0.0,0.003628253936767578,0.007930755615234375,0
1.2318341732025146,-0.03482363000512123,-0.11546722054481506,-0.5069125890731812,0.20774108034365527,-0.5396652952683845,0.05116994623084752,-0.060312793034995905,-0.25435423069712065,0.0,0.0,-0.6,0.0,0.0034017562866210938,0.006998538970947266,0
1.2533657550811768,-0.03422977775335312,-0.11238248646259308,-0.5187945365905762,0.21221956066636122,-0.5393987733396338,0.05540691429977874,-0.06431786629712044,-0.2576302967378211,0.0,0.0,-0.6,0.0,0.0035462379455566406,0.007443428039550781,0
1.273977518081665,-0.03422977775335312,-0.11238248646259308,-0.5187945365905762,0.21221956066636122,-0.5391905896358552,0.058351694304539146,-0.0670687266635081,-0.25992354296635795,0.0,0.0,-0.6,0.0,0.004029273986816406,0.007908344268798828,0
1.2954909801483154,-0.03400452807545662,-0.10975664854049683,-0.5294381976127625,0.21640952940600913,-0.539003763510905,0.06566479263622367,-0.06918238925374967,-0.2631000536037008,0.0,0.0,-0.6,0.0,0.0033102035522460938,0.005360603332519531,0
1.3170409202575684,-0.03400452807545662,-0.10975664854049683,-0.5294381976127625,0.21640952940600913,-0.5388605423627859,0.07069876065625104,-0.07063512610810596,-0.26532361104984176,0.0,0.0,-0.6,0.0,0.003248453140258789,0.007013559341430664,0
1.3388798236846924,-0.034141603857278824,-0.10768815129995346,-0.5378480553627014,0.21888475145526462,-0.53885326765653,0.07211132682352062,-0.07533343601686376,-0.2678083095305765,0.0,0.0,-0.6,0.0,0.003259420394897461,0.006945610046386719,0
1.3563048839569092,-0.034141603857278824,-0.10768815129995346,-0.5378480553627014,0.21888475145526462,-0.5388516684768421,0.07308799463664431,-0.07854414480926122,-0.26954759846710186,0.0,0.0,-0.6,0.0,0.0015218257904052734,0.0036253929138183594,0
1.3703458309173584,-0.0343509279191494,-0.10604117065668106,-0.5442543029785156,0.2206354077549783,-0.538900494557874,0.07081131229866731,-0.0754135292376941,-0.27142159683508627,0.0,0.0,-0.6,0.0,0.002036571502685547,0.004043102264404297,0
1.3836581707000732,-0.03455270081758499,-0.10513824224472046,-0.547920286655426,0.22176544822347477,-0.5389912462474987,0.0670054660658183,-0.0762477511614205,-0.27315716086836167,0.0,0.0,-0.6,0.0,0.004011631011962891,0.00513005256652832,0
1.3961961269378662,-0.03455270081758499,-0.10513824224472046,-0.547920286655426,0.22176544822347477,-0.5390609698865764,0.06438732442187421,-0.07680379139455971,-0.274372055691655,0.0,0.0,-0.6,0.0,0.0026633739471435547,0.00472712516784668,0
1.4106090068817139,-0.03511488065123558,-0.10362927615642548,-0.5538943409919739,0.22325690346196642,-0.5390908580035935,0.06122983518469576,-0.07493254861004452,-0.2757817777823945,0.0,0.0,-0.6,0.0,0.0029942989349365234,0.005240917205810547,0
1.424239158630371,-0.03511488065123558,-0.10362927615642548,-0.5538943409919739,0.22325690346196642,-0.5391102304268557,0.059063029191671786,-0.0736476579316333,-0.2767685832459126,0.0,0.0,-0.6,0.0,0.0018200874328613281,0.0030291080474853516,0
1.4349348545074463,-0.03551790863275528,-0.10263493657112122,-0.5576796531677246,0.22405997427013805,-0.5392217033051699,0.05843887329829787,-0.07224012814945206,-0.27776049862343954,0.0,0.0,-0.6,0.0,0.0022962093353271484,0.003206968307495117,0
1.4449653625488281,-0.03551790863275528,-0.10263493657112122,-0.5576796531677246,0.22405997427013805,-0.5393088191118256,0.05798932786869645,-0.07125399304769457,-0.2784548393877184,0.0,0.0,-0.6,0.0,0.0019195079803466797,0.003042459487915039,0
1.4561796188354492,-0.03594312444329262,-0.10164760053157806,-0.5613365769386292,0.2249596379591387,-0.5394653613120923,0.05539126466388318,-0.06775599808073096,-0.27927825180607907,0.0,0.0,-0.6,0.0,0.002440214157104492,0.004136562347412109,0
1.4653961658477783,-0.03594312444329262,-0.10164760053157806,-0.5613365769386292,0.2249596379591387,-0.5395846014070872,0.05357923261899443,-0.06532875038826991,-0.2798546404989318,0.0,0.0,-0.6,0.0,0.002264738082885742,0.003648996353149414,0
1.475437879562378,-0.036642834544181824,-0.10017046332359314,-0.5666645765304565,0.22586965647607654,-0.5396745748750039,0.04417928073397702,-0.06305027614047629,-0.2805993695277802,0.0,0.0,-0.6,0.0,0.0015921592712402344,0.002558469772338867,0
1.4838240146636963,-0.036642834544181824,-0.10017046332359314,-0.5666645765304565,0.22586965647607654,-0.5397354561379266,0.03772950653696688,-0.06147146614145712,-0.2811206798479743,0.0,0.0,-0.6,0.0,0.002394437789916992,0.0033359527587890625,0
1.493926763534546,-0.036642834544181824,-0.10017046332359314,-0.5666645765304565,0.22586965647607654,-0.53977729943386,0.03330585817514302,-0.06037736397317943,-0.28148559707211035,0.0,0.0,-0.6,0.0,0.0014081001281738281,0.0034956932067871094,0
1.5056090354919434,-0.03715666010975838,-0.09918401390314102,-0.5701113343238831,0.22632675652269968,-0.5397647834364113,0.031207902959683786,-0.05595047612717794,-0.2819124516464892,0.0,0.0,-0.6,0.0,0.0024056434631347656,0.004037618637084961,0
1.5179030895233154,-0.03769996762275696,-0.098170705139637,-0.5735026001930237,0.2268908183254029,-0.5397975901413931,0.02829259239690481,-0.052038492428744476,-0.2824227730245609,0.0,0.0,-0.6,0.0,0.0014696121215820312,0.0023577213287353516,0
1.5257604122161865,-0.03769996762275696,-0.098170705139637,-0.5735026001930237,0.2268908183254029,-0.5398178109600148,0.026290038536725343,-0.04935429054293029,-0.2827799979892184,0.0,0.0,-0.6,0.0,0.003320932388305664,0.004300832748413086,0
1.5364222526550293,-0.03769996762275696,-0.098170705139637,-0.5735026001930237,0.2268908183254029,-0.5398300522411135,0.024915386061858877,-0.047513122376729854,-0.2830300554644787,0.0,0.0,-0.6,0.0,0.001409769058227539,0.003238677978515625,0
1.5488877296447754,-0.038270626217126846,-0.09714534878730774,-0.5767794847488403,0.22736761680234388,-0.5398792168165166,0.020862395721660626,-0.04526620684367922,-0.28338389512601364,0.0,0.0,-0.6,0.0,0.0010311603546142578,0.0018548965454101562,0
1.5583653450012207,-0.03855461999773979,-0.09661940485239029,-0.5783888101577759,0.2275545683544883,-0.5398710292535079,0.01579502152134368,-0.04190457441837008,-0.28370168972114235,0.0,0.0,-0.6,0.0,0.0020847320556640625,0.003654003143310547,0
1.568347454071045,-0.03855461999773979,-0.09661940485239029,-0.5783888101577759,0.2275545683544883,-0.5398578442567215,0.012329755935175483,-0.03960644754939691,-0.2839241459377294,0.0,0.0,-0.6,0.0,0.0024344921112060547,0.0035173892974853516,0
1.5785512924194336,-0.039450135082006454,-0.0949794203042984,-0.5830476880073547,0.227873462400447,-0.5398837963363959,-0.0005992828070531184,-0.03284445553247756,-0.2841994505565779,0.0,0.0,-0.6,0.0,0.0010135173797607422,0.0018930435180664062,0
1.5863282680511475,-0.039450135082006454,-0.0949794203042984,-0.5830476880073547,0.227873462400447,-0.5398880804493225,-0.009449082738798301,-0.028211282509104645,-0.284392163789772,0.0,0.0,-0.6,0.0,0.002079010009765625,0.003415346145629883,0
1.5958030223846436,-0.039450135082006454,-0.0949794203042984,-0.5830476880073547,0.227873462400447,-0.5398820038738931,-0.015502647692240763,-0.025040232556187456,-0.2845270630530079,0.0,0.0,-0.6,0.0,0.00235748291015625,0.004014253616333008,0
1.606806993484497,-0.040303029119968414,-0.09325525909662247,-0.5874463319778442,0.22803464043626376,-0.5399802663654005,-0.01952744755916065,-0.017963416706952673,-0.28468193430070643,0.0,0.0,-0.6,0.0,0.001703023910522461,0.0026051998138427734,0
1.61665678024292,-0.040303029119968414,-0.09325525909662247,-0.5874463319778442,0.22803464043626376,-0.540049945572059,-0.022299902807036812,-0.013096237288189951,-0.28479034417409327,0.0,0.0,-0.6,0.0,0.0018420219421386719,0.002756357192993164,0
1.6263723373413086,-0.040303029119968414,-0.09325525909662247,-0.5874463319778442,0.22803464043626376,-0.5401000816336006,-0.02420908019839729,-0.009749321395966444,-0.28486623108546305,0.0,0.0,-0.6,0.0,0.0018892288208007812,0.0033507347106933594,0
1.637620449066162,-0.0408591628074646,-0.09201887995004654,-0.5902538895606995,0.22819877791683035,-0.5402187912272322,-0.028969574191250364,-0.006254050841716244,-0.2849809034786354,0.0,0.0,-0.6,0.0,0.0012247562408447266,0.003190755844116211,0
1.6494932174682617,-0.04125812277197838,-0.0912938192486763,-0.5919272303581238,0.22825104799917492,-0.5403351335521217,-0.03647716098064424,0.002212171707970865,-0.28508077543473526,0.0,0.0,-0.6,0.0,0.0017168521881103516,0.003314495086669922,0
1.6604304313659668,-0.041549064218997955,-0.09067439287900925,-0.5932288765907288,0.22820170022522776,-0.5404573233788248,-0.042134295787863894,0.006070132085383926,-0.285132180388775,0.0,0.0,-0.6,0.0,0.0010097026824951172,0.0018687248229980469,0
1.670973300933838,-0.041862957179546356,-0.0900508463382721,-0.5944998264312744,0.22817541995180457,-0.5405936045628463,-0.04706198443845888,0.007476805880847731,-0.28515830875406883,0.0,0.0,-0.6,0.0,0.002020120620727539,0.003912210464477539,0
1.6813650131225586,-0.04252658784389496,-0.08866072446107864,-0.5972105860710144,0.2280838701304412,-0.5408684570080333,-0.05490414734579485,0.009809788734967805,-0.2851422674267637,0.0,0.0,-0.6,0.0,0.0010323524475097656,0.00189971923828125,0
1.6917438507080078,-0.04252658784389496,-0.08866072446107864,-0.5972105860710144,0.2280838701304412,-0.5410834296187539,-0.06030905543697342,0.011475796322319773,-0.28513103849765004,0.0,0.0,-0.6,0.0,0.0016660690307617188,0.003144979476928711,0
1.7014439105987549,-0.04252658784389496,-0.08866072446107864,-0.5972105860710144,0.2280838701304412,-0.5412524540478314,-0.06403472977538997,0.012668983578236957,-0.28512317824727057,0.0,0.0,-0.6,0.0,0.002121448516845703,0.003775358200073242,0
1.7135391235351562,-0.04328475147485733,-0.08673866093158722,-0.600301206111908,0.22783436950954422,-0.5415201768743675,-0.0666048932510189,0.01982519883887318,-0.28502411333916994,0.0,0.0,-0.6,0.0,0.0022211074829101562,0.0038983821868896484,0
1.7231547832489014,-0.04328475147485733,-0.08673866093158722,-0.600301206111908,0.22783436950954422,-0.5417274871978779,-0.06839572403352319,0.024791013506218935,-0.28495476790349905,0.0,0.0,-0.6,0.0,0.002119779586791992,0.0037856101989746094,0
1.7333285808563232,-0.04385034367442131,-0.08530241996049881,-0.6023878455162048,0.22771897296258894,-0.5418927159093421,-0.07169748134981166,0.028250091209467552,-0.28486295239342024,0.0,0.0,-0.6,0.0,0.0019047260284423828,0.0038137435913085938,0
1.7449524402618408,-0.04385034367442131,-0.08530241996049881,-0.6023878455162048,0.22771897296258894,-0.542021867881032,-0.07397380356808576,0.0306564368084556,-0.28479868153636595,0.0,0.0,-0.6,0.0,0.002039194107055664,0.003789186477661133,0
1.755918264389038,-0.04455164819955826,-0.08324228227138519,-0.6051023006439209,0.2273102873601922,-0.5422043594576603,-0.07436635758630952,0.03437497710811792,-0.28460043483552844,0.0,0.0,-0.6,0.0,0.0017256736755371094,0.0036745071411132812,0
1.7660653591156006,-0.04455164819955826,-0.08324228227138519,-0.6051023006439209,0.2273102873601922,-0.5423473927265353,-0.07465200407798152,0.036961927598205914,-0.2844616621449421,0.0,0.0,-0.6,0.0,0.0019195079803466797,0.002933025360107422,0
1.7745873928070068,-0.04479752480983734,-0.08248502761125565,-0.6060213446617126,0.22721061211332585,-0.5424847046579121,-0.07508746775487878,0.039506215225376666,-0.2843271430439568,0.0,0.0,-0.6,0.0,0.002959012985229492,0.0042705535888671875,0
1.7862770557403564,-0.04479752480983734,-0.08248502761125565,-0.6060213446617126,0.22721061211332585,-0.5425926692637241,-0.07539767805613032,0.041277566910078216,-0.28423297967326705,0.0,0.0,-0.6,0.0,0.0021266937255859375,0.0030269622802734375,0
1.7942979335784912,-0.045334480702877045,-0.0807843804359436,-0.6079046726226807,0.22708216196665812,-0.5428710649711607,-0.075175647678928,0.04239878423757693,-0.28411889650878386,0.0,0.0,-0.6,0.0,0.002195119857788086,0.0041697025299072266,0
1.8052983283996582,-0.045334480702877045,-0.0807843804359436,-0.6079046726226807,0.22708216196665812,-0.5430922418288481,-0.07504519783446709,0.04322635142457283,-0.28403903829364446,0.0,0.0,-0.6,0.0,0.0022742748260498047,0.004153251647949219,0
1.81866455078125,-0.04576190933585167,-0.07920709252357483,-0.6094858646392822,0.22684123841070133,-0.543285772218084,-0.07410333463813966,0.04424663544662982,-0.2838927912095643,0.0,0.0,-0.6,0.0,0.0020263195037841797,0.0038824081420898438,0
1.8300178050994873,-0.0461098849773407,-0.0777302011847496,-0.6108202338218689,0.22664803282914425,-0.5435159638178584,-0.07422353176198525,0.042956207349931476,-0.2837179661576243,0.0,0.0,-0.6,0.0,0.0011034011840820312,0.0027704238891601562,0
1.8424901962280273,-0.04632900282740593,-0.07686872035264969,-0.6115382313728333,0.2265973834868044,-0.5436217046907351,-0.07615643826465987,0.043502547136958995,-0.28357659511789074,0.0,0.0,-0.6,0.0,0.002315521240234375,0.003269672393798828,0
1.85337233543396,-0.04632900282740593,-0.07686872035264969,-0.6115382313728333,0.2265973834868044,-0.5437059844807188,-0.07748370968730973,0.04389836766807725,-0.2834776353900766,0.0,0.0,-0.6,0.0,0.001984834671020508,0.004349231719970703,0
1.8651294708251953,-0.04661071300506592,-0.07524453848600388,-0.6128221750259399,0.22617686561133304,-0.5438579339085562,-0.07726491644948862,0.0458201272874644,-0.2832506693773037,0.0,0.0,-0.6,0.0,0.0015301704406738281,0.002437114715576172,0
1.8749639987945557,-0.04678525775671005,-0.07434064149856567,-0.6134933233261108,0.2260085349815481,-0.5439684994952727,-0.07794446010907824,0.0466444705878119,-0.2830286691821933,0.0,0.0,-0.6,0.0,0.001834869384765625,0.002936124801635742,0
1.8855059146881104,-0.04678525775671005,-0.07434064149856567,-0.6134933233261108,0.2260085349815481,-0.5440563674879156,-0.07841324060976253,0.04722976121689752,-0.282873269045616,0.0,0.0,-0.6,0.0,0.0021572113037109375,0.003597259521484375,0
1.8964464664459229,-0.04709766060113907,-0.07253735512495041,-0.6147761940956116,0.22571802719351025,-0.5442437795735721,-0.0781832787148889,0.04603489421390394,-0.28265554852949776,0.0,0.0,-0.6,0.0,0.0021991729736328125,0.003223419189453125,0
1.9066803455352783,-0.04732159152626991,-0.07086063921451569,-0.6158400774002075,0.22538446976949106,-0.544403609670853,-0.07402189295640944,0.04872809180460483,-0.2823780601342117,0.0,0.0,-0.6,0.0,0.002358675003051758,0.0039920806884765625,0
1.9175293445587158,-0.04732159152626991,-0.07086063921451569,-0.6158400774002075,0.22538446976949106,-0.5445283051131541,-0.07117784227617255,0.05060013958691414,-0.2821838182575102,0.0,0.0,-0.6,0.0,0.002530336380004883,0.0034530162811279297,0
1.9300222396850586,-0.047591980546712875,-0.06899268180131912,-0.6169098019599915,0.2249569345818642,-0.5447361659318886,-0.06877972265441636,0.04620167460471534,-0.2818875232484606,0.0,0.0,-0.6,0.0,0.0011463165283203125,0.00278472900390625,0
1.939387559890747,-0.047591980546712875,-0.06899268180131912,-0.6169098019599915,0.2249569345818642,-0.5449022926316475,-0.06714356140962674,0.04322836561234528,-0.28168011674212456,0.0,0.0,-0.6,0.0,0.002302408218383789,0.003278970718383789,0
1.9486470222473145,-0.047822222113609314,-0.06709401309490204,-0.6179295182228088,0.22454740027310915,-0.5451179083407365,-0.06646499079798843,0.04011431633332484,-0.2813813568219034,0.0,0.0,-0.6,0.0,0.0019528865814208984,0.003875732421875,0
1.9590837955474854,-0.047822222113609314,-0.06709401309490204,-0.6179295182228088,0.22454740027310915,-0.5452904892737018,-0.06600282490715079,0.038021702198961616,-0.2811722248777485,0.0,0.0,-0.6,0.0,0.0017974376678466797,0.002905130386352539,0
1.9710314273834229,-0.047994308173656464,-0.06516719609498978,-0.6188236474990845,0.2239889991790002,-0.5454737265146188,-0.0648306479818108,0.041580828473230955,-0.2808164321065494,0.0,0.0,-0.6,0.0,0.001332998275756836,0.002195596694946289,0
1.9806528091430664,-0.04808959737420082,-0.06418383121490479,-0.6192362308502197,0.22367780340560262,-0.545635676174429,-0.06281589488795164,0.04445783236254079,-0.28045067875168084,0.0,0.0,-0.6,0.0,0.001971721649169922,0.0032622814178466797,0
1.9916486740112305,-0.04808959737420082,-0.06418383121490479,-0.6192362308502197,0.22367780340560262,-0.5457627821637901,-0.06143567366212392,0.04645388016935237,-0.2801946514032778,0.0,0.0,-0.6,0.0,0.0022509098052978516,0.003686666488647461,0
2.0023069381713867,-0.04832454398274422,-0.06123794987797737,-0.6203661561012268,0.22311246810206622,-0.5459536339934942,-0.05594273009532639,0.041284130596815655,-0.2798034315205643,0.0,0.0,-0.6,0.0,0.0010280609130859375,0.0018930435180664062,0
2.012167453765869,-0.04832454398274422,-0.06123794987797737,-0.6203661561012268,0.22311246810206622,-0.546104574228173,-0.052181233885094325,0.037776765506808446,-0.2795295776026701,0.0,0.0,-0.6,0.0,0.0019750595092773438,0.00411224365234375,0
2.023031711578369,-0.04832454398274422,-0.06123794987797737,-0.6203661561012268,0.22311246810206622,-0.5462245213365194,-0.04960606431192988,0.03540195123943938,-0.2793378798601441,0.0,0.0,-0.6,0.0,0.0013892650604248047,0.003148794174194336,0
2.0346639156341553,-0.04846028983592987,-0.05925004556775093,-0.6210352182388306,0.22257641563181224,-0.5463966723622522,-0.04833523660726796,0.0330102912467409,-0.2790026717640354,0.0,0.0,-0.6,0.0,0.0021469593048095703,0.004149198532104492,0
2.046860694885254,-0.04852219671010971,-0.058275576680898666,-0.6213495135307312,0.22220707237977036,-0.5465797756157762,-0.04807059502992145,0.0321612926800376,-0.27862952237723904,0.0,0.0,-0.6,0.0,0.0025925636291503906,0.003533601760864258,0
2.058931350708008,-0.048661619424819946,-0.056288134306669235,-0.6219034790992737,0.2216658360867981,-0.5467007773825948,-0.047266941627860284,0.031601042830143714,-0.27816535419661065,0.0,0.0,-0.6,0.0,0.002642393112182617,0.003684520721435547,0
2.068056583404541,-0.048661619424819946,-0.056288134306669235,-0.6219034790992737,0.2216658360867981,-0.5467970311805712,-0.04671396335952442,0.031235972932189514,-0.2778404364701771,0.0,0.0,-0.6,0.0,0.001996755599975586,0.0035741329193115234,0
2.081408739089966,-0.048750925809144974,-0.05429460108280182,-0.6223978400230408,0.2209862737940675,-0.5469073568037907,-0.04240305352705048,0.028501859148335727,-0.2773581582018931,0.0,0.0,-0.6,0.0,0.0019240379333496094,0.003553152084350586,0
2.0910985469818115,-0.048750925809144974,-0.05429460108280182,-0.6223978400230408,0.2209862737940675,-0.5469944608026797,-0.03945160290230242,0.02664652056973039,-0.2770205634141008,0.0,0.0,-0.6,0.0,0.0020973682403564453,0.003197193145751953,0
2.1009678840637207,-0.04884355142712593,-0.05232403054833412,-0.6227623820304871,0.2204201944266072,-0.547150419058343,-0.03820364587416057,0.022524370757780382,-0.2765719672998549,0.0,0.0,-0.6,0.0,0.0026102066040039062,0.0038690567016601562,0
2.1131722927093506,-0.04884355142712593,-0.05232403054833412,-0.6227623820304871,0.2204201944266072,-0.5472754024922358,-0.03734778952381287,0.019725362095377286,-0.27625795001987646,0.0,0.0,-0.6,0.0,0.0021131038665771484,0.004342794418334961,0
2.126830577850342,-0.04891730099916458,-0.049420811235904694,-0.6232274174690247,0.21941354549568992,-0.5475397865935211,-0.03947352820896001,0.01658875876488887,-0.27566064457479783,0.0,0.0,-0.6,0.0,0.0024580955505371094,0.004365205764770508,0
2.138965368270874,-0.04891730099916458,-0.049420811235904694,-0.6232274174690247,0.21941354549568992,-0.5477516991382448,-0.04092207507171051,0.014479105687441382,-0.2752425307632426,0.0,0.0,-0.6,0.0,0.0035758018493652344,0.00520014762878418,0
2.152444839477539,-0.04896053299307823,-0.04738035798072815,-0.6234344840049744,0.2184803462609419,-0.5479350355148294,-0.03780933573197449,0.011136112225258479,-0.2745999013821326,0.0,0.0,-0.6,0.0,0.002129793167114258,0.0031516551971435547,0
2.161207675933838,-0.04896053299307823,-0.04738035798072815,-0.6234344840049744,0.2184803462609419,-0.5480810577955533,-0.03567432909754194,0.008873346302266239,-0.2741500608153465,0.0,0.0,-0.6,0.0,0.00231170654296875,0.004331111907958984,0
2.1739635467529297,-0.04900887981057167,-0.04538509622216225,-0.623528778553009,0.21759719296846322,-0.5483014259165996,-0.034659794105649254,0.007377337642462593,-0.2735039899339169,0.0,0.0,-0.6,0.0,0.0021610260009765625,0.0032134056091308594,0
2.1827211380004883,-0.04900887981057167,-0.04538509622216225,-0.623528778553009,0.21759719296846322,-0.5484770815988316,-0.03395931472627961,0.006384243119293292,-0.273051740316916,0.0,0.0,-0.6,0.0,0.002208232879638672,0.005117893218994141,0
2.1955697536468506,-0.04903485253453255,-0.043560415506362915,-0.6235257983207703,0.2169924102206882,-0.5486393266244388,-0.03221872900090923,0.007032737356656587,-0.27250837205459977,0.0,0.0,-0.6,0.0,0.0017559528350830078,0.003987789154052734,0
2.207735300064087,-0.04903485253453255,-0.043560415506362915,-0.6235257983207703,0.2169924102206882,-0.5487676796627555,-0.031022544298828177,0.007498781267907119,-0.27212801427097827,0.0,0.0,-0.6,0.0,0.0019032955169677734,0.003642559051513672,0
2.219122886657715,-0.049053438007831573,-0.041052620857954025,-0.6234561800956726,0.21573324979437034,-0.548995761888721,-0.030293913259117993,0.004833350157647437,-0.2713895786625744,0.0,0.0,-0.6,0.0,0.0016086101531982422,0.0031218528747558594,0
2.2286431789398193,-0.049053438007831573,-0.041052620857954025,-0.6234561800956726,0.21573324979437034,-0.5491780177615564,-0.02978913046446054,0.0030397578595254063,-0.2708726737366915,0.0,0.0,-0.6,0.0,0.0014548301696777344,0.0037353038787841797,0
2.2408666610717773,-0.049053438007831573,-0.041052620857954025,-0.6234561800956726,0.21573324979437034,-0.5493236146765759,-0.029438605148608094,0.0018376084089456138,-0.2705108402885733,0.0,0.0,-0.6,0.0,0.002447366714477539,0.0035400390625,0
2.2524349689483643,-0.049131449311971664,-0.038668110966682434,-0.6231914162635803,0.21442718177033465,-0.5495496753034151,-0.026506298744968917,0.0007786832514079711,-0.26976778136587753,0.0,0.0,-0.6,0.0,0.002287626266479492,0.003929615020751953,0
2.263937473297119,-0.049131449311971664,-0.038668110966682434,-0.6231914162635803,0.21442718177033465,-0.5497291498328236,-0.024492215371138687,8.514110023427406e-05,-0.2692476401199903,0.0,0.0,-0.6,0.0,0.0019311904907226562,0.003346681594848633,0
2.274843454360962,-0.049150336533784866,-0.03706842288374901,-0.6229470372200012,0.21358781650375566,-0.5498734081600732,-0.022276468175639236,0.0003784029963856625,-0.2685687792729023,0.0,0.0,-0.6,0.0,0.002378702163696289,0.004400968551635742,0
2.284635305404663,-0.049150336533784866,-0.03706842288374901,-0.6229470372200012,0.21358781650375566,-0.5499875267366607,-0.020756207125994786,0.0005994157257176249,-0.26809357667994704,0.0,0.0,-0.6,0.0,0.0021817684173583984,0.004019498825073242,0
2.296994686126709,-0.049155645072460175,-0.03492659702897072,-0.6225821375846863,0.2123411327892689,-0.5501891572680802,-0.02152216371830129,-0.0007184791887934821,-0.2672934284719285,0.0,0.0,-0.6,0.0,0.0019769668579101562,0.0028939247131347656,0
2.304810047149658,-0.049155645072460175,-0.03492659702897072,-0.6225821375846863,0.2123411327892689,-0.5503502667813945,-0.022041513871234233,-0.0015907604719451506,-0.2667333247263263,0.0,0.0,-0.6,0.0,0.0011181831359863281,0.0028498172760009766,0
2.3162038326263428,-0.049170829355716705,-0.03421633318066597,-0.6223955750465393,0.21166203559735308,-0.55049329914629,-0.020423638842554905,0.0004880335086875657,-0.26608659065744544,0.0,0.0,-0.6,0.0,0.0023965835571289062,0.003993988037109375,0
2.329308032989502,-0.04922221973538399,-0.03282435983419418,-0.6220065355300903,0.21054686103378686,-0.5505931633200667,-0.016993976097347662,0.003687723157128153,-0.26521568634788273,0.0,0.0,-0.6,0.0,0.001827239990234375,0.0035245418548583984,0
2.3407657146453857,-0.04922221973538399,-0.03282435983419418,-0.6220065355300903,0.21054686103378686,-0.5506702586727168,-0.014642499051031564,0.005890775003904723,-0.2646060533311886,0.0,0.0,-0.6,0.0,0.0019142627716064453,0.0029654502868652344,0
2.351313352584839,-0.04924494028091431,-0.03146233782172203,-0.6215628981590271,0.2094875835068768,-0.5508290562209999,-0.01328159908829948,0.0019907800967657236,-0.26378208114691165,0.0,0.0,-0.6,0.0,0.0022139549255371094,0.003918170928955078,0
2.36147141456604,-0.04924494028091431,-0.03146233782172203,-0.6215628981590271,0.2094875835068768,-0.5509565989403757,-0.012349151529302166,-0.0006573606976564028,-0.2632053006179175,0.0,0.0,-0.6,0.0,0.0018417835235595703,0.0029077529907226562,0
2.371168851852417,-0.049289483577013016,-0.030126746743917465,-0.6210729479789734,0.20842175511547592,-0.5511018762526222,-0.011974941027719113,-0.0017504097684699139,-0.2624018686008465,0.0,0.0,-0.6,0.0,0.0018374919891357422,0.00372314453125,0
2.381669044494629,-0.049289483577013016,-0.030126746743917465,-0.6210729479789734,0.20842175511547592,-0.5512178683244428,-0.011716631808414537,-0.0024771405976599043,-0.26183946618890436,0.0,0.0,-0.6,0.0,0.001280069351196289,0.003100156784057617,0
2.392538547515869,-0.04932563379406929,-0.028858419507741928,-0.6205596923828125,0.2074566985918795,-0.5513582058136482,-0.010338189590520786,0.0013894973105245717,-0.2610838883041991,0.0,0.0,-0.6,0.0,0.0010325908660888672,0.0019576549530029297,0
2.4030230045318604,-0.049384452402591705,-0.028236262500286102,-0.6202836036682129,0.20687810774670906,-0.551468321027496,-0.008523862293529798,0.00361786008498755,-0.260338012217956,0.0,0.0,-0.6,0.0,0.002045869827270508,0.003689289093017578,0
2.4145820140838623,-0.049384452402591705,-0.028236262500286102,-0.6202836036682129,0.20687810774670906,-0.5515545655373177,-0.007279234558443327,0.005158895215316041,-0.2598158989575856,0.0,0.0,-0.6,0.0,0.002309083938598633,0.0041277408599853516,0
2.4260036945343018,-0.049540113657712936,-0.026352815330028534,-0.61937016248703,0.20513242855250266,-0.5517357677733357,-0.00680923608643424,0.0011791515571643865,-0.2587957899774853,0.0,0.0,-0.6,0.0,0.0028579235076904297,0.004650115966796875,0
2.437714099884033,-0.049540113657712936,-0.026352815330028534,-0.61937016248703,0.20513242855250266,-0.5518813523339393,-0.006487725312843124,-0.0015199362657851412,-0.2580817136914289,0.0,0.0,-0.6,0.0,0.0019578933715820312,0.0037806034088134766,0
2.4503400325775146,-0.04961505904793739,-0.02510719560086727,-0.6187204718589783,0.20402467205202526,-0.5520563655753802,-0.00943152830473239,-0.0011472854264210368,-0.2571664516035106,0.0,0.0,-0.6,0.0,0.001909494400024414,0.0028600692749023438,0
2.4617652893066406,-0.049668747931718826,-0.024501744657754898,-0.6183577179908752,0.2034141859901026,-0.5522779721878411,-0.012362426393312425,0.0001642204863027154,-0.2562968358687347,0.0,0.0,-0.6,0.0,0.0014047622680664062,0.003391742706298828,0
2.470975637435913,-0.049668747931718826,-0.024501744657754898,-0.6183577179908752,0.2034141859901026,-0.55245367460399,-0.014366313271280988,0.001097823524613773,-0.25568810485440335,0.0,0.0,-0.6,0.0,0.0019192695617675781,0.003324270248413086,0
2.4821245670318604,-0.049796197563409805,-0.023341229185461998,-0.6176084876060486,0.20232930907194963,-0.5524412620677857,-0.013019789268169372,0.001494978946821163,-0.2548551643000758,0.0,0.0,-0.6,0.0,0.00179290771484375,0.0033249855041503906,0
2.4918575286865234,-0.049796197563409805,-0.023341229185461998,-0.6176084876060486,0.20232930907194963,-0.5524310402204213,-0.012098453962956281,0.0017644016948888705,-0.2542721059120267,0.0,0.0,-0.6,0.0,0.002144336700439453,0.003986358642578125,0
2.5035781860351562,-0.04994653910398483,-0.022228525951504707,-0.6168436408042908,0.2012509778474474,-0.5525622515736678,-0.008619611781119203,0.0005380025702287107,-0.2534595908312123,0.0,0.0,-0.6,0.0,0.002694368362426758,0.004796028137207031,0
2.5164387226104736,-0.04994653910398483,-0.022228525951504707,-0.6168436408042908,0.2012509778474474,-0.5526667052829306,-0.0062382872454512855,-0.00028324509299259377,-0.25289083027464193,0.0,0.0,-0.6,0.0,0.0013401508331298828,0.0026874542236328125,0
2.5284242630004883,-0.050121571868658066,-0.021084345877170563,-0.6158939003944397,0.1996850796893086,-0.5528058819271783,-0.006937971655156734,0.0014864023448026662,-0.2519054860757411,0.0,0.0,-0.6,0.0,0.002254486083984375,0.004031181335449219,0
2.541186571121216,-0.05030267313122749,-0.020061524584889412,-0.6150683760643005,0.1986107763087977,-0.5528936631843556,-0.006565210770439968,0.0024670123760038003,-0.250812881368819,0.0,0.0,-0.6,0.0,0.0019872188568115234,0.003103494644165039,0
2.5514025688171387,-0.05030267313122749,-0.020061524584889412,-0.6150683760643005,0.1986107763087977,-0.5529629608602118,-0.006310692803664092,0.003151725456872691,-0.25004805807397323,0.0,0.0,-0.6,0.0,0.0023953914642333984,0.003446340560913086,0
2.5642006397247314,-0.05047430470585823,-0.019101271405816078,-0.6143532395362854,0.19750494973706334,-0.5530851783873324,-0.008220193278372864,0.0013515771803630468,-0.24909799680318095,0.0,0.0,-0.6,0.0,0.0029528141021728516,0.0047571659088134766,0
2.575427770614624,-0.05047430470585823,-0.019101271405816078,-0.6143532395362854,0.19750494973706334,-0.553183148199132,-0.009529886585255333,0.0001388196214167864,-0.2484329539136261,0.0,0.0,-0.6,0.0,0.002480745315551758,0.003434419631958008,0
2.5869810581207275,-0.05076143518090248,-0.01784779131412506,-0.6131709814071655,0.19593727723367668,-0.5533061652849214,-0.008779792678562461,0.0001897464469756592,-0.24737954670216808,0.0,0.0,-0.6,0.0,0.0013191699981689453,0.002286195755004883,0
2.5945358276367188,-0.05076143518090248,-0.01784779131412506,-0.6131709814071655,0.19593727723367668,-0.553403901355755,-0.00826742121672624,0.0002441989492275403,-0.24664216165414715,0.0,0.0,-0.6,0.0,0.0027091503143310547,0.004365444183349609,0
2.605741262435913,-0.05101298168301582,-0.017055831849575043,-0.6123194694519043,0.1949120087865734,-0.5535055155969616,-0.008844089085060326,-0.003030800997270926,-0.2457415164528689,0.0,0.0,-0.6,0.0,0.002343893051147461,0.004029035568237305,0
2.6197452545166016,-0.05101298168301582,-0.017055831849575043,-0.6123194694519043,0.1949120087865734,-0.5535878975868337,-0.00924148990080316,-0.005256530417955979,-0.24511106481197387,0.0,0.0,-0.6,0.0,0.0017757415771484375,0.004082441329956055,0
2.631378412246704,-0.05135220289230347,-0.016008300706744194,-0.6111521124839783,0.19318330215743393,-0.5536373658369041,-0.006397827418476671,-0.005231966991614268,-0.24402148367742052,0.0,0.0,-0.6,0.0,0.0025832653045654297,0.0044667720794677734,0
2.6429123878479004,-0.05135220289230347,-0.016008300706744194,-0.6111521124839783,0.19318330215743393,-0.5536765079693995,-0.004452114747505526,-0.0052088053472902395,-0.24325877688323286,0.0,0.0,-0.6,0.0,0.0022842884063720703,0.003818035125732422,0
2.6538898944854736,-0.051634885370731354,-0.015292440541088581,-0.6102244853973389,0.19202038761391677,-0.5538314603380006,-0.007416429834064176,-0.006752732933736742,-0.24228878917348276,0.0,0.0,-0.6,0.0,0.002177000045776367,0.0034263134002685547,0
2.664234161376953,-0.051634885370731354,-0.015292440541088581,-0.6102244853973389,0.19202038761391677,-0.5539553183595715,-0.00944955639334211,-0.007782824018340581,-0.2416097977766574,0.0,0.0,-0.6,0.0,0.0022935867309570312,0.0037691593170166016,0
2.674868106842041,-0.052101366221904755,-0.014249329455196857,-0.6088459491729736,0.19026751467472974,-0.5541084748149754,-0.010807462038161414,-0.007503416160246512,-0.24047717644668495,0.0,0.0,-0.6,0.0,0.002129793167114258,0.003646373748779297,0
2.6852686405181885,-0.052101366221904755,-0.014249329455196857,-0.6088459491729736,0.19026751467472974,-0.5542300536420858,-0.011739400942881057,-0.00728596670995939,-0.23968434151570392,0.0,0.0,-0.6,0.0,0.002087831497192383,0.0038695335388183594,0
2.6964356899261475,-0.052101366221904755,-0.014249329455196857,-0.6088459491729736,0.19026751467472974,-0.5543265836326989,-0.012378970713011224,-0.007116677167236907,-0.23912935706401695,0.0,0.0,-0.6,0.0,0.001589059829711914,0.002542257308959961,0
2.705731153488159,-0.052490733563899994,-0.013626281172037125,-0.6076865196228027,0.1887160399843689,-0.5544809248195031,-0.011478122314342384,-0.012811802265233329,-0.23815906493895117,0.0,0.0,-0.6,0.0,0.0019326210021972656,0.0029761791229248047,0
2.7171971797943115,-0.052490733563899994,-0.013626281172037125,-0.6076865196228027,0.1887160399843689,-0.5546063193858349,-0.010866322087493486,-0.016688116011788247,-0.23747986045140485,0.0,0.0,-0.6,0.0,0.001898050308227539,0.0040476322174072266,0
2.729779005050659,-0.0528278574347496,-0.012999932281672955,-0.6066017150878906,0.18738776083117295,-0.5547923167280556,-0.01168896019395723,-0.015969485436289826,-0.23650631262767421,0.0,0.0,-0.6,0.0,0.002187490463256836,0.00397038459777832,0
2.7407383918762207,-0.05314459651708603,-0.012290256097912788,-0.6055997610092163,0.18609588578179428,-0.5549707810481561,-0.015659345602756197,-0.017989612798374494,-0.23534037600754595,0.0,0.0,-0.6,0.0,0.0023021697998046875,0.004467487335205078,0
2.7527682781219482,-0.05314459651708603,-0.012290256097912788,-0.6055997610092163,0.18609588578179428,-0.555113615141643,-0.01838366421310695,-0.019340569397084614,-0.23452422037345583,0.0,0.0,-0.6,0.0,0.0015187263488769531,0.0037240982055664062,0
2.7653720378875732,-0.05354832112789154,-0.011655285023152828,-0.6044225692749023,0.18482344457755628,-0.5552418494391357,-0.019793320062695706,-0.02018396942295493,-0.23347574597800372,0.0,0.0,-0.6,0.0,0.0014753341674804688,0.0023717880249023438,0
2.774381399154663,-0.053732529282569885,-0.011367144994437695,-0.6038362979888916,0.18419608814658636,-0.5553502281507697,-0.018668636010735217,-0.022243569408315945,-0.23250655523957345,0.0,0.0,-0.6,0.0,0.0017693042755126953,0.0028679370880126953,0
2.7846522331237793,-0.053732529282569885,-0.011367144994437695,-0.6038362979888916,0.18419608814658636,-0.5554375802107027,-0.01790169982271549,-0.023636005883737047,-0.23182812172267198,0.0,0.0,-0.6,0.0,0.0024476051330566406,0.0038123130798339844,0
2.795833110809326,-0.054154083132743835,-0.010832470841705799,-0.6026299595832825,0.18298349186377655,-0.5556201944498128,-0.014836482115032294,-0.02504386421784383,-0.2308984946547875,0.0,0.0,-0.6,0.0,0.0018994808197021484,0.003091096878051758,0
2.8054661750793457,-0.054154083132743835,-0.010832470841705799,-0.6026299595832825,0.18298349186377655,-0.5557660513681671,-0.012741850664858298,-0.02597706475706687,-0.2302477557072681,0.0,0.0,-0.6,0.0,0.002839803695678711,0.004751682281494141,0
2.81872296333313,-0.05480341240763664,-0.010124984197318554,-0.6008374691009521,0.18083886221323217,-0.5559273166470237,-0.014682971920233455,-0.027763193017946088,-0.228988002325051,0.0,0.0,-0.6,0.0,0.0021364688873291016,0.0037636756896972656,0
2.830723762512207,-0.05480341240763664,-0.010124984197318554,-0.6008374691009521,0.18083886221323217,-0.5560566075019368,-0.01601795054385314,-0.028956246415376273,-0.22810617495749866,0.0,0.0,-0.6,0.0,0.0021049976348876953,0.0036902427673339844,0
2.8421499729156494,-0.055292751640081406,-0.009685724973678589,-0.5996364951133728,0.1794215011066568,-0.5561415670036493,-0.016169151768595614,-0.03251769752782952,-0.2269573853852465,0.0,0.0,-0.6,0.0,0.001882791519165039,0.0033197402954101562,0
2.852686643600464,-0.055292751640081406,-0.009685724973678589,-0.5996364951133728,0.1794215011066568,-0.556211538897403,-0.016276990758635757,-0.034941530836934506,-0.22615323268466966,0.0,0.0,-0.6,0.0,0.002119779586791992,0.003512144088745117,0
2.86108660697937,-0.0557931549847126,-0.009275523945689201,-0.5984349250793457,0.17797988283813748,-0.5562755600226418,-0.012484206192022278,-0.03548926200362789,-0.22504971894357143,0.0,0.0,-0.6,0.0,0.0019421577453613281,0.0036656856536865234,0
2.8716835975646973,-0.0557931549847126,-0.009275523945689201,-0.5984349250793457,0.17797988283813748,-0.5563266278544697,-0.009889347894008468,-0.03585441053001555,-0.22427725932480233,0.0,0.0,-0.6,0.0,0.0018062591552734375,0.0033206939697265625,0
2.882331609725952,-0.05635865777730942,-0.008892023004591465,-0.5972478985786438,0.17664498346840224,-0.5563877955554951,-0.007960197526238683,-0.0369253435144055,-0.2232359503280135,0.0,0.0,-0.6,0.0,0.002249479293823242,0.0031998157501220703,0
2.8925037384033203,-0.05635865777730942,-0.008892023004591465,-0.5972478985786438,0.17664498346840224,-0.5564372486775638,-0.006641998617038479,-0.03764832761558015,-0.222507034030261,0.0,0.0,-0.6,0.0,0.002470254898071289,0.0040743350982666016,0
2.9023306369781494,-0.056908003985881805,-0.008583120070397854,-0.5960806012153625,0.17512044225844067,-0.5564942384361425,-0.006436497157157105,-0.038144513188935324,-0.22142508966809904,0.0,0.0,-0.6,0.0,0.005221128463745117,0.006785869598388672,0
2.9182770252227783,-0.056908003985881805,-0.008583120070397854,-0.5960806012153625,0.17512044225844067,-0.5565399328950745,-0.006298108288850762,-0.03847313883078427,-0.22066772861458533,0.0,0.0,-0.6,0.0,0.0015664100646972656,0.002789020538330078,0
2.9287490844726562,-0.057778552174568176,-0.008179636672139168,-0.5943915247917175,0.17277750156465654,-0.5565349091058923,-0.0032498745715889414,-0.039574550750266245,-0.21925897311695736,0.0,0.0,-0.6,0.0,0.0020215511322021484,0.0035619735717773438,0
2.939159393310547,-0.057778552174568176,-0.008179636672139168,-0.5943915247917175,0.17277750156465654,-0.5565318299261269,-0.0011643022176555588,-0.040332822103925706,-0.21827284426861734,0.0,0.0,-0.6,0.0,0.0017652511596679688,0.002985715866088867,0
2.949284076690674,-0.057778552174568176,-0.008179636672139168,-0.5943915247917175,0.17277750156465654,-0.5565301017159664,0.00026282871827177485,-0.04085429420381207,-0.21758255407477903,0.0,0.0,-0.6,0.0,0.0021619796752929688,0.003744840621948242,0
2.960564613342285,-0.058683305978775024,-0.007842741906642914,-0.5927734971046448,0.17060756483055817,-0.5565571480170132,-0.0016243651794843367,-0.04376536819854219,-0.21628562466380594,0.0,0.0,-0.6,0.0,0.0014917850494384766,0.002693653106689453,0
2.9710001945495605,-0.05898233503103256,-0.0077479747124016285,-0.5922499895095825,0.1699920310314261,-0.5565935723909154,-0.0027923907745340372,-0.04362298506629773,-0.21514694890145009,0.0,0.0,-0.6,0.0,0.0020339488983154297,0.0037202835083007812,0
2.9816176891326904,-0.05898233503103256,-0.0077479747124016285,-0.5922499895095825,0.1699920310314261,-0.5566222870981686,-0.0035937395066139542,-0.04351672881425003,-0.21434987586780063,0.0,0.0,-0.6,0.0,0.0023453235626220703,0.0038139820098876953,0
2.9927945137023926,-0.05965576693415642,-0.007665175944566727,-0.591172993183136,0.16813945401880429,-0.5565034206290237,0.0015995139799017087,-0.0449963827062282,-0.21309720836451332,0.0,0.0,-0.6,0.0,0.0016772747039794922,0.002794981002807617,0
3.0012800693511963,-0.05965576693415642,-0.007665175944566727,-0.591172993183136,0.16813945401880429,-0.55641026767298,0.005155995709753173,-0.04604072916743379,-0.2122203411122118,0.0,0.0,-0.6,0.0,0.0014638900756835938,0.0026464462280273438,0
3.012345552444458,-0.060335222631692886,-0.007550277281552553,-0.590271532535553,0.16672777784596185,-0.5563298063008199,0.007214695838600153,-0.04402531632577878,-0.2110771554707851,0.0,0.0,-0.6,0.0,0.0018007755279541016,0.0038933753967285156,0
3.0233938694000244,-0.060335222631692886,-0.007550277281552553,-0.590271532535553,0.16672777784596185,-0.5562641693866848,0.008627758808832578,-0.042664661836277526,-0.21027692552178603,0.0,0.0,-0.6,0.0,0.0018301010131835938,0.00424504280090332,0
3.0342772006988525,-0.061073899269104004,-0.007497100625187159,-0.589324951171875,0.16487274584259787,-0.5561590820413503,0.012569182883081752,-0.042878428259081516,-0.20902112755622568,0.0,0.0,-0.6,0.0,0.0026993751525878906,0.004282474517822266,0
3.0457472801208496,-0.061073899269104004,-0.007497100625187159,-0.589324951171875,0.16487274584259787,-0.5560762530911528,0.015271348758966125,-0.043052423962417465,-0.20814206898033305,0.0,0.0,-0.6,0.0,0.0014951229095458984,0.0037064552307128906,0
3.0564169883728027,-0.06186690926551819,-0.007466946262866259,-0.5884634256362915,0.16352710415024058,-0.5560579963942509,0.014540495591128981,-0.04512804629941565,-0.20702211234257448,0.0,0.0,-0.6,0.0,0.0023679733276367188,0.0039098262786865234,0
3.0698225498199463,-0.06186690926551819,-0.007466946262866259,-0.5884634256362915,0.16352710415024058,-0.5560452143738639,0.014039461676725271,-0.046554046547652314,-0.20623814269614313,0.0,0.0,-0.6,0.0,0.0020737648010253906,0.003564119338989258,0
3.0806009769439697,-0.06299906224012375,-0.007382610812783241,-0.5873239636421204,0.1613993406742046,-0.5559999286397234,0.012534217025826178,-0.045203125851631554,-0.20489145264012826,0.0,0.0,-0.6,0.0,0.0015172958374023438,0.0030934810638427734,0
3.091710090637207,-0.06299906224012375,-0.007382610812783241,-0.5873239636421204,0.1613993406742046,-0.5559622087279205,0.011506452661654516,-0.04428757941643515,-0.20394876960091746,0.0,0.0,-0.6,0.0,0.0018286705017089844,0.0033817291259765625,0
3.100706100463867,-0.06299906224012375,-0.007382610812783241,-0.5873239636421204,0.1613993406742046,-0.5559310906447175,0.01080477085669012,-0.043669002881252944,-0.2032888914734696,0.0,0.0,-0.6,0.0,0.0014922618865966797,0.0026302337646484375,0
3.1127233505249023,-0.06383629888296127,-0.007534644566476345,-0.5865561962127686,0.15948199094217028,-0.5558785449345977,0.009651556458613339,-0.043084896541494395,-0.20210797063474376,0.0,0.0,-0.6,0.0,0.0018274784088134766,0.003835916519165039,0
3.12306547164917,-0.06383629888296127,-0.007534644566476345,-0.5865561962127686,0.15948199094217028,-0.5558359389650235,0.008864676339586694,-0.04269717823536106,-0.2012813260476353,0.0,0.0,-0.6,0.0,0.0015361309051513672,0.002698183059692383,0
3.133739471435547,-0.0649680495262146,-0.0076254624873399734,-0.5856066346168518,0.15709536076938355,-0.5557168729764815,0.00973311190010458,-0.04115993965555839,-0.199807688521865,0.0,0.0,-0.6,0.0,0.002787351608276367,0.0041124820709228516,0
3.144317388534546,-0.0649680495262146,-0.0076254624873399734,-0.5856066346168518,0.15709536076938355,-0.555620808150532,0.010335297458526214,-0.04013880534272059,-0.19877614225382537,0.0,0.0,-0.6,0.0,0.002614259719848633,0.003954887390136719,0
3.1565589904785156,-0.06578228622674942,-0.007763315923511982,-0.5849930644035339,0.15554068552067665,-0.555549690595063,0.009598014964710577,-0.03791439677629203,-0.1974710566479328,0.0,0.0,-0.6,0.0,0.0020415782928466797,0.0035724639892578125,0
