time,x,y,z,yaw,throttle,roll_rate,pitch_rate,yaw_rate,x_ref,y_ref,z_ref,yaw_ref,pred_time,nr_time,metadata
2.1457672119140625e-06,-0.04354388266801834,-0.04515184834599495,-0.24034452438354492,0.006392964929516077,-0.5484369328559032,0.017815044240465126,-0.01319676340561964,-0.002397361848568471,0.0,0.0,-0.6,0.0,0.0188901424407959,0.02031230926513672,Hardware
0.02792954444885254,-0.04354388266801834,-0.04515184834599495,-0.24034452438354492,0.006392964929516077,-0.5575215881888892,0.02977387240642354,-0.02135631947443014,-0.004075515142566418,0.0,0.0,-0.6,0.0,0.001733541488647461,0.003022432327270508,Nonlinear
0.03718447685241699,-0.043436720967292786,-0.04520685225725174,-0.24027331173419952,0.006521708997856537,-0.5646970135208894,0.03802420841465323,-0.026634341315286678,-0.005298501473992664,0.0,0.0,-0.6,0.0,0.0010688304901123047,0.0019497871398925781,1x Speed
0.04373049736022949,-0.04341477155685425,-0.045219965279102325,-0.24025528132915497,0.006525054349525229,-0.5703565042364264,0.0429925323790151,-0.029157976259679072,-0.006155846412866898,0.0,0.0,-0.6,0.0,0.0015323162078857422,0.002583026885986328,0OrderHold
0.05187797546386719,-0.0433761328458786,-0.04524006322026253,-0.24023360013961792,0.006480659573220636,-0.5748408434111663,0.04591316526323715,-0.030119866746431283,-0.006739339828964616,0.0,0.0,-0.6,0.0,0.0013437271118164062,0.002344846725463867,QuatYawError
0.0613398551940918,-0.043348655104637146,-0.04525383934378624,-0.24021212756633759,0.006443664159167805,-0.5783989691908173,0.047623675268547036,-0.03013100057235312,-0.007133911939963148,0.0,0.0,-0.6,0.0,0.0017082691192626953,0.0028104782104492188,NoPyJoules
0.07161092758178711,-0.04332586005330086,-0.04526712745428085,-0.24020418524742126,0.006490053543749804,-0.5811460882736283,0.04869553537378816,-0.029613206952989694,-0.0074275084368804044,0.0,0.0,-0.6,0.0,0.0014231204986572266,0.0026569366455078125,0
0.08186674118041992,-0.04327195882797241,-0.04530516639351845,-0.24020372331142426,0.006309021347921105,-0.5832919345121111,0.049011733018452894,-0.028542239827957623,-0.007565138911286694,0.0,0.0,-0.6,0.0,0.0015604496002197266,0.002803325653076172,0
0.09188127517700195,-0.04327195882797241,-0.04530516639351845,-0.24020372331142426,0.006309021347921105,-0.5849866765649719,0.04899794394483211,-0.027539533102555216,-0.007661480243371098,0.0,0.0,-0.6,0.0,0.0021867752075195312,0.004311800003051758,0
0.1055912971496582,-0.04323743283748627,-0.04533475264906883,-0.24023455381393433,0.0063338165645109665,-0.5863263209318165,0.049261568288624824,-0.025936688229654944,-0.007738217382051379,0.0,0.0,-0.6,0.0,0.0022096633911132812,0.004204988479614258,0
0.11853742599487305,-0.04323743283748627,-0.04533475264906883,-0.24023455381393433,0.0063338165645109665,-0.5873838914812728,0.04929936884286626,-0.02467520338763574,-0.007791933379127588,0.0,0.0,-0.6,0.0,0.00254058837890625,0.004857540130615234,0
0.13376259803771973,-0.04315542057156563,-0.045396026223897934,-0.24033141136169434,0.006841192643914095,-0.5881714418794809,0.04844596746393749,-0.021142889061554253,-0.008019800606857141,0.0,0.0,-0.6,0.0,0.0026760101318359375,0.0050241947174072266,0
0.14693927764892578,-0.04315542057156563,-0.045396026223897934,-0.24033141136169434,0.006841192643914095,-0.588791086660024,0.04777277618987057,-0.01862086669140264,-0.00817930766626778,0.0,0.0,-0.6,0.0,0.0024559497833251953,0.004835367202758789,0
0.16178369522094727,-0.042852312326431274,-0.04553050547838211,-0.24050255119800568,0.006886766072418222,-0.5892069034222939,0.05005885162602068,-0.016292400523475845,-0.008308052643544277,0.0,0.0,-0.6,0.0,0.002724885940551758,0.005138874053955078,0
0.17551469802856445,-0.042852312326431274,-0.04553050547838211,-0.24050255119800568,0.006886766072418222,-0.5895355204741354,0.05158859686428301,-0.0146451808958267,-0.008398174127637825,0.0,0.0,-0.6,0.0,0.0025146007537841797,0.004656314849853516,0
0.1907212734222412,-0.04252800717949867,-0.04571909084916115,-0.2409231811761856,0.007167731909255127,-0.5894590688624589,0.05134156091354735,-0.008907804648407873,-0.008566621355317145,0.0,0.0,-0.6,0.0,0.002571582794189453,0.004958629608154297,0
0.206099271774292,-0.04236914590001106,-0.04588065668940544,-0.24125142395496368,0.007733807918992136,-0.5892404391635788,0.052447223014150966,-0.003046993438887715,-0.008896812918344045,0.0,0.0,-0.6,0.0,0.0021483898162841797,0.0041348934173583984,0
0.2197127342224121,-0.04201890528202057,-0.04631846398115158,-0.2422902137041092,0.00922863978333573,-0.5885644394398869,0.056045321203801825,0.00554657243130367,-0.009688508961591711,0.0,0.0,-0.6,0.0,0.002245187759399414,0.004365682601928711,0
0.23281502723693848,-0.04201890528202057,-0.04631846398115158,-0.2422902137041092,0.00922863978333573,-0.5880268584212271,0.058577796928385724,0.011360491331316218,-0.010242696191865082,0.0,0.0,-0.6,0.0,0.002750873565673828,0.0051631927490234375,0
0.24813437461853027,-0.041508667171001434,-0.047049347311258316,-0.2450266033411026,0.012401176363401305,-0.5865080761387974,0.06316957019724603,0.023699483368091225,-0.011820328470580838,0.0,0.0,-0.6,0.0,0.0023124217987060547,0.004505157470703125,0
0.26128339767456055,-0.041508667171001434,-0.047049347311258316,-0.2450266033411026,0.012401176363401305,-0.5853014608923041,0.06646692338412603,0.03194657859301448,-0.012924671065682168,0.0,0.0,-0.6,0.0,0.002225160598754883,0.004636526107788086,0
0.27521276473999023,-0.04118701070547104,-0.04759547859430313,-0.24768458306789398,0.015045837530437806,-0.5836140780980409,0.07271698444526793,0.04507493617738168,-0.014689458819891844,0.0,0.0,-0.6,0.0,0.0024068355560302734,0.004799604415893555,0
0.29137277603149414,-0.04085337370634079,-0.048224058002233505,-0.251072496175766,0.018243058025772942,-0.5815318915094777,0.07966825371464835,0.06126220666325298,-0.017123767933589877,0.0,0.0,-0.6,0.0,0.002396106719970703,0.004583597183227539,0
0.30437612533569336,-0.04085337370634079,-0.048224058002233505,-0.251072496175766,0.018243058025772942,-0.5798790799481065,0.08468324785620009,0.07204460866786475,-0.018827784313178282,0.0,0.0,-0.6,0.0,0.0026137828826904297,0.004774570465087891,0
0.31774282455444336,-0.04028305411338806,-0.04924678057432175,-0.2576090693473816,0.023699104281721835,-0.5774778892799649,0.08743902346771883,0.08561119891855282,-0.022066613124872164,0.0,0.0,-0.6,0.0,0.002447843551635742,0.004709482192993164,0
0.33194470405578613,-0.04028305411338806,-0.04924678057432175,-0.2576090693473816,0.023699104281721835,-0.5755716866386905,0.08968430420820339,0.09454132898150394,-0.024333793293055902,0.0,0.0,-0.6,0.0,0.0026869773864746094,0.004882335662841797,0
0.3460371494293213,-0.0396805964410305,-0.050462666898965836,-0.26583006978034973,0.029566442305997545,-0.5728048111877263,0.09422825540065564,0.10880626765787216,-0.02812107116988771,0.0,0.0,-0.6,0.0,0.0021965503692626953,0.004216670989990234,0
0.3587939739227295,-0.0396805964410305,-0.050462666898965836,-0.26583006978034973,0.029566442305997545,-0.5706097166937372,0.09780452268912093,0.11816985977839177,-0.030772165683671273,0.0,0.0,-0.6,0.0,0.002385854721069336,0.004682064056396484,0
0.3734562397003174,-0.03904670849442482,-0.05193694308400154,-0.27551987767219543,0.036110166548535425,-0.5677806174322203,0.10577969320330538,0.13257219594358952,-0.035081828434268235,0.0,0.0,-0.6,0.0,0.0024437904357910156,0.004621028900146484,0
0.38696908950805664,-0.03904670849442482,-0.05193694308400154,-0.27551987767219543,0.036110166548535425,-0.5655398086769375,0.11175903672182105,0.14206314343973273,-0.03809859235968684,0.0,0.0,-0.6,0.0,0.0026903152465820312,0.005103588104248047,0
0.401538610458374,-0.038603127002716064,-0.053134601563215256,-0.28378695249557495,0.04112293679398346,-0.5629672862672339,0.11763491959459885,0.1529882785362685,-0.042090115949522326,0.0,0.0,-0.6,0.0,0.0021209716796875,0.004007577896118164,0
0.41419124603271484,-0.038603127002716064,-0.053134601563215256,-0.28378695249557495,0.04112293679398346,-0.5609302783798115,0.12219978953723237,0.16020358820814512,-0.044884182462406635,0.0,0.0,-0.6,0.0,0.002299070358276367,0.004354238510131836,0
0.42785143852233887,-0.03796699643135071,-0.05498269572854042,-0.29670587182044983,0.04864209019637482,-0.5582249515462052,0.12586349919631373,0.1581523003362053,-0.04965971154732457,0.0,0.0,-0.6,0.0,0.002255678176879883,0.004522562026977539,0
0.4410083293914795,-0.03796699643135071,-0.05498269572854042,-0.29670587182044983,0.04864209019637482,-0.5560752526693494,0.12903115085442785,0.1565763760967094,-0.053002581906770214,0.0,0.0,-0.6,0.0,0.0027196407318115234,0.0041751861572265625,0
0.4550962448120117,-0.03748202696442604,-0.05624678358435631,-0.3053315281867981,0.05273699110240666,-0.5536847748862183,0.13303824106970522,0.15710049624827457,-0.0568781789981445,0.0,0.0,-0.6,0.0,0.002467632293701172,0.004777431488037109,0
0.4681704044342041,-0.03748202696442604,-0.05624678358435631,-0.3053315281867981,0.05273699110240666,-0.5517860270847655,0.13640169873632566,0.15729443674828772,-0.05959109696210329,0.0,0.0,-0.6,0.0,0.002534627914428711,0.0047607421875,0
0.4841926097869873,-0.03674306720495224,-0.05814896896481514,-0.3178822994232178,0.05920527126968417,-0.549339891331884,0.14266487287871843,0.15994206889547055,-0.06391574459959953,0.0,0.0,-0.6,0.0,0.0024785995483398438,0.004880189895629883,0
0.49758076667785645,-0.03674306720495224,-0.05814896896481514,-0.3178822994232178,0.05920527126968417,-0.5473990304055735,0.1476423754563187,0.16161896216925525,-0.06694299794585083,0.0,0.0,-0.6,0.0,0.0024559497833251953,0.00482940673828125,0
0.5120289325714111,-0.035903628915548325,-0.06015047803521156,-0.3312031626701355,0.06600588285602044,-0.5451663351005553,0.143319713314056,0.15954068248450787,-0.07161230463310263,0.0,0.0,-0.6,0.0,0.002348661422729492,0.00435948371887207,0
0.5266299247741699,-0.035579852759838104,-0.06089800223708153,-0.33626776933670044,0.06867850081418493,-0.5431070853035994,0.13972162301851526,0.15666665023284582,-0.07588305104849062,0.0,0.0,-0.6,0.0,0.002396106719970703,0.004724025726318359,0
0.5414063930511475,-0.03490789979696274,-0.06242524832487106,-0.3465304672718048,0.07356234676119276,-0.5409042116829145,0.1360725683070321,0.15265166671471342,-0.08070401576939008,0.0,0.0,-0.6,0.0,0.0021703243255615234,0.004309177398681641,0
0.5558524131774902,-0.034593187272548676,-0.06319324672222137,-0.35175684094429016,0.07617954243102773,-0.5388353878869877,0.1330603295085313,0.1484661913393641,-0.08506013945021165,0.0,0.0,-0.6,0.0,0.002407550811767578,0.004654407501220703,0
0.5703849792480469,-0.03390856087207794,-0.06485143303871155,-0.3623392581939697,0.08121743599698082,-0.5368042752481802,0.1335645222143148,0.14697952009207577,-0.08999863611401959,0.0,0.0,-0.6,0.0,0.0019707679748535156,0.004141569137573242,0
0.584343671798706,-0.03357076644897461,-0.06573103368282318,-0.36769309639930725,0.08385470309339568,-0.5350019363925987,0.135190008449502,0.1434066458809118,-0.09444455893984036,0.0,0.0,-0.6,0.0,0.002909421920776367,0.005298137664794922,0
0.5988667011260986,-0.03357076644897461,-0.06573103368282318,-0.36769309639930725,0.08385470309339568,-0.5335607755725528,0.1369879034542427,0.14091787089137406,-0.09755670491790852,0.0,0.0,-0.6,0.0,0.0023953914642333984,0.0043871402740478516,0
0.6126527786254883,-0.03255889192223549,-0.06838976591825485,-0.3840191066265106,0.09177696452317458,-0.5318216632620621,0.13444887639543962,0.13490538949468084,-0.10270605513873021,0.0,0.0,-0.6,0.0,0.002716064453125,0.005015373229980469,0
0.6261112689971924,-0.03255889192223549,-0.06838976591825485,-0.3840191066265106,0.09177696452317458,-0.5304210415245931,0.13345429960611038,0.1307915686539608,-0.106310600293298,0.0,0.0,-0.6,0.0,0.002500295639038086,0.004677534103393555,0
0.6407740116119385,-0.03154872730374336,-0.0710345059633255,-0.4006859064102173,0.09929844552280985,-0.5286631808178258,0.1251092988137846,0.12386845592068348,-0.11165433727636623,0.0,0.0,-0.6,0.0,0.002480745315551758,0.0048220157623291016,0
0.6541259288787842,-0.03154872730374336,-0.0710345059633255,-0.4006859064102173,0.09929844552280985,-0.5272343916311925,0.12022364557634178,0.11914836067869547,-0.1153949531645128,0.0,0.0,-0.6,0.0,0.0026912689208984375,0.005007028579711914,0
0.6679885387420654,-0.03042607009410858,-0.07367158681154251,-0.4176197052001953,0.1068355798151986,-0.525559395698901,0.11234842783364554,0.11288861879686031,-0.12083980964585299,0.0,0.0,-0.6,0.0,0.0024640560150146484,0.004735708236694336,0
0.6833884716033936,-0.03042607009410858,-0.07367158681154251,-0.4176197052001953,0.1068355798151986,-0.5241976739354799,0.10778614943684785,0.1086168923637582,-0.12465120918280598,0.0,0.0,-0.6,0.0,0.0027074813842773438,0.005153179168701172,0
0.6975650787353516,-0.029304560273885727,-0.07624435424804688,-0.4347398579120636,0.11433927442943506,-0.5226135121148763,0.09700862959657028,0.10740819288927439,-0.13013307433900637,0.0,0.0,-0.6,0.0,0.0026502609252929688,0.004972934722900391,0
0.7124483585357666,-0.029304560273885727,-0.07624435424804688,-0.4347398579120636,0.11433927442943506,-0.521320457088514,0.0904593732907363,0.10655337739661712,-0.13397037994833877,0.0,0.0,-0.6,0.0,0.0026586055755615234,0.004942655563354492,0
0.7264101505279541,-0.02825334668159485,-0.07882188260555267,-0.45201700925827026,0.12174184337569408,-0.5198872940264943,0.07845341297619415,0.10253946613946174,-0.13943245722971695,0.0,0.0,-0.6,0.0,0.0028374195098876953,0.00513911247253418,0
0.7408061027526855,-0.02825334668159485,-0.07882188260555267,-0.45201700925827026,0.12174184337569408,-0.5187112595662154,0.07102565301549352,0.09978590176915828,-0.1432559113266833,0.0,0.0,-0.6,0.0,0.0023026466369628906,0.004468679428100586,0
0.7550473213195801,-0.027535248547792435,-0.080644391477108,-0.4649755656719208,0.12720420295032597,-0.5175019786650716,0.06025036787403042,0.09330563551704384,-0.1479807140350458,0.0,0.0,-0.6,0.0,0.002173900604248047,0.004366874694824219,0
0.767993688583374,-0.027535248547792435,-0.080644391477108,-0.4649755656719208,0.12720420295032597,-0.5165079214540653,0.05354618752921968,0.08887716502594653,-0.151288075930901,0.0,0.0,-0.6,0.0,0.002664327621459961,0.004961729049682617,0
0.7836172580718994,-0.026586314663290977,-0.08325934410095215,-0.48365190625190735,0.13458350029792224,-0.515348412878688,0.04210078168636483,0.08375416764794129,-0.15637046576334646,0.0,0.0,-0.6,0.0,0.0026357173919677734,0.004748106002807617,0
0.7970948219299316,-0.026586314663290977,-0.08325934410095215,-0.48365190625190735,0.13458350029792224,-0.514394163803147,0.03492936396646209,0.08022743310942587,-0.15992813864605981,0.0,0.0,-0.6,0.0,0.002543926239013672,0.004773378372192383,0
0.8114151954650879,-0.026085317134857178,-0.08477476984262466,-0.49484625458717346,0.13854071259803322,-0.51350926052185,0.022739577638569382,0.07232898403568555,-0.16390246427650035,0.0,0.0,-0.6,0.0,0.0031871795654296875,0.005514860153198242,0
0.8271772861480713,-0.025754541158676147,-0.08614294975996017,-0.5044732093811035,0.14284114478321816,-0.5125908944051027,0.012213793094200197,0.0644803650293812,-0.16829715428725267,0.0,0.0,-0.6,0.0,0.0024662017822265625,0.00476527214050293,0
0.8414692878723145,-0.025376733392477036,-0.08760926127433777,-0.5155254006385803,0.1466271881316157,-0.5117779044605478,-0.0024692886977029527,0.05918401159815747,-0.17279320355042826,0.0,0.0,-0.6,0.0,0.0025453567504882812,0.004848003387451172,0
0.854792594909668,-0.025376733392477036,-0.08760926127433777,-0.5155254006385803,0.1466271881316157,-0.5111001961363875,-0.01205492576782517,0.0555175194623141,-0.17594043803465254,0.0,0.0,-0.6,0.0,0.0028009414672851562,0.005282163619995117,0
0.8701694011688232,-0.024991637095808983,-0.08944689482450485,-0.5304660797119141,0.1521819987377554,-0.5103318412813336,-0.02273779501023407,0.04965083605365833,-0.18022655615091077,0.0,0.0,-0.6,0.0,0.0024073123931884766,0.004719734191894531,0
0.8844852447509766,-0.024991637095808983,-0.08944689482450485,-0.5304660797119141,0.1521819987377554,-0.5096987139741321,-0.029637240418487577,0.04560387861529041,-0.18322683883229282,0.0,0.0,-0.6,0.0,0.0025768280029296875,0.004770040512084961,0
0.898576021194458,-0.024678299203515053,-0.09111123532056808,-0.5451515316963196,0.15755772940048468,-0.5091166885797709,-0.03727875633218057,0.03888775549068674,-0.1873429357077826,0.0,0.0,-0.6,0.0,0.002319812774658203,0.00459742546081543,0
0.9130213260650635,-0.024678299203515053,-0.09111123532056808,-0.5451515316963196,0.15755772940048468,-0.5086390891812076,-0.04220748356395114,0.03426977797287757,-0.1902242035206267,0.0,0.0,-0.6,0.0,0.002365589141845703,0.004384756088256836,0
0.9272866249084473,-0.024502510204911232,-0.09264601767063141,-0.5596570372581482,0.16253310485348002,-0.5079998773153647,-0.04791948893369479,0.026688817583350434,-0.1941068567844898,0.0,0.0,-0.6,0.0,0.0022325515747070312,0.004519462585449219,0
0.9409406185150146,-0.024502510204911232,-0.09264601767063141,-0.5596570372581482,0.16253310485348002,-0.5074794808446906,-0.05151401386201959,0.021476323644430008,-0.19682471406919516,0.0,0.0,-0.6,0.0,0.002454042434692383,0.004746198654174805,0
0.9545176029205322,-0.02448616921901703,-0.09410974383354187,-0.5750679969787598,0.16719817579230487,-0.5069321011268952,-0.05332383173696522,0.011260323413482144,-0.2004766157705473,0.0,0.0,-0.6,0.0,0.0027158260345458984,0.00506138801574707,0
0.9691739082336426,-0.02448616921901703,-0.09410974383354187,-0.5750679969787598,0.16719817579230487,-0.506490453175619,-0.0543037316535832,0.004257201157551469,-0.20303294696149488,0.0,0.0,-0.6,0.0,0.002179384231567383,0.0043718814849853516,0
0.9835286140441895,-0.02455359883606434,-0.09498043358325958,-0.5851224660873413,0.17055743868591133,-0.5061539249486263,-0.05208610300060323,-0.00025713069961425666,-0.20608210238026012,0.0,0.0,-0.6,0.0,0.0028476715087890625,0.005200624465942383,0
0.9979472160339355,-0.02455359883606434,-0.09498043358325958,-0.5851224660873413,0.17055743868591133,-0.5058858860370253,-0.050424525951989055,-0.003362888121968272,-0.20821651117339668,0.0,0.0,-0.6,0.0,0.002201080322265625,0.004483461380004883,0
1.0125913619995117,-0.02483266219496727,-0.09611336141824722,-0.5998433828353882,0.17490303343104482,-0.5055838272049139,-0.053929238862187624,-0.01137384410337154,-0.21134019535801638,0.0,0.0,-0.6,0.0,0.0026445388793945312,0.004973173141479492,0
1.027181625366211,-0.025113821029663086,-0.09676424413919449,-0.6094215512275696,0.17746207825396462,-0.505229439586638,-0.05785830612969602,-0.019608529288010476,-0.21448641609584507,0.0,0.0,-0.6,0.0,0.00205230712890625,0.003831624984741211,0
1.0411486625671387,-0.02527410350739956,-0.09705415368080139,-0.6141560077667236,0.17885041631751528,-0.5049166499076929,-0.058751409641982,-0.023916418685698222,-0.21720939738615705,0.0,0.0,-0.6,0.0,0.0026695728302001953,0.004906654357910156,0
1.0552887916564941,-0.02527410350739956,-0.09705415368080139,-0.6141560077667236,0.17885041631751528,-0.5046659629716189,-0.059234796977345905,-0.026897005429091674,-0.21911548428937624,0.0,0.0,-0.6,0.0,0.0023484230041503906,0.004359245300292969,0
1.0698432922363281,-0.02590305358171463,-0.0977698266506195,-0.6279899477958679,0.18256396844548947,-0.504527256315686,-0.057790131635413695,-0.03367924860066519,-0.22184232716961919,0.0,0.0,-0.6,0.0,0.0024678707122802734,0.004710674285888672,0
1.084045648574829,-0.02590305358171463,-0.0977698266506195,-0.6279899477958679,0.18256396844548947,-0.5044197594466779,-0.05674041996113135,-0.038322821724160544,-0.22375111718579008,0.0,0.0,-0.6,0.0,0.0024385452270507812,0.0045318603515625,0
1.0983154773712158,-0.02668207697570324,-0.09828094393014908,-0.6413596868515015,0.18608282074299531,-0.5043026561659512,-0.058942841446898,-0.04326448954233351,-0.22640683980867363,0.0,0.0,-0.6,0.0,0.002476930618286133,0.00466609001159668,0
1.1117489337921143,-0.02668207697570324,-0.09828094393014908,-0.6413596868515015,0.18608282074299531,-0.5042098380669737,-0.06039354795565433,-0.04665748421198345,-0.22826584564469293,0.0,0.0,-0.6,0.0,0.0026879310607910156,0.004909515380859375,0
1.126413106918335,-0.02774016745388508,-0.09871479868888855,-0.6553837656974792,0.18974823237661617,-0.5040478520851713,-0.05603635676524831,-0.05560968669829173,-0.23094167909251345,0.0,0.0,-0.6,0.0,0.002325296401977539,0.0043561458587646484,0
1.1385602951049805,-0.02774016745388508,-0.09871479868888855,-0.6553837656974792,0.18974823237661617,-0.5039255164286226,-0.052992625364680544,-0.061742513848474,-0.23281476250598862,0.0,0.0,-0.6,0.0,0.0024809837341308594,0.0048675537109375,0
1.1530134677886963,-0.02853662706911564,-0.09893859922885895,-0.6637548804283142,0.19158236606002477,-0.5039474116222885,-0.05466652175011754,-0.06837307005479702,-0.2348137210266993,0.0,0.0,-0.6,0.0,0.002380847930908203,0.0047228336334228516,0
1.1675043106079102,-0.029324868693947792,-0.09914841502904892,-0.6708592772483826,0.193541357947177,-0.5039580497815244,-0.05299287101208076,-0.07198320294491,-0.23694761394887875,0.0,0.0,-0.6,0.0,0.002522706985473633,0.0047833919525146484,0
1.1803498268127441,-0.029324868693947792,-0.09914841502904892,-0.6708592772483826,0.193541357947177,-0.503970744821281,-0.051845908527267975,-0.07444167370714988,-0.238441338994405,0.0,0.0,-0.6,0.0,0.002465486526489258,0.004646778106689453,0
1.1962454319000244,-0.030619380995631218,-0.09927652776241302,-0.6817049980163574,0.19631762586372178,-0.5040480240365924,-0.05196446070195411,-0.07913754994520829,-0.24052804699497707,0.0,0.0,-0.6,0.0,0.002400636672973633,0.004812479019165039,0
1.2096562385559082,-0.030619380995631218,-0.09927652776241302,-0.6817049980163574,0.19631762586372178,-0.5041146474493323,-0.052058268551309204,-0.08232120658340938,-0.24198874259537817,0.0,0.0,-0.6,0.0,0.002643108367919922,0.0049762725830078125,0
1.2248175144195557,-0.0321202352643013,-0.09927859902381897,-0.693031370639801,0.19880494511723093,-0.5042125994758567,-0.05390308168667568,-0.08081705533344437,-0.24394397423572436,0.0,0.0,-0.6,0.0,0.002542734146118164,0.004837751388549805,0
1.2387464046478271,-0.03306039422750473,-0.09923200309276581,-0.6993685364723206,0.20023424534012998,-0.5044373215028858,-0.05568992262626317,-0.08238573378185471,-0.2458486239675539,0.0,0.0,-0.6,0.0,0.002751588821411133,0.004904508590698242,0
1.253098487854004,-0.03306039422750473,-0.09923200309276581,-0.6993685364723206,0.20023424534012998,-0.5046191265725292,-0.05696573257120687,-0.08338978839125287,-0.24718187877983513,0.0,0.0,-0.6,0.0,0.0025191307067871094,0.0048601627349853516,0
1.2674617767333984,-0.03456023335456848,-0.09903336316347122,-0.7089020013809204,0.20236649817689917,-0.5048956991530418,-0.05625883574509321,-0.08108401072504351,-0.24891475196222004,0.0,0.0,-0.6,0.0,0.0026090145111083984,0.004751443862915039,0
1.282576322555542,-0.03456023335456848,-0.09903336316347122,-0.7089020013809204,0.20236649817689917,-0.505115957747189,-0.05584806289886993,-0.07941819635326804,-0.25012776318989,0.0,0.0,-0.6,0.0,0.002327442169189453,0.004608154296875,0
1.296462059020996,-0.03622766584157944,-0.09861673414707184,-0.7186433672904968,0.20420244802525753,-0.5053659433931112,-0.053687307010044476,-0.07758232886887027,-0.2516653522423717,0.0,0.0,-0.6,0.0,0.002585172653198242,0.00487828254699707,0
1.3103077411651611,-0.03622766584157944,-0.09861673414707184,-0.7186433672904968,0.20420244802525753,-0.5055657600676183,-0.05227274456271239,-0.07624164485397089,-0.25274166457913066,0.0,0.0,-0.6,0.0,0.002374887466430664,0.004714488983154297,0
1.3245198726654053,-0.03779255226254463,-0.09815877676010132,-0.7271844744682312,0.20597540971004472,-0.5058222367111073,-0.04510100578743926,-0.07002610211312767,-0.2541599438466371,0.0,0.0,-0.6,0.0,0.0023009777069091797,0.00461268424987793,0
1.3378095626831055,-0.03779255226254463,-0.09815877676010132,-0.7271844744682312,0.20597540971004472,-0.5060226348510111,-0.04027116356639891,-0.06568383296508178,-0.25515273933391175,0.0,0.0,-0.6,0.0,0.0022177696228027344,0.0044384002685546875,0
1.3516008853912354,-0.03948793187737465,-0.09761331975460052,-0.7359803915023804,0.2072854824742912,-0.5064981066514054,-0.036227383163593335,-0.0633787003175804,-0.25633897346159623,0.0,0.0,-0.6,0.0,0.0023577213287353516,0.004574775695800781,0
1.3655216693878174,-0.03948793187737465,-0.09761331975460052,-0.7359803915023804,0.2072854824742912,-0.506879188771436,-0.03356637327098004,-0.06162532743185153,-0.25716933735097575,0.0,0.0,-0.6,0.0,0.002361774444580078,0.004286527633666992,0
1.379417896270752,-0.04061920940876007,-0.0972047746181488,-0.7415730953216553,0.20791491161119144,-0.5072951765538916,-0.0285249695972396,-0.05533290835980089,-0.2579866279998676,0.0,0.0,-0.6,0.0,0.0020339488983154297,0.004013538360595703,0
1.3928191661834717,-0.04117567092180252,-0.09698403626680374,-0.7442848682403564,0.20821836311786535,-0.5076649620316104,-0.02389138187779475,-0.04763850303626382,-0.25867252576910615,0.0,0.0,-0.6,0.0,0.00260162353515625,0.004660606384277344,0
1.406965732574463,-0.04117567092180252,-0.09698403626680374,-0.7442848682403564,0.20821836311786535,-0.5079542046702265,-0.0208098019830842,-0.04223947317726527,-0.25915265420757333,0.0,0.0,-0.6,0.0,0.002408742904663086,0.0044138431549072266,0
1.4211456775665283,-0.04294803366065025,-0.09626287966966629,-0.7521050572395325,0.2088301927835127,-0.508221730795907,-0.017387142407298786,-0.035930536290260266,-0.259718180239118,0.0,0.0,-0.6,0.0,0.002397775650024414,0.004851341247558594,0
1.4354500770568848,-0.04294803366065025,-0.09626287966966629,-0.7521050572395325,0.2088301927835127,-0.5084305007794954,-0.015108286205613306,-0.03151851026352188,-0.2601140484611995,0.0,0.0,-0.6,0.0,0.0021467208862304688,0.00409388542175293,0
1.449228286743164,-0.04470393434166908,-0.09544224292039871,-0.7594709992408752,0.20917393139536664,-0.5088712878144115,-0.011945619036531954,-0.027664494969069982,-0.2605200581960961,0.0,0.0,-0.6,0.0,0.002138853073120117,0.0040738582611083984,0
1.4619922637939453,-0.04470393434166908,-0.09544224292039871,-0.7594709992408752,0.20917393139536664,-0.5092224402012016,-0.009870720076741578,-0.024862101814852385,-0.26080426501052945,0.0,0.0,-0.6,0.0,0.0025234222412109375,0.004827022552490234,0
1.4768948554992676,-0.046413905918598175,-0.09460939466953278,-0.7663286328315735,0.20935708189803118,-0.5096009803280912,-0.007307097079670951,-0.02023078657975061,-0.26107189121913205,0.0,0.0,-0.6,0.0,0.002252817153930664,0.004294395446777344,0
1.4908697605133057,-0.046413905918598175,-0.09460939466953278,-0.7663286328315735,0.20935708189803118,-0.5099009841984828,-0.0056283975452885,-0.01692092615259578,-0.26125922956515396,0.0,0.0,-0.6,0.0,0.0025281906127929688,0.004891395568847656,0
1.5054845809936523,-0.048122894018888474,-0.09376577287912369,-0.7727038264274597,0.20919112586957844,-0.510247839489416,-0.0016000620121782907,-0.009020409194119325,-0.26132813289669965,0.0,0.0,-0.6,0.0,0.002417325973510742,0.004581928253173828,0
1.5198092460632324,-0.048122894018888474,-0.09376577287912369,-0.7727038264274597,0.20919112586957844,-0.5105190781722021,0.0010840515587915676,-0.003490741496157819,-0.2613763652287816,0.0,0.0,-0.6,0.0,0.0025060176849365234,0.004797220230102539,0
1.5339181423187256,-0.04981573298573494,-0.09278671443462372,-0.7786116003990173,0.2088858610642186,-0.5110441116508266,-0.00048116538413893375,-0.0035339535721515144,-0.26129565355922807,0.0,0.0,-0.6,0.0,0.002820730209350586,0.00521397590637207,0
1.548022985458374,-0.04981573298573494,-0.09278671443462372,-0.7786116003990173,0.2088858610642186,-0.5114653655020828,-0.0016458321730416696,-0.003366747029693057,-0.26123915539054166,0.0,0.0,-0.6,0.0,0.0023975372314453125,0.004633426666259766,0
1.5621578693389893,-0.05106157064437866,-0.09198547154664993,-0.7826822400093079,0.20856821170243903,-0.5118890252252666,-0.0060337065521200665,-0.00033318610958496357,-0.26108048816179397,0.0,0.0,-0.6,0.0,0.0022788047790527344,0.004461765289306641,0
1.574805498123169,-0.05106157064437866,-0.09198547154664993,-0.7826822400093079,0.20856821170243903,-0.5122241920653618,-0.009106079679264169,0.0019024719548365056,-0.26096942110167054,0.0,0.0,-0.6,0.0,0.0024826526641845703,0.004787445068359375,0
1.590235948562622,-0.05278889089822769,-0.09082154929637909,-0.7881902456283569,0.2082227212667783,-0.5127779745623152,-0.006925228177358736,0.004090753986996839,-0.26076211524621146,0.0,0.0,-0.6,0.0,0.002627849578857422,0.004894256591796875,0
1.6032533645629883,-0.05278889089822769,-0.09082154929637909,-0.7881902456283569,0.2082227212667783,-0.5132212589043655,-0.005528513054985006,0.005794519569605439,-0.26061700114739,0.0,0.0,-0.6,0.0,0.0025887489318847656,0.004922389984130859,0
1.6175994873046875,-0.05377427488565445,-0.09006083011627197,-0.7913957238197327,0.20794565033302612,-0.5136693568882873,-0.005714583005623888,0.01053545110609695,-0.2604115196780608,0.0,0.0,-0.6,0.0,0.0025238990783691406,0.005377769470214844,0
1.6344521045684814,-0.05377427488565445,-0.09006083011627197,-0.7913957238197327,0.20794565033302612,-0.5140242759758541,-0.005919147862243836,0.013941275628595668,-0.2602676826495295,0.0,0.0,-0.6,0.0,0.0018918514251708984,0.0039000511169433594,0
1.6444902420043945,-0.0550830103456974,-0.08899365365505219,-0.795569896697998,0.20707030641748955,-0.5144799621548541,-0.005061142270307794,0.017535305407978,-0.25983874276122965,0.0,0.0,-0.6,0.0,0.0013840198516845703,0.002607583999633789,0
1.6535165309906006,-0.0550830103456974,-0.08899365365505219,-0.795569896697998,0.20707030641748955,-0.5148426686359784,-0.004550898722740432,0.02015386399005556,-0.2595384848394196,0.0,0.0,-0.6,0.0,0.003168344497680664,0.00444793701171875,0
1.6659202575683594,-0.05610588565468788,-0.08816181868314743,-0.7986329197883606,0.20615328222638346,-0.5152783471229531,-0.002583723852624392,0.023848962851576255,-0.2589844202224881,0.0,0.0,-0.6,0.0,0.0018651485443115234,0.0033693313598632812,0
1.6760883331298828,-0.05610588565468788,-0.08816181868314743,-0.7986329197883606,0.20615328222638346,-0.5156253089949211,-0.0013131521323795406,0.026527734635299244,-0.2585965749906358,0.0,0.0,-0.6,0.0,0.0023005008697509766,0.0035734176635742188,0
1.6865472793579102,-0.05736313760280609,-0.08706596493721008,-0.802111029624939,0.20496942080784802,-0.5161159521136468,-0.0010767733126578704,0.02901975966667321,-0.2578811352963888,0.0,0.0,-0.6,0.0,0.002881288528442383,0.0042362213134765625,0
1.6960337162017822,-0.05736313760280609,-0.08706596493721008,-0.802111029624939,0.20496942080784802,-0.5165074922200538,-0.0009981575330403072,0.030896782287726722,-0.2573803275104157,0.0,0.0,-0.6,0.0,0.0026428699493408203,0.003730297088623047,0
1.7083439826965332,-0.05779504030942917,-0.08666825294494629,-0.803290069103241,0.20453098416434562,-0.5168012735953834,0.0017456147129783438,0.0318670660103612,-0.2568653483189282,0.0,0.0,-0.6,0.0,0.0014166831970214844,0.003155946731567383,0
1.7188448905944824,-0.05822409316897392,-0.08626367896795273,-0.8044273257255554,0.20407276986322764,-0.5171023223124367,0.0015875011628872448,0.033841098349517845,-0.25633303252196066,0.0,0.0,-0.6,0.0,0.002156972885131836,0.0036041736602783203,0
1.7290229797363281,-0.05895281210541725,-0.08555226773023605,-0.806381344795227,0.20301424398134432,-0.5174229106085384,-0.0022242602886846903,0.03070898609183476,-0.25556346425837734,0.0,0.0,-0.6,0.0,0.0015780925750732422,0.0026018619537353516,0
1.7363977432250977,-0.05895281210541725,-0.08555226773023605,-0.806381344795227,0.20301424398134432,-0.5176806732436916,-0.004883738750551425,0.028680341789877287,-0.2550247664738688,0.0,0.0,-0.6,0.0,0.0019049644470214844,0.0033960342407226562,0
1.745248556137085,-0.0596952885389328,-0.0847194567322731,-0.8084666132926941,0.20192063038012356,-0.5179485094206785,-0.008327096367749493,0.033194126436369924,-0.25423757292425525,0.0,0.0,-0.6,0.0,0.0012969970703125,0.002374410629272461,0
1.7526776790618896,-0.0596952885389328,-0.0847194567322731,-0.8084666132926941,0.20192063038012356,-0.5181579164224659,-0.010721533769521653,0.036372816530790206,-0.2536865374395256,0.0,0.0,-0.6,0.0,0.0016214847564697266,0.003347635269165039,0
1.7623441219329834,-0.060280781239271164,-0.08395848423242569,-0.8102319240570068,0.20066072184640688,-0.5183626034989451,-0.011262999943433686,0.04035267384071815,-0.25282834690007133,0.0,0.0,-0.6,0.0,0.001514434814453125,0.0025606155395507812,0
1.7704503536224365,-0.060280781239271164,-0.08395848423242569,-0.8102319240570068,0.20066072184640688,-0.5185233205921803,-0.011664710531179913,0.04313927645088438,-0.2522276135224531,0.0,0.0,-0.6,0.0,0.0016438961029052734,0.0026290416717529297,0
1.7816290855407715,-0.06094081327319145,-0.08314506709575653,-0.8121330738067627,0.19934031322493773,-0.5186543555419815,-0.015091889465269953,0.045787938163531695,-0.2513119469250824,0.0,0.0,-0.6,0.0,0.0016961097717285156,0.0027430057525634766,0
1.791306972503662,-0.06094081327319145,-0.08314506709575653,-0.8121330738067627,0.19934031322493773,-0.5187561540379297,-0.01745184616596177,0.04764129772896412,-0.25067098030691,0.0,0.0,-0.6,0.0,0.0019533634185791016,0.0031538009643554688,0
1.800724983215332,-0.06156530603766441,-0.08231906592845917,-0.8139539957046509,0.19799956638222505,-0.5188596050162709,-0.018734317923535814,0.046471086645109086,-0.2497195236081855,0.0,0.0,-0.6,0.0,0.0016863346099853516,0.0030269622802734375,0
1.8111886978149414,-0.06185116991400719,-0.0818895474076271,-0.8148154020309448,0.1972842639193848,-0.519018855696839,-0.01870541681284632,0.045359457573877965,-0.24878526549550006,0.0,0.0,-0.6,0.0,0.0010807514190673828,0.002230405807495117,0
1.8203227519989014,-0.06185116991400719,-0.0818895474076271,-0.8148154020309448,0.1972842639193848,-0.5191472708669238,-0.018710952607059038,0.04464880833965006,-0.24813128481662,0.0,0.0,-0.6,0.0,0.0016133785247802734,0.0029172897338867188,0
1.8314158916473389,-0.06243034452199936,-0.08097323775291443,-0.816446840763092,0.19599605187937827,-0.5193279406744143,-0.01936356866343323,0.043632065207813334,-0.24719041882640178,0.0,0.0,-0.6,0.0,0.0019931793212890625,0.003239154815673828,0
1.8402013778686523,-0.06270123273134232,-0.08052284270524979,-0.8172458410263062,0.1953270570902597,-0.5194839998990985,-0.021918269835187264,0.04404916151661337,-0.24628093958732952,0.0,0.0,-0.6,0.0,0.0019197463989257812,0.0032668113708496094,0
1.850062370300293,-0.06270123273134232,-0.08052284270524979,-0.8172458410263062,0.1953270570902597,-0.5196079067124002,-0.02368801659183724,0.044381629267468095,-0.2456443041199787,0.0,0.0,-0.6,0.0,0.0014455318450927734,0.002572774887084961,0
1.860246181488037,-0.06295674294233322,-0.08005654066801071,-0.8180287480354309,0.19474450707303148,-0.5197196046223033,-0.027309873482722492,0.04515716072346257,-0.24498020303637255,0.0,0.0,-0.6,0.0,0.0016388893127441406,0.0029366016387939453,0
1.8700401782989502,-0.063456691801548,-0.07912875711917877,-0.8194806575775146,0.19327164517958625,-0.5199170004788485,-0.03140578344813793,0.04411866862047614,-0.24396300906780663,0.0,0.0,-0.6,0.0,0.00139617919921875,0.002546072006225586,0
1.8813896179199219,-0.063456691801548,-0.07912875711917877,-0.8194806575775146,0.19327164517958625,-0.5200745379373061,-0.034232797177100975,0.04346769773345788,-0.24325097328981019,0.0,0.0,-0.6,0.0,0.0015158653259277344,0.002947568893432617,0
1.8963971138000488,-0.06392993032932281,-0.07821383327245712,-0.820841372013092,0.19186301290560442,-0.5201988729311381,-0.035559927386271284,0.03973695005387854,-0.2422243111424698,0.0,0.0,-0.6,0.0,0.0014927387237548828,0.002570629119873047,0
1.904346227645874,-0.06392993032932281,-0.07821383327245712,-0.820841372013092,0.19186301290560442,-0.5203002793194478,-0.03648514719209837,0.037223680339398116,-0.24150564763933124,0.0,0.0,-0.6,0.0,0.002151012420654297,0.0034792423248291016,0
1.9139859676361084,-0.06413964927196503,-0.07773222774267197,-0.8214718699455261,0.19119933998458796,-0.5204430935181176,-0.03636628460452324,0.03415829836917138,-0.2407537058417531,0.0,0.0,-0.6,0.0,0.0014417171478271484,0.0028896331787109375,0
1.9225223064422607,-0.06433424353599548,-0.07724931836128235,-0.8220601677894592,0.1905519602002817,-0.5206408811921701,-0.03755503338883774,0.03261296770084126,-0.23998457916433358,0.0,0.0,-0.6,0.0,0.0018181800842285156,0.0031099319458007812,0
1.9312043190002441,-0.06450232118368149,-0.07675585895776749,-0.8226155042648315,0.1898522971742808,-0.5208601215006521,-0.0398207763345895,0.03190367749617401,-0.23918381685538959,0.0,0.0,-0.6,0.0,0.0018391609191894531,0.002997159957885742,0
1.940805435180664,-0.06465025991201401,-0.07622924447059631,-0.8231335878372192,0.18916235301915352,-0.5210803898867242,-0.04343413931987366,0.030849858303212404,-0.2383645541809561,0.0,0.0,-0.6,0.0,0.001566171646118164,0.0029189586639404297,0
1.9509625434875488,-0.0647791400551796,-0.07570146024227142,-0.823631227016449,0.18860827417714282,-0.5213722146490313,-0.047522270488368955,0.03165329993747806,-0.23758329074309859,0.0,0.0,-0.6,0.0,0.0013234615325927734,0.0023956298828125,0
1.9614818096160889,-0.06508942693471909,-0.07450929284095764,-0.8246288299560547,0.18709211213428611,-0.521577527742033,-0.049572973723378246,0.029974039527616153,-0.2364678455705274,0.0,0.0,-0.6,0.0,0.001756429672241211,0.0027675628662109375,0
1.9702870845794678,-0.06508942693471909,-0.07450929284095764,-0.8246288299560547,0.18709211213428611,-0.5217427032359185,-0.050997859884699875,0.02888070562984046,-0.23568703394972726,0.0,0.0,-0.6,0.0,0.0020275115966796875,0.003314495086669922,0
1.980525255203247,-0.0652017742395401,-0.07397046685218811,-0.8250366449356079,0.1863799149488607,-0.5218664267099766,-0.04815116503738243,0.028544015280757805,-0.23487339187063266,0.0,0.0,-0.6,0.0,0.001889944076538086,0.0033042430877685547,0
1.9910693168640137,-0.0653083547949791,-0.0734146386384964,-0.825405478477478,0.18574619082178645,-0.5221289968875913,-0.04660577587678574,0.02840758036355331,-0.23406619586761357,0.0,0.0,-0.6,0.0,0.0013554096221923828,0.0026030540466308594,0
2.0009312629699707,-0.06545168906450272,-0.0723794549703598,-0.8260796070098877,0.18431682272288877,-0.5224182011697334,-0.048474326456765714,0.026585429137918896,-0.2329651456284139,0.0,0.0,-0.6,0.0,0.0015323162078857422,0.002915620803833008,0
2.0108189582824707,-0.06545168906450272,-0.0723794549703598,-0.8260796070098877,0.18431682272288877,-0.5226506217818375,-0.049783060460724185,0.025413593346080395,-0.23219441046097378,0.0,0.0,-0.6,0.0,0.0014536380767822266,0.002666950225830078,0
2.0205469131469727,-0.065529003739357,-0.07178238779306412,-0.8263717889785767,0.18362946648514203,-0.5229166040052297,-0.05109485911468507,0.02268734017246761,-0.2313971372546107,0.0,0.0,-0.6,0.0,0.002111196517944336,0.0033876895904541016,0
2.03068208694458,-0.06565079092979431,-0.07069789618253708,-0.8268505334854126,0.1821033651061218,-0.5231537240370272,-0.04871889751037638,0.0274168401246573,-0.2302667579930243,0.0,0.0,-0.6,0.0,0.0013632774353027344,0.002758502960205078,0
2.042051315307617,-0.06571934372186661,-0.07007865607738495,-0.8270645141601562,0.1814678035023241,-0.5233596365384126,-0.04449994481405826,0.029264308749899763,-0.22923715690848956,0.0,0.0,-0.6,0.0,0.0014200210571289062,0.002454996109008789,0
2.0515573024749756,-0.06578445434570312,-0.06947614252567291,-0.827255129814148,0.18076311920781296,-0.5235665217918688,-0.04290128803025423,0.028142114866152937,-0.22825217953887353,0.0,0.0,-0.6,0.0,0.0013840198516845703,0.0024170875549316406,0
2.060486316680908,-0.06582498550415039,-0.06887170672416687,-0.8274654746055603,0.18003932189924798,-0.5237534928495251,-0.04453504406522787,0.028040230761950672,-0.22729127138943042,0.0,0.0,-0.6,0.0,0.0018496513366699219,0.0031304359436035156,0
2.070575714111328,-0.06588798761367798,-0.06838367134332657,-0.8276246786117554,0.17921634470555908,-0.5239338657439904,-0.04585724203384273,0.024370866969854275,-0.22631001923718694,0.0,0.0,-0.6,0.0,0.0015766620635986328,0.0030167102813720703,0
2.081700563430786,-0.0659148097038269,-0.06777840107679367,-0.8278072476387024,0.178426302229914,-0.5240517020237131,-0.04581814552029574,0.02262721970305629,-0.22532687680224958,0.0,0.0,-0.6,0.0,0.0017080307006835938,0.0029761791229248047,0
2.091144561767578,-0.06592342257499695,-0.0671539232134819,-0.827977180480957,0.17769599869327288,-0.5241673463139591,-0.045720321004319255,0.024606714869999383,-0.224364813271553,0.0,0.0,-0.6,0.0,0.0019419193267822266,0.003057241439819336,0
2.1020007133483887,-0.06591278314590454,-0.06654059141874313,-0.8281230926513672,0.17688738513090493,-0.5243207669016549,-0.04565288159170699,0.027963163751472224,-0.22338813871417743,0.0,0.0,-0.6,0.0,0.0015950202941894531,0.002667665481567383,0
2.111891508102417,-0.06591480225324631,-0.06604650616645813,-0.8282485604286194,0.1760186171034409,-0.5244154908928337,-0.04279944013710392,0.027676830844907907,-0.22237867851371554,0.0,0.0,-0.6,0.0,0.0017249584197998047,0.003033161163330078,0
2.1206393241882324,-0.06589983403682709,-0.06542003899812698,-0.8283793330192566,0.17524997723283914,-0.5245083059496851,-0.04261009082791919,0.028549256355463567,-0.22138381642191654,0.0,0.0,-0.6,0.0,0.002082347869873047,0.0033016204833984375,0
2.1311588287353516,-0.06588251888751984,-0.06479606032371521,-0.8284909725189209,0.1744430772553166,-0.5246220018386534,-0.04353144516611139,0.030022491323961936,-0.22038482546608631,0.0,0.0,-0.6,0.0,0.002109050750732422,0.0034515857696533203,0
2.1419143676757812,-0.06588935106992722,-0.06417063623666763,-0.8285725712776184,0.17368080660042173,-0.5247007292816606,-0.04483985571856145,0.031515278730701,-0.21939968030141954,0.0,0.0,-0.6,0.0,0.0015149116516113281,0.002537965774536133,0
2.1506564617156982,-0.0658741444349289,-0.06359963864088058,-0.8286669254302979,0.17268426737902473,-0.5248101338073358,-0.04525851002657852,0.03317360971301334,-0.21833637647812904,0.0,0.0,-0.6,0.0,0.0015842914581298828,0.00264739990234375,0
2.1605005264282227,-0.06590455770492554,-0.06229836866259575,-0.8287866115570068,0.17101317061327928,-0.5248914767668869,-0.046598025005673914,0.03287323077519218,-0.21696540251467142,0.0,0.0,-0.6,0.0,0.002132415771484375,0.003397226333618164,0
2.1702651977539062,-0.06590455770492554,-0.06229836866259575,-0.8287866115570068,0.17101317061327928,-0.5249567617073537,-0.04751772862956609,0.03268702565173098,-0.21600572074025068,0.0,0.0,-0.6,0.0,0.0017652511596679688,0.002855062484741211,0
2.1814730167388916,-0.06598293781280518,-0.06088574603199959,-0.8287985920906067,0.1693533254057513,-0.5251137285860885,-0.05131906662446818,0.0293290597486984,-0.2147115015453335,0.0,0.0,-0.6,0.0,0.0017130374908447266,0.0030269622802734375,0
2.1900689601898193,-0.06598293781280518,-0.06088574603199959,-0.8287985920906067,0.1693533254057513,-0.5252409661524352,-0.05392504959543775,0.027071609006312794,-0.21380554810889107,0.0,0.0,-0.6,0.0,0.0015811920166015625,0.002593994140625,0
2.2009079456329346,-0.06602303683757782,-0.060077037662267685,-0.8287689089775085,0.16846728951063217,-0.5253429150173682,-0.05331667063998688,0.024419129599065666,-0.2128391172427118,0.0,0.0,-0.6,0.0,0.0021677017211914062,0.003416776657104492,0
2.211573839187622,-0.06606186181306839,-0.059265539050102234,-0.8287210464477539,0.1676463131771439,-0.5254748967528392,-0.05331371420512387,0.0219986150158414,-0.21185474951132818,0.0,0.0,-0.6,0.0,0.0017137527465820312,0.0031006336212158203,0
2.2201898097991943,-0.06606186181306839,-0.059265539050102234,-0.8287210464477539,0.1676463131771439,-0.5255817689155506,-0.0533179576945076,0.020375074951548514,-0.21116569209935937,0.0,0.0,-0.6,0.0,0.0014715194702148438,0.00257110595703125,0
2.2300195693969727,-0.06609831005334854,-0.05763895809650421,-0.8286716938018799,0.16594935516760884,-0.5257009492609306,-0.055199946722713306,0.02220296485027755,-0.210046992657406,0.0,0.0,-0.6,0.0,0.0018830299377441406,0.0031235218048095703,0
2.2406418323516846,-0.06612017005681992,-0.05598535016179085,-0.8285642266273499,0.1642994427185433,-0.525887660649779,-0.06165495053967028,0.021459667288621233,-0.20864518587963932,0.0,0.0,-0.6,0.0,0.001636505126953125,0.0029060840606689453,0
2.2517590522766113,-0.06614160537719727,-0.055167026817798615,-0.8284925818443298,0.16340669513096054,-0.5259041318290978,-0.0647252079720194,0.018882266227003834,-0.20732914078985903,0.0,0.0,-0.6,0.0,0.001270294189453125,0.002496004104614258,0
2.2601335048675537,-0.06614160537719727,-0.055167026817798615,-0.8284925818443298,0.16340669513096054,-0.5259191482643081,-0.06682390537043319,0.017127690050175375,-0.20640790922701244,0.0,0.0,-0.6,0.0,0.001542806625366211,0.002994537353515625,0
2.2707643508911133,-0.06615159660577774,-0.054328884929418564,-0.828406572341919,0.1627066772810521,-0.5259823877567747,-0.06985805505936857,0.014294567021026237,-0.20550054043930416,0.0,0.0,-0.6,0.0,0.0014710426330566406,0.0025911331176757812,0
2.2808609008789062,-0.0661277025938034,-0.052659641951322556,-0.8281970024108887,0.16113068889397142,-0.5260821487346482,-0.06877174882996924,0.012240677709960644,-0.2042743866427534,0.0,0.0,-0.6,0.0,0.0014462471008300781,0.0025179386138916016,0
2.2901370525360107,-0.0661277025938034,-0.052659641951322556,-0.8281970024108887,0.16113068889397142,-0.5261627454739869,-0.06803219504329028,0.010858865218070168,-0.2034160789851675,0.0,0.0,-0.6,0.0,0.0018458366394042969,0.0029900074005126953,0
2.3002243041992188,-0.06611647456884384,-0.051828280091285706,-0.8280598521232605,0.16053266023071286,-0.526355325511179,-0.06737310084015811,0.010461541339787012,-0.2025910028761354,0.0,0.0,-0.6,0.0,0.0013382434844970703,0.002824068069458008,0
2.310370922088623,-0.06610992550849915,-0.051010824739933014,-0.827889084815979,0.15986754012359167,-0.5266344377898092,-0.06592577750025767,0.011494784087059225,-0.20176402955964248,0.0,0.0,-0.6,0.0,0.0016825199127197266,0.002800464630126953,0
2.3214077949523926,-0.06607134640216827,-0.049434926360845566,-0.8275280594825745,0.1585267554725342,-0.5268340085003871,-0.061750387986984,0.012667827508836856,-0.20068235399395115,0.0,0.0,-0.6,0.0,0.0015995502471923828,0.002622365951538086,0
2.330129861831665,-0.06607134640216827,-0.049434926360845566,-0.8275280594825745,0.1585267554725342,-0.5269916360344463,-0.05889859722786985,0.013508739961229132,-0.1999251810979669,0.0,0.0,-0.6,0.0,0.001994609832763672,0.0036072731018066406,0
2.341315507888794,-0.06605447083711624,-0.04867514967918396,-0.827317476272583,0.1578525149932927,-0.5271873589942305,-0.058698667342960906,0.013096156363380669,-0.19914231989106237,0.0,0.0,-0.6,0.0,0.0016837120056152344,0.0028562545776367188,0
2.350515604019165,-0.06603934615850449,-0.04790448024868965,-0.8270773887634277,0.15701411471168827,-0.527301578782741,-0.05884929851223861,0.012909538884991955,-0.1982799169406276,0.0,0.0,-0.6,0.0,0.002160310745239258,0.003560781478881836,0
2.3614253997802734,-0.06601524353027344,-0.046997521072626114,-0.8267498016357422,0.15614563927919742,-0.5274915910643173,-0.054829916381286384,0.014615496971389471,-0.19735055658813927,0.0,0.0,-0.6,0.0,0.0012786388397216797,0.002312898635864258,0
2.3720273971557617,-0.06596726924180984,-0.046225424855947495,-0.8264764547348022,0.15556151387913128,-0.5276939447413412,-0.05145244366823799,0.014520267265820404,-0.1964809573163726,0.0,0.0,-0.6,0.0,0.001531362533569336,0.0027914047241210938,0
2.381556987762451,-0.06591542065143585,-0.045481231063604355,-0.8261849284172058,0.15495506049395616,-0.5279068801863525,-0.04935847802161481,0.012943299491679579,-0.19564481780669524,0.0,0.0,-0.6,0.0,0.0019114017486572266,0.003064870834350586,0
2.3905417919158936,-0.06591542065143585,-0.045481231063604355,-0.8261849284172058,0.15495506049395616,-0.528077445519742,-0.04792882950230926,0.011909610453878925,-0.1950595201499208,0.0,0.0,-0.6,0.0,0.0014069080352783203,0.002736330032348633,0
2.400686502456665,-0.06577273458242416,-0.04385953024029732,-0.825483500957489,0.15329532292631673,-0.5282003003416048,-0.04869176436903097,0.015618023683149856,-0.19402741020231437,0.0,0.0,-0.6,0.0,0.0013582706451416016,0.002538919448852539,0
2.4108834266662598,-0.06572972238063812,-0.04313643276691437,-0.8251613974571228,0.15269835054960876,-0.5282829009683799,-0.048170699483568544,0.018641983186128804,-0.19308106859772428,0.0,0.0,-0.6,0.0,0.0013568401336669922,0.002682924270629883,0
2.4212942123413086,-0.0656818300485611,-0.04240456596016884,-0.8248426914215088,0.15204026383910155,-0.5283658418674099,-0.0463998869495961,0.020285466810808485,-0.192171846958071,0.0,0.0,-0.6,0.0,0.002269268035888672,0.003535032272338867,0
2.431190013885498,-0.06562378257513046,-0.041755661368370056,-0.8246274590492249,0.15134528058644825,-0.5284460025510985,-0.04486876881790766,0.021400111546680707,-0.19127477309056867,0.0,0.0,-0.6,0.0,0.0014529228210449219,0.0027761459350585938,0
2.4408421516418457,-0.06557825207710266,-0.04101082682609558,-0.8242968916893005,0.15070205053748234,-0.5285058658075045,-0.0438113431477131,0.024508024552293662,-0.19040561011495483,0.0,0.0,-0.6,0.0,0.0016655921936035156,0.002885580062866211,0
2.4516212940216064,-0.06548167020082474,-0.04024679958820343,-0.8239611387252808,0.150100064135698,-0.5285859885164554,-0.04013695224112111,0.02424961574979912,-0.18957145113135596,0.0,0.0,-0.6,0.0,0.0012793540954589844,0.002321004867553711,0
2.4607558250427246,-0.06535627692937851,-0.039358049631118774,-0.8235034346580505,0.14894287355358823,-0.5287184950009786,-0.04006240890719666,0.025924218703515894,-0.18855359337454577,0.0,0.0,-0.6,0.0,0.0016324520111083984,0.0028939247131347656,0
2.4703712463378906,-0.06526109576225281,-0.03864096477627754,-0.8231656551361084,0.1483472187653026,-0.5287905207830559,-0.03877841829296482,0.027375570592858504,-0.18761772239917143,0.0,0.0,-0.6,0.0,0.0017557144165039062,0.0030922889709472656,0
2.4817168712615967,-0.0651775598526001,-0.03792696073651314,-0.8228054642677307,0.1477771155496152,-0.528893419689654,-0.0384096271797868,0.02740796122662287,-0.18674882401052656,0.0,0.0,-0.6,0.0,0.0013899803161621094,0.0026204586029052734,0
2.491157054901123,-0.06510602682828903,-0.037241991609334946,-0.8224519491195679,0.1470717816919227,-0.528983749959966,-0.03689680047451998,0.028013438523004735,-0.1858760949418405,0.0,0.0,-0.6,0.0,0.0017647743225097656,0.0028748512268066406,0
2.501330852508545,-0.06501005589962006,-0.03660772368311882,-0.8221926689147949,0.1462727269619724,-0.5290536543098925,-0.033533055304507585,0.03108199634818004,-0.1849655390700289,0.0,0.0,-0.6,0.0,0.0017931461334228516,0.0028982162475585938,0
2.511366128921509,-0.06495029479265213,-0.03590686246752739,-0.8218234777450562,0.14561038074114283,-0.5290036240192665,-0.02777523512407354,0.03307054690541158,-0.18407977012694968,0.0,0.0,-0.6,0.0,0.0015213489532470703,0.0026421546936035156,0
2.520930051803589,-0.06487680971622467,-0.035219430923461914,-0.8214691281318665,0.14499443360319306,-0.528971707403597,-0.0243752611531841,0.032200844152907845,-0.183228751690063,0.0,0.0,-0.6,0.0,0.0016465187072753906,0.0027337074279785156,0
2.5320472717285156,-0.0647917240858078,-0.03456931933760643,-0.8211327791213989,0.14438379639614038,-0.5290522017469802,-0.02385390645089039,0.028797142589352606,-0.18240404983159755,0.0,0.0,-0.6,0.0,0.00167083740234375,0.0032176971435546875,0
2.541170358657837,-0.0647917240858078,-0.03456931933760643,-0.8211327791213989,0.14438379639614038,-0.5291176612955467,-0.023498494381393252,0.026486422743622274,-0.18182675853067148,0.0,0.0,-0.6,0.0,0.0015573501586914062,0.002653837203979492,0
2.55010724067688,-0.06466877460479736,-0.033377982676029205,-0.8205116987228394,0.14322256081791024,-0.5290496297132407,-0.018725948525288322,0.024997855959385307,-0.18098719127818721,0.0,0.0,-0.6,0.0,0.0017254352569580078,0.002831697463989258,0
2.560621500015259,-0.06458447128534317,-0.03276605159044266,-0.8201476335525513,0.14266521034410937,-0.5290617224253202,-0.013595552155618187,0.023144566834464052,-0.18019048777377286,0.0,0.0,-0.6,0.0,0.0017130374908447266,0.002791166305541992,0
2.5702133178710938,-0.06451088935136795,-0.03218934312462807,-0.8197740912437439,0.14212038711081504,-0.5291527711482551,-0.008406542202985296,0.021979195842080707,-0.1794284866081974,0.0,0.0,-0.6,0.0,0.0022575855255126953,0.003465414047241211,0
2.58181095123291,-0.0643700584769249,-0.031168149784207344,-0.8191238641738892,0.1409054181128523,-0.5292502626478416,-0.006697954340315867,0.018121099862838715,-0.1784394724180588,0.0,0.0,-0.6,0.0,0.0015881061553955078,0.0027892589569091797,0
2.590742349624634,-0.0643700584769249,-0.031168149784207344,-0.8191238641738892,0.1409054181128523,-0.529329579445451,-0.005532797260847077,0.01550250115035022,-0.17774716248496145,0.0,0.0,-0.6,0.0,0.0016856193542480469,0.0027611255645751953,0
2.6010801792144775,-0.0643019825220108,-0.030629687011241913,-0.818732738494873,0.14037619886652933,-0.5294503462146577,-0.006193689100782109,0.01165988906298949,-0.1770640883144222,0.0,0.0,-0.6,0.0,0.0018930435180664062,0.0030155181884765625,0
2.610297203063965,-0.0642751157283783,-0.02960841916501522,-0.8179849982261658,0.1392644644989443,-0.5296695786331068,-0.004169155723473882,0.01002333461078628,-0.17616903600720052,0.0,0.0,-0.6,0.0,0.0015149116516113281,0.0031006336212158203,0
2.62119460105896,-0.06426408886909485,-0.029081420972943306,-0.8175384402275085,0.138839229246656,-0.5298503266823155,-0.0003632985347019344,0.010411607990936753,-0.17538303617253717,0.0,0.0,-0.6,0.0,0.0017180442810058594,0.002953767776489258,0
2.630995512008667,-0.06424283981323242,-0.0285560991615057,-0.8170779347419739,0.13840145982987498,-0.530004395412379,0.002298105186291259,0.011297010165857886,-0.17466867275697984,0.0,0.0,-0.6,0.0,0.0014328956604003906,0.002847909927368164,0
2.641016960144043,-0.06421094387769699,-0.028059760108590126,-0.8166152238845825,0.1379110603479368,-0.5301862392196087,0.0026153092078498577,0.010785625541203124,-0.17398471856036285,0.0,0.0,-0.6,0.0,0.0018775463104248047,0.002971172332763672,0
2.65058970451355,-0.06418777257204056,-0.027582764625549316,-0.8161379098892212,0.13739483246728315,-0.5303233080227626,0.0025532711227795922,0.00923572707276153,-0.17331236516748585,0.0,0.0,-0.6,0.0,0.001615285873413086,0.002919912338256836,0
2.660498857498169,-0.06418152153491974,-0.027117758989334106,-0.8156281113624573,0.13685959025107466,-0.530434134451149,0.0012709641744833567,0.006083077025339138,-0.17264100196139376,0.0,0.0,-0.6,0.0,0.001428842544555664,0.0039975643157958984,0
2.672196388244629,-0.06418152153491974,-0.027117758989334106,-0.8156281113624573,0.13685959025107466,-0.530524197719923,0.0003932565436586319,0.003950730343882233,-0.1721710477171291,0.0,0.0,-0.6,0.0,0.002044677734375,0.0044384002685546875,0
2.687103271484375,-0.06415601074695587,-0.026266824454069138,-0.814637303352356,0.13582347226619032,-0.530580941549034,0.0012914021264609809,0.0017841131986672774,-0.17145353550181247,0.0,0.0,-0.6,0.0,0.0021948814392089844,0.003923892974853516,0
2.700428009033203,-0.06415601074695587,-0.026266824454069138,-0.814637303352356,0.13582347226619032,-0.5306273918855854,0.0019037163098677096,0.00031446063302667635,-0.1709512769510906,0.0,0.0,-0.6,0.0,0.003289461135864258,0.0053637027740478516,0
2.715639352798462,-0.06412069499492645,-0.025085028260946274,-0.8131051659584045,0.13432510198252054,-0.5308121605985762,0.00772410195743006,-0.0011086206758836226,-0.17003780710920952,0.0,0.0,-0.6,0.0,0.001955270767211914,0.0037178993225097656,0
2.7283782958984375,-0.06412069499492645,-0.025085028260946274,-0.8131051659584045,0.13432510198252054,-0.5309602005582101,0.01169929682298724,-0.0020470836029870695,-0.1693983782198925,0.0,0.0,-0.6,0.0,0.0021631717681884766,0.0041179656982421875,0
2.7425708770751953,-0.06405401974916458,-0.02400313690304756,-0.8114882707595825,0.13304676725143905,-0.5312509960327941,0.012818764996082881,-0.002399643010685184,-0.16847140247321532,0.0,0.0,-0.6,0.0,0.0023276805877685547,0.004211902618408203,0
2.757012367248535,-0.06405401974916458,-0.02400313690304756,-0.8114882707595825,0.13304676725143905,-0.5314835996739348,0.01357795869332133,-0.0025806934896239826,-0.16782251945054102,0.0,0.0,-0.6,0.0,0.002352476119995117,0.004122734069824219,0
2.7713522911071777,-0.064120352268219,-0.023464735597372055,-0.8103630542755127,0.13206415340940755,-0.5315406300949289,0.016487461136051665,-0.0007651591826787548,-0.16699982114390738,0.0,0.0,-0.6,0.0,0.0020880699157714844,0.004608869552612305,0
2.7856321334838867,-0.06416638940572739,-0.02299506589770317,-0.8092404007911682,0.13109065348733526,-0.5316736916131,0.02305146732147226,-0.0014127076891967715,-0.16605886985848684,0.0,0.0,-0.6,0.0,0.002671957015991211,0.005238771438598633,0
2.801363468170166,-0.06416638940572739,-0.02299506589770317,-0.8092404007911682,0.13109065348733526,-0.531780798516958,0.02753136413648995,-0.0018311464089557459,-0.16540020395869215,0.0,0.0,-0.6,0.0,0.0022287368774414062,0.004914283752441406,0
2.815793037414551,-0.06423725932836533,-0.02242705225944519,-0.8075670599937439,0.1297365794313945,-0.5319364649111702,0.028620017202605843,-0.0015801187987819658,-0.1644313600578584,0.0,0.0,-0.6,0.0,0.002554178237915039,0.004717826843261719,0
2.8285059928894043,-0.06423725932836533,-0.02242705225944519,-0.8075670599937439,0.1297365794313945,-0.532060884530446,0.029356830015618493,-0.0013759554701104119,-0.1637531693272745,0.0,0.0,-0.6,0.0,0.0020599365234375,0.003790616989135742,0
2.842445135116577,-0.06420852243900299,-0.022216733545064926,-0.8063799738883972,0.12860546553276916,-0.5321107574497937,0.0331992528562891,0.0014117173229097908,-0.16285426810388148,0.0,0.0,-0.6,0.0,0.001453399658203125,0.0028579235076904297,0
2.8521854877471924,-0.06421368569135666,-0.022110285237431526,-0.8058446049690247,0.1281633214754834,-0.5321810858281402,0.0358970184460935,-0.00019291352492273425,-0.1620592332260241,0.0,0.0,-0.6,0.0,0.0013422966003417969,0.0023784637451171875,0
2.860576868057251,-0.06421368569135666,-0.022110285237431526,-0.8058446049690247,0.1281633214754834,-0.5322389264751083,0.03773505640852139,-0.0012760583333382856,-0.1615027088115237,0.0,0.0,-0.6,0.0,0.0014820098876953125,0.0025587081909179688,0
2.8707265853881836,-0.06424255669116974,-0.021922215819358826,-0.8045865893363953,0.12702345613316796,-0.5323181549935526,0.03718803106715839,0.002945841547526715,-0.16068569221800538,0.0,0.0,-0.6,0.0,0.0013897418975830078,0.002729654312133789,0
2.8821864128112793,-0.06427481770515442,-0.02184484899044037,-0.804068386554718,0.12655790504846723,-0.5322284951529125,0.037966240201147396,0.004377158297939984,-0.15993919894577974,0.0,0.0,-0.6,0.0,0.0018799304962158203,0.0033075809478759766,0
2.8905704021453857,-0.06427481770515442,-0.02184484899044037,-0.804068386554718,0.12655790504846723,-0.5321561937137914,0.0385041162318131,0.0053345946150986845,-0.15941665365522156,0.0,0.0,-0.6,0.0,0.0019197463989257812,0.0030181407928466797,0
2.9011197090148926,-0.06430137902498245,-0.021693138405680656,-0.8032151460647583,0.12548491388485927,-0.5321370353787893,0.03931796275186584,0.006758769672074849,-0.15864850026547808,0.0,0.0,-0.6,0.0,0.0013308525085449219,0.0024261474609375,0
2.9107675552368164,-0.06432045251131058,-0.02166324481368065,-0.8027486205101013,0.12511457342548185,-0.532047760903479,0.043365079563432135,0.009109978245472862,-0.15797191522039103,0.0,0.0,-0.6,0.0,0.001506805419921875,0.0025663375854492188,0
2.920079231262207,-0.06432892382144928,-0.021637417376041412,-0.8022841215133667,0.12472275514995251,-0.5319520607931622,0.04804776354469953,0.009602498559765927,-0.15735137383550651,0.0,0.0,-0.6,0.0,0.002055644989013672,0.0031816959381103516,0
2.9304678440093994,-0.0643433928489685,-0.021632373332977295,-0.801808774471283,0.12436452614127089,-0.5319664627469467,0.04955663517341033,0.007744582894182549,-0.15678265898783172,0.0,0.0,-0.6,0.0,0.00144195556640625,0.0024330615997314453,0
