time,x,y,z,yaw,throttle,roll_rate,pitch_rate,yaw_rate,x_ref,y_ref,z_ref,yaw_ref,pred_time,nr_time,ctrl_callback_time,metadata
3.814697265625e-06,-0.03766030818223953,-0.20114867389202118,-0.23971952497959137,-0.12148428582667398,-0.5323686971573874,0.09827297266102257,-0.003356343037861539,0.045556607185036214,0.0,0.0,-0.6,0.0,0.001461029052734375,0.0024881362915039062,0.005080223083496094,Hardware
0.01156926155090332,-0.03760514408349991,-0.2011161744594574,-0.23973573744297028,-0.12150334379523965,-0.541170373208314,0.16541596553717658,-0.007337237580801597,0.07745337895276365,0.0,0.0,-0.6,0.0,0.0010731220245361328,0.0019965171813964844,0.004591226577758789,Nonlinear
0.02010941505432129,-0.037508681416511536,-0.2010815441608429,-0.23977038264274597,-0.1214874745070323,-0.5481804293770852,0.20957431618548747,-0.01173483603687646,0.0997751682070687,0.0,0.0,-0.6,0.0,0.0011742115020751953,0.002132892608642578,0.00454401969909668,2x Speed
0.03056621551513672,-0.037508681416511536,-0.2010815441608429,-0.23977038264274597,-0.1214874745070323,-0.5538037901108299,0.23758957519474666,-0.015204173328060589,0.11540042068509669,0.0,0.0,-0.6,0.0,0.0015993118286132812,0.002576589584350586,0.006094217300415039,0OrderHold
0.04046130180358887,-0.03742023557424545,-0.20105741918087006,-0.23979532718658447,-0.12149047848428166,-0.5583381168075919,0.25545234882264567,-0.017792288369199546,0.12633922391118133,0.0,0.0,-0.6,0.0,0.0018537044525146484,0.0029075145721435547,0.00607752799987793,QuatYawError
0.050693511962890625,-0.03738047182559967,-0.20105017721652985,-0.2398332953453064,-0.121474233974441,-0.5619351792902615,0.26501254888379433,-0.019073791304151693,0.13399029447823466,0.0,0.0,-0.6,0.0,0.0016994476318359375,0.003167390823364258,0.006033182144165039,NoPyJoules
0.060446977615356445,-0.03734244778752327,-0.2010500282049179,-0.23989146947860718,-0.12129525762651616,-0.5647920835613275,0.2712949793595255,-0.020497201036874947,0.13927892774470252,0.0,0.0,-0.6,0.0,0.0018525123596191406,0.003162860870361328,0.0063436031341552734,0
0.07043170928955078,-0.03734244778752327,-0.2010500282049179,-0.23989146947860718,-0.12129525762651616,-0.5670783960398137,0.27419618852557215,-0.02138262155281393,0.1429809710312316,0.0,0.0,-0.6,0.0,0.0018951892852783203,0.0030078887939453125,0.005967855453491211,0
0.08057975769042969,-0.03730781748890877,-0.2010972648859024,-0.2400190383195877,-0.12088909614561824,-0.5688680787242092,0.2752077910292527,-0.022043757668598316,0.14542009077646653,0.0,0.0,-0.6,0.0,0.0015811920166015625,0.0025637149810791016,0.00504302978515625,0
0.08981943130493164,-0.03730781748890877,-0.2010972648859024,-0.2400190383195877,-0.12088909614561824,-0.5702925994847287,0.27498830837907623,-0.022421128977440988,0.1471274745981317,0.0,0.0,-0.6,0.0,0.0016624927520751953,0.0025985240936279297,0.005080699920654297,0
0.09987616539001465,-0.03727442026138306,-0.20114268362522125,-0.2400825172662735,-0.12084768039532813,-0.5714215303190244,0.27398103826686476,-0.023198419498739086,0.14830711236693905,0.0,0.0,-0.6,0.0,0.001302480697631836,0.002239227294921875,0.0046727657318115234,0
0.11134600639343262,-0.037227701395750046,-0.2011917680501938,-0.24014927446842194,-0.12066339351508794,-0.5722539834432464,0.2745808333526919,-0.0201474009908334,0.14906375122501456,0.0,0.0,-0.6,0.0,0.0010929107666015625,0.0019080638885498047,0.0046999454498291016,0
0.12183642387390137,-0.03719587251543999,-0.20125873386859894,-0.24018247425556183,-0.12046486501682985,-0.5729386450933387,0.27491544674430385,-0.017679856565602194,0.14951895023882092,0.0,0.0,-0.6,0.0,0.004319190979003906,0.007841348648071289,0.014653921127319336,0
0.14502787590026855,-0.0370241180062294,-0.20134864747524261,-0.2404036968946457,-0.12017927261979743,-0.5734184395686088,0.27343761847952536,-0.016576576980048805,0.14973049239959846,0.0,0.0,-0.6,0.0,0.0043985843658447266,0.007306098937988281,0.015390396118164062,0
0.16370058059692383,-0.0370241180062294,-0.20134864747524261,-0.2404036968946457,-0.12017927261979743,-0.573794905471233,0.27217282908683077,-0.01579635606035744,0.1498785719121428,0.0,0.0,-0.6,0.0,0.0040683746337890625,0.00742030143737793,0.0164182186126709,0
0.18705987930297852,-0.03667612373828888,-0.20131084322929382,-0.24126897752285004,-0.11872830491331499,-0.573692078074161,0.26335124817518196,-0.012683547905666224,0.1494381146809935,0.0,0.0,-0.6,0.0,0.0034935474395751953,0.0065042972564697266,0.016245126724243164,0
0.20706653594970703,-0.03667612373828888,-0.20131084322929382,-0.24126897752285004,-0.11872830491331499,-0.5735825464775194,0.25732000764792223,-0.010554776444573302,0.14912979461918888,0.0,0.0,-0.6,0.0,0.002832651138305664,0.006289005279541016,0.014468908309936523,0
0.22928380966186523,-0.036482155323028564,-0.20074529945850372,-0.2431541532278061,-0.11495299736873596,-0.5730283752537865,0.23137272940377512,-0.0038563978490752226,0.14749823024670983,0.0,0.0,-0.6,0.0,0.003347158432006836,0.0075190067291259766,0.01405024528503418,0
0.24612021446228027,-0.036482155323028564,-0.20074529945850372,-0.2431541532278061,-0.11495299736873596,-0.5724989070641727,0.2137991536142993,0.0006662308937121445,0.146356135185974,0.0,0.0,-0.6,0.0,0.002931833267211914,0.005046367645263672,0.013641834259033203,0
0.26697301864624023,-0.03646039217710495,-0.20005570352077484,-0.24597014486789703,-0.10991523738516853,-0.5714023747999571,0.18485511923031653,0.0038086008081351457,0.1436675086496227,0.0,0.0,-0.6,0.0,0.004347324371337891,0.007470130920410156,0.014732122421264648,0
0.2899785041809082,-0.036674920469522476,-0.19933342933654785,-0.24963614344596863,-0.103848678655802,-0.5699331546371081,0.15018091273505824,0.008871594389937674,0.1395105105506658,0.0,0.0,-0.6,0.0,0.002676248550415039,0.004720211029052734,0.013249874114990234,0
0.3108937740325928,-0.036674920469522476,-0.19933342933654785,-0.24963614344596863,-0.103848678655802,-0.5686508820944455,0.12720812864579198,0.012123423363082048,0.13660061188139472,0.0,0.0,-0.6,0.0,0.005568265914916992,0.008001089096069336,0.017115116119384766,0
0.32880616188049316,-0.037111617624759674,-0.1980433166027069,-0.25603142380714417,-0.09469126527825066,-0.5668514646264995,0.08571711026751261,0.019748152063058688,0.13112965279632577,0.0,0.0,-0.6,0.0,0.00128936767578125,0.0022726058959960938,0.004625082015991211,0
0.3363051414489746,-0.037111617624759674,-0.1980433166027069,-0.25603142380714417,-0.09469126527825066,-0.5652878126476114,0.05831486442575823,0.024644926668065212,0.12729998143677587,0.0,0.0,-0.6,0.0,0.0016269683837890625,0.002747774124145508,0.00592803955078125,0
0.34389710426330566,-0.037111617624759674,-0.1980433166027069,-0.25603142380714417,-0.09469126527825066,-0.563972396345078,0.040374263280161596,0.027787831113787555,0.12461921148508978,0.0,0.0,-0.6,0.0,0.0017309188842773438,0.0031828880310058594,0.006301403045654297,0
0.3530857563018799,-0.03735329210758209,-0.19722241163253784,-0.2598564624786377,-0.08969912918391437,-0.5625047628226093,0.013513812087277949,0.030836415389682525,0.12087062148352147,0.0,0.0,-0.6,0.0,0.0016205310821533203,0.0028667449951171875,0.005975484848022461,0
0.3612992763519287,-0.03735329210758209,-0.19722241163253784,-0.2598564624786377,-0.08969912918391437,-0.5612751521239648,-0.004115125228593593,0.03273191961093853,0.11824660848243099,0.0,0.0,-0.6,0.0,0.0014650821685791016,0.0026121139526367188,0.0060176849365234375,0
0.37163519859313965,-0.03762221708893776,-0.19626498222351074,-0.2641107439994812,-0.08434680109586373,-0.5598068926687998,-0.03134095516631723,0.0337873999349735,0.11440267634865443,0.0,0.0,-0.6,0.0,0.0015299320220947266,0.0027437210083007812,0.005943775177001953,0
0.3815269470214844,-0.0377754271030426,-0.19570352137088776,-0.2663566470146179,-0.08128245618878352,-0.5583726591854967,-0.056828568443240926,0.036110397927526426,0.1105627945148491,0.0,0.0,-0.6,0.0,0.0013980865478515625,0.002438068389892578,0.005487918853759766,0
0.39075136184692383,-0.03795090690255165,-0.19509708881378174,-0.26870667934417725,-0.07807674085495152,-0.5570207534768297,-0.08057311009751139,0.03854980701744909,0.10667273398100509,0.0,0.0,-0.6,0.0,0.0015683174133300781,0.002737283706665039,0.0059947967529296875,0
0.4014122486114502,-0.038145244121551514,-0.19447071850299835,-0.27116525173187256,-0.07537031066825685,-0.55566742626143,-0.10170078480747094,0.040753807636358594,0.10293478028730361,0.0,0.0,-0.6,0.0,0.001617431640625,0.0029633045196533203,0.006092548370361328,0
0.4123995304107666,-0.03836493939161301,-0.19383575022220612,-0.2737370431423187,-0.07211216329280641,-0.5543308624062516,-0.12090716784589496,0.042111960392741524,0.09909640743591211,0.0,0.0,-0.6,0.0,0.0015411376953125,0.002759218215942383,0.006189584732055664,0
0.42095303535461426,-0.03836493939161301,-0.19383575022220612,-0.2737370431423187,-0.07211216329280641,-0.5532413253913655,-0.13341506942534595,0.04288004611554668,0.09640954643994357,0.0,0.0,-0.6,0.0,0.0021584033966064453,0.004037141799926758,0.009378671646118164,0
0.435793399810791,-0.03881092742085457,-0.19247294962406158,-0.2791000008583069,-0.06595460927322373,-0.5519147051990511,-0.1513927811540156,0.044409240695687004,0.09221966098541631,0.0,0.0,-0.6,0.0,0.0029244422912597656,0.004696369171142578,0.00938105583190918,0
0.4471304416656494,-0.03927156329154968,-0.1910000890493393,-0.28482556343078613,-0.059183284410525,-0.550362068974945,-0.17256785537432595,0.04456015506828492,0.08674749434373427,0.0,0.0,-0.6,0.0,0.0025756359100341797,0.004588127136230469,0.00870203971862793,0
0.45929527282714844,-0.03927156329154968,-0.1910000890493393,-0.28482556343078613,-0.059183284410525,-0.5491039614312427,-0.18634807810975212,0.04447442624214582,0.0829169776945647,0.0,0.0,-0.6,0.0,0.002443075180053711,0.004526376724243164,0.008686542510986328,0
0.4734172821044922,-0.03983904421329498,-0.1890658587217331,-0.29169127345085144,-0.05113015474468305,-0.5476229922982255,-0.20748503954704384,0.03224346800089786,0.07721569241545713,0.0,0.0,-0.6,0.0,0.0032444000244140625,0.004348278045654297,0.008435487747192383,0
0.4825608730316162,-0.03983904421329498,-0.1890658587217331,-0.29169127345085144,-0.05113015474468305,-0.5464266465126514,-0.22127757967576728,0.02370724644466886,0.07322479272007666,0.0,0.0,-0.6,0.0,0.0033943653106689453,0.004695892333984375,0.009211301803588867,0
0.49798583984375,-0.040069665759801865,-0.18735343217849731,-0.29815781116485596,-0.04484336355586933,-0.5450710924043825,-0.23475590121144232,0.015029203592550722,0.06807361623750534,0.0,0.0,-0.6,0.0,0.0013566017150878906,0.0037267208099365234,0.010184049606323242,0
0.5125763416290283,-0.040069665759801865,-0.18735343217849731,-0.29815781116485596,-0.04484336355586933,-0.5439873920959829,-0.24344383641744197,0.008905227555121062,0.0644677926997052,0.0,0.0,-0.6,0.0,0.0014638900756835938,0.002437114715576172,0.007306337356567383,0
0.524855375289917,-0.04048328474164009,-0.1849786639213562,-0.3073049783706665,-0.034401617440783835,-0.5427607803574294,-0.24390670537978626,0.012131716426340481,0.05802806143008844,0.0,0.0,-0.6,0.0,0.002086639404296875,0.0031595230102539062,0.007574558258056641,0
0.5353617668151855,-0.04048328474164009,-0.1849786639213562,-0.3073049783706665,-0.034401617440783835,-0.54178153246437,-0.2438639827850354,0.014166452747047234,0.05352024954135254,0.0,0.0,-0.6,0.0,0.0016574859619140625,0.0039577484130859375,0.00954437255859375,0
0.5496115684509277,-0.040896933525800705,-0.1824091225862503,-0.31659284234046936,-0.023914384400867416,-0.5407829164436578,-0.2433512446597834,0.018072652632167473,0.046432068829279145,0.0,0.0,-0.6,0.0,0.0012538433074951172,0.0032520294189453125,0.008012056350708008,0
0.5631909370422363,-0.040896933525800705,-0.1824091225862503,-0.31659284234046936,-0.023914384400867416,-0.5399849928782933,-0.24276675872259973,0.020610530163360067,0.041470342330825645,0.0,0.0,-0.6,0.0,0.002634286880493164,0.005000114440917969,0.010665416717529297,0
0.57798171043396,-0.041366588324308395,-0.17928141355514526,-0.3268051743507385,-0.013904650298039476,-0.5391190148114026,-0.23294053096726502,0.02026945497345834,0.03424348349334372,0.0,0.0,-0.6,0.0,0.0018117427825927734,0.004103899002075195,0.008580684661865234,0
0.591625452041626,-0.041366588324308395,-0.17928141355514526,-0.3268051743507385,-0.013904650298039476,-0.53842357514528,-0.22606461342981693,0.019965843354245123,0.029184682307108273,0.0,0.0,-0.6,0.0,0.0013005733489990234,0.0037190914154052734,0.007564544677734375,0
0.6038243770599365,-0.04158671572804451,-0.1773959845304489,-0.33269450068473816,-0.006790508864850564,-0.5377532124907719,-0.2200100790893243,0.0242842178370964,0.022975718439292882,0.0,0.0,-0.6,0.0,0.002420186996459961,0.005277156829833984,0.01056814193725586,0
0.619936466217041,-0.04180917888879776,-0.17501886188983917,-0.33942869305610657,-0.00018281471546046087,-0.5371312179491872,-0.21313578028217053,0.026930312492459054,0.016151558425797675,0.0,0.0,-0.6,0.0,0.0027723312377929688,0.0038785934448242188,0.008405923843383789,0
0.6325273513793945,-0.04206661880016327,-0.17279358208179474,-0.3453077971935272,0.007100039321388046,-0.5364984978660653,-0.20463218266729793,0.03218676957236559,0.008643576152535592,0.0,0.0,-0.6,0.0,0.004215240478515625,0.00752568244934082,0.01311182975769043,0
0.6513006687164307,-0.04206661880016327,-0.17279358208179474,-0.3453077971935272,0.007100039321388046,-0.5359860768786427,-0.198781536676299,0.03570506447279648,0.003387988561252815,0.0,0.0,-0.6,0.0,0.004324913024902344,0.007887601852416992,0.015416860580444336,0
0.6715643405914307,-0.04261643812060356,-0.1683613806962967,-0.3559580147266388,0.01921536088002103,-0.5355310884979959,-0.191950104811309,0.03982077332941182,-0.004834168337129826,0.0,0.0,-0.6,0.0,0.0039899349212646484,0.008268117904663086,0.017868757247924805,0
0.6944770812988281,-0.04261643812060356,-0.1683613806962967,-0.3559580147266388,0.01921536088002103,-0.5351615081434103,-0.1872767065811905,0.04257842288681811,-0.010589678165998002,0.0,0.0,-0.6,0.0,0.00412440299987793,0.0067980289459228516,0.016582012176513672,0
0.7178595066070557,-0.04358614236116409,-0.16160254180431366,-0.3709133565425873,0.03632082814090202,-0.5347330414229547,-0.16540927219336013,0.05566548971567872,-0.021033085269035474,0.0,0.0,-0.6,0.0,0.004075288772583008,0.006945133209228516,0.01566338539123535,0
0.7376084327697754,-0.04358614236116409,-0.16160254180431366,-0.3709133565425873,0.03632082814090202,-0.5343615366997121,-0.1505738388160802,0.06464778665695915,-0.02834347024116529,0.0,0.0,-0.6,0.0,0.0040476322174072266,0.008494853973388672,0.014213085174560547,0
0.758843183517456,-0.044305168092250824,-0.1560274064540863,-0.3826177716255188,0.049834812682330136,-0.5337643494833194,-0.136424215264015,0.07017549316008592,-0.038528483924688155,0.0,0.0,-0.6,0.0,0.003155946731567383,0.0064983367919921875,0.014904499053955078,0
0.7788550853729248,-0.044305168092250824,-0.1560274064540863,-0.3826177716255188,0.049834812682330136,-0.5332743021560301,-0.1268147336223019,0.07392768061282362,-0.04565799350315147,0.0,0.0,-0.6,0.0,0.0037314891815185547,0.008034944534301758,0.017337322235107422,0
0.8010942935943604,-0.04515449330210686,-0.1484282910823822,-0.3984217941761017,0.06791233910262863,-0.5325501596743812,-0.10510708765456067,0.07576024569216072,-0.05742772261569021,0.0,0.0,-0.6,0.0,0.0029506683349609375,0.007091999053955078,0.016407012939453125,0
0.8255815505981445,-0.04515449330210686,-0.1484282910823822,-0.3984217941761017,0.06791233910262863,-0.5319519427914544,-0.09035445821701217,0.07704681414990813,-0.06566653299446779,0.0,0.0,-0.6,0.0,0.004557609558105469,0.007415294647216797,0.014450550079345703,0
0.8446755409240723,-0.045756228268146515,-0.14248430728912354,-0.41111207008361816,0.0815928796200866,-0.5311489154425488,-0.07196769323064404,0.08140136940758153,-0.07656390295365847,0.0,0.0,-0.6,0.0,0.0043964385986328125,0.008499383926391602,0.017647743225097656,0
0.8673326969146729,-0.045756228268146515,-0.14248430728912354,-0.41111207008361816,0.0815928796200866,-0.5304932855966897,-0.05950091782356727,0.08436972769111091,-0.08419206192509239,0.0,0.0,-0.6,0.0,0.002048492431640625,0.004866600036621094,0.009950399398803711,0
0.8784463405609131,-0.04621607065200806,-0.13813409209251404,-0.4206312298774719,0.0914223334521356,-0.5297678688306674,-0.04528180118962035,0.0807762853205585,-0.0932178183921065,0.0,0.0,-0.6,0.0,0.0015113353729248047,0.002521514892578125,0.005512714385986328,0
0.8855447769165039,-0.04621607065200806,-0.13813409209251404,-0.4206312298774719,0.0914223334521356,-0.5291806898358522,-0.03559746223628944,0.07830264507719185,-0.099535847919041,0.0,0.0,-0.6,0.0,0.0014476776123046875,0.002584695816040039,0.0061528682708740234,0
0.8950035572052002,-0.04649358615279198,-0.1353188008069992,-0.42695388197898865,0.0976026568822485,-0.5286284735620189,-0.025056270758155752,0.07686920851206193,-0.10627608987416515,0.0,0.0,-0.6,0.0,0.0018947124481201172,0.0031621456146240234,0.0059680938720703125,0
0.9027185440063477,-0.04649358615279198,-0.1353188008069992,-0.42695388197898865,0.0976026568822485,-0.5281834227998435,-0.017875873266098817,0.07585518309590195,-0.11099425924276225,0.0,0.0,-0.6,0.0,0.0013425350189208984,0.002895355224609375,0.005776405334472656,0
0.9127421379089355,-0.0466078519821167,-0.13394372165203094,-0.430105596780777,0.1008431172746331,-0.5277606706616309,-0.009956670575817641,0.07697876600061622,-0.11551215044793214,0.0,0.0,-0.6,0.0,0.0018475055694580078,0.0032241344451904297,0.006474971771240234,0
0.9218659400939941,-0.0468372143805027,-0.13092391192913055,-0.43719589710235596,0.10765861964755907,-0.5273429077270885,0.0026467375204764984,0.07656835422992196,-0.12123048768139136,0.0,0.0,-0.6,0.0,0.011960744857788086,0.015457630157470703,0.019324541091918945,0
0.9486727714538574,-0.0468372143805027,-0.13092391192913055,-0.43719589710235596,0.10765861964755907,-0.5270055992096065,0.011235794195360787,0.07627322371234002,-0.12523332374481155,0.0,0.0,-0.6,0.0,0.0039691925048828125,0.007086992263793945,0.015706300735473633,0
0.9714608192443848,-0.04735926538705826,-0.1261633336544037,-0.4487689733505249,0.11886436179420093,-0.5264585426685668,0.027673481042736953,0.07426414746524224,-0.13223746229418643,0.0,0.0,-0.6,0.0,0.004103899002075195,0.008029460906982422,0.01642751693725586,0
0.9929525852203369,-0.04735926538705826,-0.1261633336544037,-0.4487689733505249,0.11886436179420093,-0.5260175748346617,0.038879981218806356,0.07289508229083592,-0.13714035927875093,0.0,0.0,-0.6,0.0,0.003969669342041016,0.007271528244018555,0.015705108642578125,0
1.0188953876495361,-0.04791438952088356,-0.12046439945697784,-0.4633110761642456,0.13202866064124927,-0.5255054218607689,0.05092460309730592,0.06963164832927499,-0.14550899923558575,0.0,0.0,-0.6,0.0,0.003285646438598633,0.006291866302490234,0.01578545570373535,0
1.0376818180084229,-0.04791438952088356,-0.12046439945697784,-0.4633110761642456,0.13202866064124927,-0.5250954212080703,0.059152418585044275,0.06741349125069576,-0.15136704720537264,0.0,0.0,-0.6,0.0,0.003077268600463867,0.007177829742431641,0.015120506286621094,0
1.0620605945587158,-0.048210885375738144,-0.11574382334947586,-0.47619983553886414,0.14350108633571276,-0.5246299711227429,0.068867686717569,0.0569529624406416,-0.15976984041964473,0.0,0.0,-0.6,0.0,0.002029895782470703,0.003849029541015625,0.011629343032836914,0
1.082324743270874,-0.04839717224240303,-0.11399112641811371,-0.4813522398471832,0.1485334141849502,-0.5241246613951815,0.07547536968201059,0.044822562785668825,-0.16753891861309986,0.0,0.0,-0.6,0.0,0.00447845458984375,0.0075778961181640625,0.016307830810546875,0
1.105576515197754,-0.048686109483242035,-0.11147614568471909,-0.48939913511276245,0.15577926509045736,-0.5236074244790446,0.08549506629034415,0.03168414882590824,-0.17569446743808326,0.0,0.0,-0.6,0.0,0.002495288848876953,0.005613803863525391,0.0127716064453125,0
1.126849889755249,-0.048874158412218094,-0.1097082644701004,-0.49519991874694824,0.16014934579005574,-0.5231467680255757,0.0890380886866479,0.02017511094177312,-0.18304213187792184,0.0,0.0,-0.6,0.0,0.002435445785522461,0.004282236099243164,0.011855125427246094,0
1.14495849609375,-0.049034953117370605,-0.10804872959852219,-0.5009621381759644,0.1649716305600925,-0.5226419454291034,0.08672062886047083,0.00476485004794768,-0.18999385377457303,0.0,0.0,-0.6,0.0,0.003721952438354492,0.007686138153076172,0.016333818435668945,0
1.1650137901306152,-0.049034953117370605,-0.10804872959852219,-0.5009621381759644,0.1649716305600925,-0.5222363832532684,0.08525257410477576,-0.00579608608011099,-0.19486005910223095,0.0,0.0,-0.6,0.0,0.0033605098724365234,0.0060939788818359375,0.01138448715209961,0
1.1829383373260498,-0.04944863170385361,-0.105084128677845,-0.5122592449188232,0.1738394938565183,-0.5218852898139394,0.09168063908484501,-0.01745687752828353,-0.2015918515677493,0.0,0.0,-0.6,0.0,0.005490541458129883,0.007070779800415039,0.012237310409545898,0
1.200021505355835,-0.04961725324392319,-0.10377917438745499,-0.5178712010383606,0.17835508670361588,-0.5214993417092992,0.096505361110031,-0.031413494607618504,-0.20799745361127406,0.0,0.0,-0.6,0.0,0.013002395629882812,0.015079975128173828,0.019905805587768555,0
1.2244699001312256,-0.04961725324392319,-0.10377917438745499,-0.5178712010383606,0.17835508670361588,-0.5211959705719997,0.0998980108050833,-0.04095454878526027,-0.2124813750417433,0.0,0.0,-0.6,0.0,0.007000923156738281,0.008618593215942383,0.0140380859375,0
1.2422196865081787,-0.05005080625414848,-0.10148118436336517,-0.5287666320800781,0.18652794230883535,-0.5208724187957465,0.09760289740772209,-0.05349141066051891,-0.21868494089502735,0.0,0.0,-0.6,0.0,0.0017151832580566406,0.003050088882446289,0.008287429809570312,0
1.2548198699951172,-0.05005080625414848,-0.10148118436336517,-0.5287666320800781,0.18652794230883535,-0.5206156399520515,0.09613461298787214,-0.06208683417750589,-0.22302743699232808,0.0,0.0,-0.6,0.0,0.002589702606201172,0.0040776729583740234,0.010361194610595703,0
1.26949143409729,-0.050490591675043106,-0.10004324465990067,-0.5367271304130554,0.19235927485942816,-0.5203312987556842,0.10111662763889774,-0.07525128789119247,-0.22825393396691,0.0,0.0,-0.6,0.0,0.0027856826782226562,0.00491786003112793,0.010271310806274414,0
1.2831242084503174,-0.050490591675043106,-0.10004324465990067,-0.5367271304130554,0.19235927485942816,-0.5201135518534687,0.10460626298970978,-0.08425996259241872,-0.2319124818491189,0.0,0.0,-0.6,0.0,0.021508216857910156,0.022782325744628906,0.02764892578125,0
1.3198552131652832,-0.05120674893260002,-0.09827243536710739,-0.5476924180984497,0.19973034905375547,-0.5198692865176995,0.10377752100717202,-0.0904967909621421,-0.2372376181895362,0.0,0.0,-0.6,0.0,0.0053255558013916016,0.00751495361328125,0.011832475662231445,0
1.3361785411834717,-0.05157707631587982,-0.09758094698190689,-0.552677571773529,0.20239261222329824,-0.5196266523771689,0.10508607284447165,-0.09896928695636686,-0.24196356231640745,0.0,0.0,-0.6,0.0,0.002288341522216797,0.0042705535888671875,0.009920358657836914,0
1.3503270149230957,-0.0520005077123642,-0.09704946726560593,-0.5568839907646179,0.2053113338509207,-0.5195716806477625,0.1030122582967585,-0.10364927991587385,-0.2463662438155761,0.0,0.0,-0.6,0.0,0.0022280216217041016,0.004531383514404297,0.01061391830444336,0
1.363919973373413,-0.0520005077123642,-0.09704946726560593,-0.5568839907646179,0.2053113338509207,-0.5195297763373385,0.10162552726959377,-0.10685819269548494,-0.24944812086499543,0.0,0.0,-0.6,0.0,0.0027163028717041016,0.005099058151245117,0.010796308517456055,0
1.3795087337493896,-0.05266853794455528,-0.0962052270770073,-0.5639774203300476,0.20913225996808543,-0.5194436241536797,0.10115411034288183,-0.10586519678616099,-0.25303828209352525,0.0,0.0,-0.6,0.0,0.0025331974029541016,0.004992008209228516,0.011090278625488281,0
1.392981767654419,-0.05266853794455528,-0.0962052270770073,-0.5639774203300476,0.20913225996808543,-0.5193729672802034,0.10085206928094596,-0.10520657613534577,-0.25555139495349716,0.0,0.0,-0.6,0.0,0.0025053024291992188,0.004583597183227539,0.010304927825927734,0
1.407576084136963,-0.05341582000255585,-0.0955582782626152,-0.570219099521637,0.21283917960124424,-0.5194076524729173,0.09373062850357024,-0.10577719185020698,-0.2587006688179115,0.0,0.0,-0.6,0.0,0.0025959014892578125,0.004696846008300781,0.010600805282592773,0
1.4233593940734863,-0.05341582000255585,-0.0955582782626152,-0.570219099521637,0.21283917960124424,-0.5194281772159246,0.08886261074237582,-0.106164456669879,-0.2609051605229718,0.0,0.0,-0.6,0.0,0.002320528030395508,0.0046672821044921875,0.010549306869506836,0
1.4374313354492188,-0.05405686795711517,-0.09507907181978226,-0.5751344561576843,0.21556896402888917,-0.5194807782637263,0.0831898070826253,-0.1025282481510448,-0.2634719738769111,0.0,0.0,-0.6,0.0,0.0022330284118652344,0.004281759262084961,0.009924888610839844,0
1.4514431953430176,-0.05468067526817322,-0.09464937448501587,-0.5793296694755554,0.21771055018229918,-0.5196175312993097,0.07885158999683105,-0.09876322291261616,-0.26607183803219736,0.0,0.0,-0.6,0.0,0.002660036087036133,0.00507807731628418,0.010444402694702148,0
1.4652025699615479,-0.05528130754828453,-0.09427820891141891,-0.5828503370285034,0.21971482252022,-0.5197235751588953,0.07150108736416429,-0.09438921482396839,-0.26864334506761806,0.0,0.0,-0.6,0.0,0.002433300018310547,0.004759550094604492,0.0101776123046875,0
1.4794886112213135,-0.05528130754828453,-0.09427820891141891,-0.5828503370285034,0.21971482252022,-0.5197951104933706,0.06644343255384885,-0.09137319615368864,-0.27044339999241335,0.0,0.0,-0.6,0.0,0.0026504993438720703,0.004934072494506836,0.010740041732788086,0
1.4940409660339355,-0.05632302165031433,-0.09376905113458633,-0.588225781917572,0.2222928688360011,-0.5199129703889906,0.060364043509581806,-0.09059473896741561,-0.2726702058081875,0.0,0.0,-0.6,0.0,0.002390623092651367,0.004388093948364258,0.010265350341796875,0
1.5071935653686523,-0.05632302165031433,-0.09376905113458633,-0.588225781917572,0.2222928688360011,-0.5200002291596159,0.056179302568916935,-0.09002724226009384,-0.2742289698792301,0.0,0.0,-0.6,0.0,0.0024726390838623047,0.004736661911010742,0.010640621185302734,0
1.523716688156128,-0.057176511734724045,-0.09340299665927887,-0.5919955372810364,0.22368004725467627,-0.5200609492263146,0.05039371024596777,-0.08612633020737856,-0.27584029663596304,0.0,0.0,-0.6,0.0,0.0024957656860351562,0.004723787307739258,0.01354217529296875,0
1.5425808429718018,-0.05838082730770111,-0.0928773507475853,-0.5970993638038635,0.22569441235656001,-0.520125045112267,0.03970787078018592,-0.08206574878940544,-0.27772361227888226,0.0,0.0,-0.6,0.0,0.0020797252655029297,0.003712892532348633,0.0074422359466552734,0
1.5530712604522705,-0.05838082730770111,-0.0928773507475853,-0.5970993638038635,0.22569441235656001,-0.5201597743179438,0.03238413618514128,-0.07927189532974117,-0.2790419332289263,0.0,0.0,-0.6,0.0,0.0019414424896240234,0.003446817398071289,0.006968975067138672,0
1.5633182525634766,-0.05925578624010086,-0.09246794134378433,-0.6006722450256348,0.2267354248229337,-0.5202596376912103,0.022902320808500316,-0.06982058135373401,-0.2803551375688472,0.0,0.0,-0.6,0.0,0.0016927719116210938,0.0032804012298583984,0.007325649261474609,0
1.5741322040557861,-0.05925578624010086,-0.09246794134378433,-0.6006722450256348,0.2267354248229337,-0.5203179745772355,0.01638429270329347,-0.06332852536315572,-0.2812743806067923,0.0,0.0,-0.6,0.0,0.0020394325256347656,0.003636598587036133,0.007808685302734375,0
1.585099697113037,-0.06043872982263565,-0.09188567101955414,-0.6053678393363953,0.22816444766891797,-0.5203820150383028,0.005252052444610272,-0.05847951858852172,-0.28245373430058124,0.0,0.0,-0.6,0.0,0.0017609596252441406,0.003315448760986328,0.007500410079956055,0
1.5957362651824951,-0.06043872982263565,-0.09188567101955414,-0.6053678393363953,0.22816444766891797,-0.5204174915122336,-0.002373999508738159,-0.055145179544398806,-0.2832792818862503,0.0,0.0,-0.6,0.0,0.001905202865600586,0.0034515857696533203,0.007701873779296875,0
1.6060559749603271,-0.06043872982263565,-0.09188567101955414,-0.6053678393363953,0.22816444766891797,-0.52043620432574,-0.007593492271601705,-0.05285452489864913,-0.28385716519621884,0.0,0.0,-0.6,0.0,0.0017888545989990234,0.003222227096557617,0.007380247116088867,0
1.6180737018585205,-0.06169348210096359,-0.09122779220342636,-0.6102496385574341,0.22949969815077081,-0.520514290569124,-0.012826070678907488,-0.046813912309047745,-0.28476240244389134,0.0,0.0,-0.6,0.0,0.0016787052154541016,0.003245830535888672,0.0075113773345947266,0
1.6276252269744873,-0.06169348210096359,-0.09122779220342636,-0.6102496385574341,0.22949969815077081,-0.5205658726391643,-0.01642551977147017,-0.04265831645774324,-0.28539606851726235,0.0,0.0,-0.6,0.0,0.0016603469848632812,0.003270864486694336,0.0073320865631103516,0
1.6393191814422607,-0.06250554323196411,-0.09072854369878769,-0.6133118271827698,0.23026647110774418,-0.5207560231241595,-0.021867181870079945,-0.0388672996928291,-0.286127174627487,0.0,0.0,-0.6,0.0,0.0018444061279296875,0.0033249855041503906,0.007512569427490234,0
1.6491093635559082,-0.06250554323196411,-0.09072854369878769,-0.6133118271827698,0.23026647110774418,-0.5209005367059122,-0.02563400233530306,-0.03620872508844551,-0.2866389489046444,0.0,0.0,-0.6,0.0,0.0014672279357910156,0.002780437469482422,0.006556034088134766,0
1.6593000888824463,-0.0632915049791336,-0.09014734625816345,-0.6162497997283936,0.23091859483468116,-0.5211381269134858,-0.03450254334557767,-0.03144440697999837,-0.2872417372962559,0.0,0.0,-0.6,0.0,0.0018184185028076172,0.0034101009368896484,0.007709980010986328,0
1.6694927215576172,-0.0632915049791336,-0.09014734625816345,-0.6162497997283936,0.23091859483468116,-0.5213176676378996,-0.04061927213164013,-0.028102831231326165,-0.28766368917038415,0.0,0.0,-0.6,0.0,0.0017249584197998047,0.0032656192779541016,0.007546186447143555,0
1.6805827617645264,-0.06406821310520172,-0.0895245224237442,-0.6189883947372437,0.23134290804927524,-0.5215425860662489,-0.0471181524212643,-0.02089909510187979,-0.28811817293774034,0.0,0.0,-0.6,0.0,0.0016999244689941406,0.0032711029052734375,0.007557868957519531,0
1.6907892227172852,-0.06406821310520172,-0.0895245224237442,-0.6189883947372437,0.23134290804927524,-0.5217112226369274,-0.0516104417460752,-0.015892981396254304,-0.2884363115749006,0.0,0.0,-0.6,0.0,0.0018100738525390625,0.003385782241821289,0.007982015609741211,0
1.701967716217041,-0.06485318392515182,-0.08885785192251205,-0.6215574145317078,0.23178257873496155,-0.5218893002738265,-0.05370786801117694,-0.006346267749314797,-0.2888238851280406,0.0,0.0,-0.6,0.0,0.001641988754272461,0.0031070709228515625,0.007565975189208984,0
1.713602066040039,-0.06485318392515182,-0.08885785192251205,-0.6215574145317078,0.23178257873496155,-0.5220203691247168,-0.05518316928587383,0.00024084819322398813,-0.2890951866152387,0.0,0.0,-0.6,0.0,0.0020678043365478516,0.003781557083129883,0.007752180099487305,0
1.72442626953125,-0.06562214344739914,-0.08813389390707016,-0.6239758133888245,0.23205714381544656,-0.5223110645731242,-0.0584276218033636,0.00047546704764117375,-0.28938805956146335,0.0,0.0,-0.6,0.0,0.0017094612121582031,0.003242969512939453,0.007536411285400391,0
1.735246181488037,-0.06562214344739914,-0.08813389390707016,-0.6239758133888245,0.23205714381544656,-0.5225426949872397,-0.06069990674714454,0.0007322730496487839,-0.2895930706238166,0.0,0.0,-0.6,0.0,0.0016984939575195312,0.0031604766845703125,0.007494688034057617,0
1.745969533920288,-0.06647948920726776,-0.08730859309434891,-0.6264575719833374,0.23214787128208403,-0.52283624753011,-0.066934296845624,0.0027467856266795493,-0.28977060116745296,0.0,0.0,-0.6,0.0,0.0015301704406738281,0.003048419952392578,0.007393836975097656,0
1.75602126121521,-0.06647948920726776,-0.08730859309434891,-0.6264575719833374,0.23214787128208403,-0.5230675071372521,-0.07124837591083155,0.004222349921202625,-0.28989487254799845,0.0,0.0,-0.6,0.0,0.0015316009521484375,0.003049135208129883,0.0068547725677490234,0
1.7657651901245117,-0.06719892472028732,-0.08651947975158691,-0.6285271644592285,0.23213381579732514,-0.5233389898849256,-0.07391114049544945,0.006388248303573625,-0.28997659170759577,0.0,0.0,-0.6,0.0,0.0017545223236083984,0.0033745765686035156,0.007745027542114258,0
1.7765707969665527,-0.06719892472028732,-0.08651947975158691,-0.6285271644592285,0.23213381579732514,-0.5235538768322259,-0.07577571589471677,0.007958559561129817,-0.2900337951193139,0.0,0.0,-0.6,0.0,0.0017058849334716797,0.0031948089599609375,0.007471323013305664,0
1.7873687744140625,-0.06803279370069504,-0.08561383187770844,-0.6306588053703308,0.23195560627656842,-0.5238707978980607,-0.07417582619673024,0.007673323570588003,-0.2900070089372329,0.0,0.0,-0.6,0.0,0.0018439292907714844,0.003524303436279297,0.0076770782470703125,0
1.7981648445129395,-0.06803279370069504,-0.08561383187770844,-0.6306588053703308,0.23195560627656842,-0.5241249187563656,-0.07313145859235677,0.007580807611427279,-0.28998825860977645,0.0,0.0,-0.6,0.0,0.0017614364624023438,0.0033464431762695312,0.007917404174804688,0
1.8094239234924316,-0.06866110861301422,-0.08473295718431473,-0.6324653029441833,0.23171141194402461,-0.5243403395970997,-0.07310913329294966,0.010439740287741287,-0.28988356050585284,0.0,0.0,-0.6,0.0,0.0018682479858398438,0.0034165382385253906,0.007716655731201172,0
1.8211109638214111,-0.06920724362134933,-0.08390212059020996,-0.6339621543884277,0.23129725350904326,-0.5245802066027261,-0.07369989142069433,0.010021475446968027,-0.28965496241998845,0.0,0.0,-0.6,0.0,0.0017726421356201172,0.003287076950073242,0.007601261138916016,0
1.8320326805114746,-0.06920724362134933,-0.08390212059020996,-0.6339621543884277,0.23129725350904326,-0.5247725408659236,-0.07413802244416169,0.009811746621540251,-0.28949494375988327,0.0,0.0,-0.6,0.0,0.002208709716796875,0.0037736892700195312,0.00802302360534668,0
1.8453657627105713,-0.06973982602357864,-0.08294092118740082,-0.6355841755867004,0.23096327660158653,-0.5250034945746789,-0.07491883076019623,0.01278904885387645,-0.2892576893575102,0.0,0.0,-0.6,0.0,0.002674102783203125,0.0047495365142822266,0.010299205780029297,0
1.8580539226531982,-0.06973982602357864,-0.08294092118740082,-0.6355841755867004,0.23096327660158653,-0.5251856371957979,-0.07548288741354044,0.014896831821937134,-0.2890916112758522,0.0,0.0,-0.6,0.0,0.0021653175354003906,0.004147768020629883,0.009595632553100586,0
1.8726894855499268,-0.07040213793516159,-0.08154197782278061,-0.6376844048500061,0.23016172648368244,-0.5253371742792091,-0.07290754627381255,0.019517591556764594,-0.2886747753244836,0.0,0.0,-0.6,0.0,0.002397298812866211,0.004845380783081055,0.010912656784057617,0
1.8862495422363281,-0.07040213793516159,-0.08154197782278061,-0.6376844048500061,0.23016172648368244,-0.5254543526978551,-0.07116620473820558,0.02272045204832383,-0.2883829901585197,0.0,0.0,-0.6,0.0,0.0024569034576416016,0.0046083927154541016,0.010671854019165039,0
1.9010004997253418,-0.07082822918891907,-0.08040890842676163,-0.6391942501068115,0.22957462703517348,-0.5256566824606406,-0.06435107702791207,0.025184670466917834,-0.2879585782491543,0.0,0.0,-0.6,0.0,0.0024530887603759766,0.005079984664916992,0.010724067687988281,0
1.917684555053711,-0.07113031297922134,-0.0793221965432167,-0.6404321193695068,0.22911291280939375,-0.5259197622040507,-0.06319291263970676,0.02426691220693011,-0.28748834707793114,0.0,0.0,-0.6,0.0,0.002374887466430664,0.0044519901275634766,0.010451555252075195,0
1.9304022789001465,-0.07113031297922134,-0.0793221965432167,-0.6404321193695068,0.22911291280939375,-0.5261308773748756,-0.062427666232955294,0.023714612766781048,-0.2871591852580702,0.0,0.0,-0.6,0.0,0.0026199817657470703,0.0049285888671875,0.010962963104248047,0
1.945988655090332,-0.07154542207717896,-0.07768800854682922,-0.641998827457428,0.22837096197953707,-0.5263884002222797,-0.05464828615823724,0.027781382973451008,-0.28665054042297605,0.0,0.0,-0.6,0.0,0.0028274059295654297,0.004927396774291992,0.010637760162353516,0
1.9592487812042236,-0.07154542207717896,-0.07768800854682922,-0.641998827457428,0.22837096197953707,-0.5265903096370205,-0.04935579631133276,0.03063045714276636,-0.28629448903841,0.0,0.0,-0.6,0.0,0.002109527587890625,0.004483222961425781,0.009916305541992188,0
1.9732069969177246,-0.07184210419654846,-0.07602868229150772,-0.6434115171432495,0.2274210385238106,-0.5268585294392395,-0.047693437504159164,0.028772024147572784,-0.28568903177331656,0.0,0.0,-0.6,0.0,0.0026693344116210938,0.005015850067138672,0.010718107223510742,0
1.9880001544952393,-0.07184210419654846,-0.07602868229150772,-0.6434115171432495,0.2274210385238106,-0.5270741974908747,-0.04658127007872894,0.027571456891091865,-0.285265211687751,0.0,0.0,-0.6,0.0,0.0025315284729003906,0.0049190521240234375,0.010860443115234375,0
2.002812385559082,-0.07208368927240372,-0.07377830147743225,-0.645038366317749,0.22575741500769794,-0.5272500452596383,-0.04330469478510875,0.028502966112509923,-0.28434467880931336,0.0,0.0,-0.6,0.0,0.002439737319946289,0.005014896392822266,0.010681629180908203,0
2.0187079906463623,-0.07208368927240372,-0.07377830147743225,-0.645038366317749,0.22575741500769794,-0.5273899511864701,-0.04107985063714989,0.02918182646930609,-0.2837003057944067,0.0,0.0,-0.6,0.0,0.002526521682739258,0.0047914981842041016,0.010820388793945312,0
2.0331320762634277,-0.07219074666500092,-0.07208625227212906,-0.6461265683174133,0.22431346475359512,-0.5275681890189202,-0.03952085542449865,0.029440240390385626,-0.28270776333868386,0.0,0.0,-0.6,0.0,0.002391338348388672,0.005055427551269531,0.010862588882446289,0
2.049006462097168,-0.07219074666500092,-0.07208625227212906,-0.6461265683174133,0.22431346475359512,-0.5277105427283971,-0.03846855780532724,0.02965908415085842,-0.2820129836196679,0.0,0.0,-0.6,0.0,0.002042531967163086,0.00416254997253418,0.009366989135742188,0
2.062074661254883,-0.07217425853013992,-0.07083474844694138,-0.6468977928161621,0.22317239502842764,-0.5277631898685532,-0.03414406790833294,0.03457606097432752,-0.2810987366694288,0.0,0.0,-0.6,0.0,0.002445220947265625,0.004480838775634766,0.009653568267822266,0
2.0752060413360596,-0.07213006913661957,-0.06956662237644196,-0.647657573223114,0.2220568094200905,-0.5278123143303876,-0.02962590644262157,0.03337104065148825,-0.2800404192011498,0.0,0.0,-0.6,0.0,0.0019927024841308594,0.003365039825439453,0.0075054168701171875,0
2.08571720123291,-0.07213006913661957,-0.06956662237644196,-0.647657573223114,0.2220568094200905,-0.5278520802915535,-0.026545156166532663,0.032555831521765166,-0.27929959697333956,0.0,0.0,-0.6,0.0,0.002474546432495117,0.004841804504394531,0.010222911834716797,0
2.100738048553467,-0.07204607874155045,-0.06835377216339111,-0.6484156847000122,0.2208344781193261,-0.5278582681100553,-0.027080221826542912,0.02742924338658688,-0.2783226471760995,0.0,0.0,-0.6,0.0,0.0025060176849365234,0.0046253204345703125,0.010284900665283203,0
2.116201639175415,-0.0719056949019432,-0.0671401098370552,-0.6492182612419128,0.21948526591837306,-0.5278368015288396,-0.024371406783081095,0.028406721982397347,-0.2771328277426772,0.0,0.0,-0.6,0.0,0.0019199848175048828,0.0038340091705322266,0.009595155715942383,0
2.128465414047241,-0.0719056949019432,-0.0671401098370552,-0.6492182612419128,0.21948526591837306,-0.527819157660558,-0.022520450247917306,0.02906761034367852,-0.27629995413925323,0.0,0.0,-0.6,0.0,0.0025899410247802734,0.004303932189941406,0.010677099227905273,0
2.1424038410186768,-0.07165572047233582,-0.06537047028541565,-0.650407075881958,0.2177411501099179,-0.5277491258037069,-0.018100484119706214,0.03250673890119303,-0.2750628991886977,0.0,0.0,-0.6,0.0,0.00279998779296875,0.004423856735229492,0.009923696517944336,0
2.1557776927948,-0.07165572047233582,-0.06537047028541565,-0.650407075881958,0.2177411501099179,-0.5276913805525848,-0.015076906891134147,0.03483726803708455,-0.27419696072330846,0.0,0.0,-0.6,0.0,0.002594470977783203,0.004855632781982422,0.010676383972167969,0
2.169299602508545,-0.07135741412639618,-0.06362848728895187,-0.6515884399414062,0.21594818759035156,-0.5276980429360603,-0.009265159765440206,0.03191922489299577,-0.272918442852699,0.0,0.0,-0.6,0.0,0.002451658248901367,0.004730701446533203,0.010145187377929688,0
2.183528184890747,-0.07135741412639618,-0.06362848728895187,-0.6515884399414062,0.21594818759035156,-0.527704642723542,-0.005299918990427089,0.029922894588015947,-0.272023480343272,0.0,0.0,-0.6,0.0,0.0024805068969726562,0.004685640335083008,0.010524749755859375,0
2.1970043182373047,-0.07135741412639618,-0.06362848728895187,-0.6515884399414062,0.21594818759035156,-0.5277111295068956,-0.0025941702783572125,0.028558289375923897,-0.2713970065866729,0.0,0.0,-0.6,0.0,0.001596689224243164,0.0034813880920410156,0.008867025375366211,0
2.20989990234375,-0.07099893689155579,-0.061905838549137115,-0.652710497379303,0.2142081777716898,-0.5277107235675014,0.000839381125608074,0.025844200389847784,-0.27030597127504064,0.0,0.0,-0.6,0.0,0.0025348663330078125,0.005014181137084961,0.010586023330688477,0
2.22397518157959,-0.07099893689155579,-0.061905838549137115,-0.652710497379303,0.2142081777716898,-0.5277119194575465,0.0031818609868585184,0.023987889452340996,-0.2695422465569023,0.0,0.0,-0.6,0.0,0.0019598007202148438,0.0044329166412353516,0.009619951248168945,0
2.2378087043762207,-0.07060109078884125,-0.06030387431383133,-0.6536729335784912,0.212314949205406,-0.5278359820973385,0.008729427056394637,0.027656029386057206,-0.2682976785418601,0.0,0.0,-0.6,0.0,0.002602815628051758,0.004859209060668945,0.011026382446289062,0
2.250899076461792,-0.07060109078884125,-0.06030387431383133,-0.6536729335784912,0.212314949205406,-0.5279340093825448,0.012512183586775411,0.030180719558736944,-0.2674264809313302,0.0,0.0,-0.6,0.0,0.0022058486938476562,0.004174470901489258,0.008959531784057617,0
2.2635722160339355,-0.07020822167396545,-0.05882270261645317,-0.6545098423957825,0.21026094245716354,-0.5280490641679356,0.01644107354316195,0.025217012938172006,-0.266046390073388,0.0,0.0,-0.6,0.0,0.001575469970703125,0.0032181739807128906,0.00756382942199707,0
2.2736217975616455,-0.07020822167396545,-0.05882270261645317,-0.6545098423957825,0.21026094245716354,-0.5281433347183923,0.0191119448182668,0.021841816481046324,-0.2650803264728089,0.0,0.0,-0.6,0.0,0.0015802383422851562,0.003381967544555664,0.007245779037475586,0
2.2851078510284424,-0.06979986280202866,-0.057839810848236084,-0.6550175547599792,0.20860172398109375,-0.5282252104918782,0.021708529892929884,0.01938454992450813,-0.2637818750238777,0.0,0.0,-0.6,0.0,0.0017039775848388672,0.0032176971435546875,0.007458209991455078,0
2.2955057621002197,-0.06979986280202866,-0.057839810848236084,-0.6550175547599792,0.20860172398109375,-0.528292281382048,0.023473105907323634,0.017717608571263574,-0.26287295900962543,0.0,0.0,-0.6,0.0,0.002452850341796875,0.003966331481933594,0.007483959197998047,0
2.306417942047119,-0.06965459138154984,-0.05743897333741188,-0.6552196145057678,0.20787296767561939,-0.5283860704276221,0.024208076123305975,0.01613884213620733,-0.261963434185096,0.0,0.0,-0.6,0.0,0.0014948844909667969,0.002927541732788086,0.00719451904296875,0
2.3178701400756836,-0.06933256983757019,-0.05665145441889763,-0.6556285619735718,0.20602361289394303,-0.5285352134328585,0.028682496067033575,0.012767598100107332,-0.26063325876479715,0.0,0.0,-0.6,0.0,0.0016236305236816406,0.0031006336212158203,0.007027864456176758,0
2.328775405883789,-0.06933256983757019,-0.05665145441889763,-0.6556285619735718,0.20602361289394303,-0.5286570219388755,0.03172328646561502,0.010486083562563815,-0.25970213597058756,0.0,0.0,-0.6,0.0,0.0016376972198486328,0.002961874008178711,0.007101535797119141,0
2.340179920196533,-0.06899651885032654,-0.05596255138516426,-0.6559872627258301,0.20462006239849254,-0.5287632362817545,0.03271940948383966,0.005959082423291974,-0.25852401857884716,0.0,0.0,-0.6,0.0,0.0017969608306884766,0.0035250186920166016,0.008177757263183594,0
2.3511459827423096,-0.06899651885032654,-0.05596255138516426,-0.6559872627258301,0.20462006239849254,-0.5288504841244842,0.033386254512594714,0.0028844455062815317,-0.25769933640463993,0.0,0.0,-0.6,0.0,0.0021407604217529297,0.004469156265258789,0.009527921676635742,0
2.3646938800811768,-0.06878117471933365,-0.055262695997953415,-0.6562894582748413,0.2030922448321921,-0.52892791836737,0.03920057219082825,0.001989499489999565,-0.2565491272953052,0.0,0.0,-0.6,0.0,0.002226114273071289,0.004182577133178711,0.008970022201538086,0
2.3777220249176025,-0.06878117471933365,-0.055262695997953415,-0.6562894582748413,0.2030922448321921,-0.528992328691096,0.04316293594428646,0.0013871774867244668,-0.2557439809187865,0.0,0.0,-0.6,0.0,0.00173187255859375,0.003156423568725586,0.008749246597290039,0
2.3905210494995117,-0.06841115653514862,-0.05421310290694237,-0.6567428708076477,0.20075067124299856,-0.5290669118726569,0.03996809061917122,-0.0031539414010439294,-0.25430228835927643,0.0,0.0,-0.6,0.0,0.002523660659790039,0.004434823989868164,0.009676218032836914,0
2.403455972671509,-0.06841115653514862,-0.05421310290694237,-0.6567428708076477,0.20075067124299856,-0.5291269701743145,0.03777259991103527,-0.00623937674745338,-0.25329310356763296,0.0,0.0,-0.6,0.0,0.0029761791229248047,0.0053064823150634766,0.010716438293457031,0
2.420048952102661,-0.06796489655971527,-0.05325164645910263,-0.6571245789527893,0.19833956860178717,-0.529243161601478,0.03529364702822103,-0.002680722455745663,-0.25168251072301484,0.0,0.0,-0.6,0.0,0.0020647048950195312,0.0041866302490234375,0.010342597961425781,0
2.4333338737487793,-0.06772368401288986,-0.052627336233854294,-0.6573328375816345,0.19665728444477837,-0.5293095913259696,0.030962722265187932,-0.0013566205775027563,-0.24992423917287965,0.0,0.0,-0.6,0.0,0.0030243396759033203,0.005212545394897461,0.010754585266113281,0
2.448531150817871,-0.06772368401288986,-0.052627336233854294,-0.6573328375816345,0.19665728444477837,-0.5293596148226455,0.027996161337580358,-0.00043479191209371156,-0.24869344908780885,0.0,0.0,-0.6,0.0,0.002829313278198242,0.0051114559173583984,0.010856151580810547,0
2.462533712387085,-0.06734952330589294,-0.05172568932175636,-0.6576563119888306,0.1939781544148002,-0.5293799450746345,0.024197791595891173,0.001446447591540609,-0.24682722226701814,0.0,0.0,-0.6,0.0,0.0019407272338867188,0.003836393356323242,0.008990287780761719,0
2.4736788272857666,-0.06734952330589294,-0.05172568932175636,-0.6576563119888306,0.1939781544148002,-0.5293931730184535,0.021601735305953974,0.002739537411577916,-0.24552086349246408,0.0,0.0,-0.6,0.0,0.0020182132720947266,0.003721952438354492,0.008451223373413086,0
2.4874520301818848,-0.06710190325975418,-0.051135916262865067,-0.6578952670097351,0.19229853750614745,-0.5294112193212379,0.018495017716917406,0.003654898864877167,-0.2439765560095317,0.0,0.0,-0.6,0.0,0.002500295639038086,0.0047833919525146484,0.010387182235717773,0
2.499985933303833,-0.06710190325975418,-0.051135916262865067,-0.6578952670097351,0.19229853750614745,-0.5294236465069184,0.016370770384688038,0.004286294947434776,-0.24289554077147857,0.0,0.0,-0.6,0.0,0.0017244815826416016,0.0031409263610839844,0.007275104522705078,0
2.5114381313323975,-0.06669960170984268,-0.05041653290390968,-0.6583731174468994,0.18967344459435614,-0.5293429216175448,0.011593645942442863,0.0033266785596837165,-0.24115442026292028,0.0,0.0,-0.6,0.0,0.0017657279968261719,0.003139019012451172,0.007813453674316406,0
2.522324562072754,-0.06669960170984268,-0.05041653290390968,-0.6583731174468994,0.18967344459435614,-0.5292763307467566,0.008342298563907304,0.0026625156973764845,-0.23993563590692896,0.0,0.0,-0.6,0.0,0.0016946792602539062,0.0030918121337890625,0.007693290710449219,0
2.5331296920776367,-0.06642699241638184,-0.04994846135377884,-0.6586660742759705,0.18797635390340578,-0.5292504697008046,0.005953798039986396,0.001041438367478322,-0.23844607784862892,0.0,0.0,-0.6,0.0,0.0019083023071289062,0.0035974979400634766,0.007844209671020508,0
2.544158458709717,-0.06642699241638184,-0.04994846135377884,-0.6586660742759705,0.18797635390340578,-0.5292295106746184,0.004324770171271096,-6.831676013217911e-05,-0.23740338720781845,0.0,0.0,-0.6,0.0,0.001634359359741211,0.0031702518463134766,0.00741267204284668,0
2.5554420948028564,-0.06618247181177139,-0.04954421520233154,-0.6589487195014954,0.18611408395196302,-0.5292342398376658,0.006377758727898952,-0.0007818038967239855,-0.23597515252746046,0.0,0.0,-0.6,0.0,0.0023043155670166016,0.003992557525634766,0.008485794067382812,0
2.567908763885498,-0.06618247181177139,-0.04954421520233154,-0.6589487195014954,0.18611408395196302,-0.5292392616419637,0.007778268226144169,-0.0012708943190371106,-0.23497538825120945,0.0,0.0,-0.6,0.0,0.002507925033569336,0.0043201446533203125,0.008849859237670898,0
2.5792367458343506,-0.06577499210834503,-0.04895700141787529,-0.6593281626701355,0.1836719741078682,-0.5292800662090635,0.004032495632154487,0.003861489152814814,-0.2333597620662988,0.0,0.0,-0.6,0.0,0.0023021697998046875,0.0038099288940429688,0.007448673248291016,0
2.5906007289886475,-0.06577499210834503,-0.04895700141787529,-0.6593281626701355,0.1836719741078682,-0.5293074037436156,0.0014698704566659298,0.0073796154280172605,-0.23222882373686085,0.0,0.0,-0.6,0.0,0.001974344253540039,0.003572225570678711,0.00800943374633789,0
2.6015450954437256,-0.06540031731128693,-0.04849214479327202,-0.6594913005828857,0.18117235508502552,-0.5294211251258615,-0.0011980256741126617,0.009668630118109646,-0.23049980977268889,0.0,0.0,-0.6,0.0,0.0016078948974609375,0.0028884410858154297,0.007115602493286133,0
2.6135566234588623,-0.06540031731128693,-0.04849214479327202,-0.6594913005828857,0.18117235508502552,-0.5295094872543623,-0.0030374520544848077,0.011257721728783983,-0.229289499997768,0.0,0.0,-0.6,0.0,0.0017240047454833984,0.003911018371582031,0.008929252624511719,0
2.6254966259002686,-0.06540031731128693,-0.04849214479327202,-0.6594913005828857,0.18117235508502552,-0.5295784594354043,-0.004307259279320404,0.012361804012861601,-0.22844228315532303,0.0,0.0,-0.6,0.0,0.0025904178619384766,0.004948139190673828,0.010157346725463867,0
2.639288902282715,-0.06504841893911362,-0.048055656254291534,-0.6595157980918884,0.178767359946522,-0.529787161125201,-0.0003444301278840607,0.01405890343653559,-0.22694735818867337,0.0,0.0,-0.6,0.0,0.002499818801879883,0.004483222961425781,0.009894371032714844,0
2.6518948078155518,-0.06504841893911362,-0.048055656254291534,-0.6595157980918884,0.178767359946522,-0.529954425812663,0.0023327660096857444,0.015254856792537576,-0.22590091071201815,0.0,0.0,-0.6,0.0,0.0025277137756347656,0.0043621063232421875,0.009475946426391602,0
2.665008306503296,-0.06470053642988205,-0.047689713537693024,-0.659302294254303,0.17640202898584192,-0.5301595059404755,0.005370152373777003,0.017597524387708403,-0.22428139836810504,0.0,0.0,-0.6,0.0,0.0019714832305908203,0.00391840934753418,0.008632183074951172,0
2.6772658824920654,-0.06470053642988205,-0.047689713537693024,-0.659302294254303,0.17640202898584192,-0.5303235039604037,0.007412901281523317,0.01923307697735039,-0.22314773972736537,0.0,0.0,-0.6,0.0,0.002149820327758789,0.003614187240600586,0.008392810821533203,0
2.689255952835083,-0.0644686222076416,-0.04745788499712944,-0.6590171456336975,0.17475670001850693,-0.5305793923529621,0.006233525838550277,0.022733031240345092,-0.22173718031609727,0.0,0.0,-0.6,0.0,0.002492189407348633,0.004639863967895508,0.009392738342285156,0
2.7014036178588867,-0.0644686222076416,-0.04745788499712944,-0.6590171456336975,0.17475670001850693,-0.5307815367007518,0.0053852329658369245,0.025172059654957932,-0.22074978872820916,0.0,0.0,-0.6,0.0,0.0022192001342773438,0.0039708614349365234,0.008396148681640625,0
2.715226650238037,-0.06424523890018463,-0.04726438969373703,-0.6586430072784424,0.17308514975546915,-0.5310428706317112,0.00017281067734320997,0.024726756030736492,-0.21943178326804866,0.0,0.0,-0.6,0.0,0.002240896224975586,0.004461765289306641,0.009419918060302734,0
2.7275428771972656,-0.06424523890018463,-0.04726438969373703,-0.6586430072784424,0.17308514975546915,-0.5312490204666144,-0.003435101223012665,0.024473652503076683,-0.2185091794459359,0.0,0.0,-0.6,0.0,0.0024557113647460938,0.004530906677246094,0.010209798812866211,0
2.7412049770355225,-0.06388024240732193,-0.04695664718747139,-0.657985508441925,0.17057737742780263,-0.5315106243009559,-0.0005213724271406601,0.022643384266815836,-0.2169229421475827,0.0,0.0,-0.6,0.0,0.0017528533935546875,0.0034074783325195312,0.008165597915649414,0
2.7518677711486816,-0.06388024240732193,-0.04695664718747139,-0.657985508441925,0.17057737742780263,-0.5317215297589646,0.0014261708058401718,0.0214351306766726,-0.215812576038735,0.0,0.0,-0.6,0.0,0.0017654895782470703,0.003387451171875,0.007464885711669922,0
2.762608528137207,-0.06364913284778595,-0.046730633825063705,-0.6573801636695862,0.16853988175058518,-0.5318961413351233,-0.00024600192184892774,0.022312654529350922,-0.21427125888358547,0.0,0.0,-0.6,0.0,0.0016727447509765625,0.0031599998474121094,0.007388114929199219,0
2.7727456092834473,-0.06364913284778595,-0.046730633825063705,-0.6573801636695862,0.16853988175058518,-0.5320344218792044,-0.0014177428003504606,0.022945052045101902,-0.21319233687498035,0.0,0.0,-0.6,0.0,0.001491546630859375,0.0028755664825439453,0.006649017333984375,0
2.7822213172912598,-0.06344380229711533,-0.046521373093128204,-0.6568431258201599,0.16694303877223607,-0.5321596638284433,-0.0014225406790576815,0.026411005637635335,-0.2118382753520761,0.0,0.0,-0.6,0.0,0.0015726089477539062,0.0029582977294921875,0.0068323612213134766,0
2.791940212249756,-0.06344380229711533,-0.046521373093128204,-0.6568431258201599,0.16694303877223607,-0.532258135095737,-0.001445134081829023,0.028800382601198004,-0.21089043228604273,0.0,0.0,-0.6,0.0,0.0020241737365722656,0.0036268234252929688,0.007882356643676758,0
2.8033206462860107,-0.06323233246803284,-0.046223755925893784,-0.6564062237739563,0.16512312381176505,-0.5323566050207129,-0.007211897335666503,0.026821820110476388,-0.20954447402964316,0.0,0.0,-0.6,0.0,0.001779794692993164,0.0033631324768066406,0.0076923370361328125,0
2.8147804737091064,-0.06323233246803284,-0.046223755925893784,-0.6564062237739563,0.16512312381176505,-0.532432880438309,-0.011171115028405794,0.025491244748715797,-0.20860230325016305,0.0,0.0,-0.6,0.0,0.0018596649169921875,0.0033614635467529297,0.007173776626586914,0
2.824927806854248,-0.06296104192733765,-0.04582053795456886,-0.655701220035553,0.16255049789093312,-0.5325154806871103,-0.013292901209581756,0.02319573444929536,-0.20697804898421568,0.0,0.0,-0.6,0.0,0.0016543865203857422,0.0028896331787109375,0.006633281707763672,0
2.8348872661590576,-0.06296104192733765,-0.04582053795456886,-0.655701220035553,0.16255049789093312,-0.5325813507317639,-0.014758449628594145,0.0216423894499676,-0.20584107099805202,0.0,0.0,-0.6,0.0,0.001909494400024414,0.003488779067993164,0.008455038070678711,0
2.8463404178619385,-0.06283564120531082,-0.04569806531071663,-0.6554457545280457,0.16166827236856313,-0.5325715042583914,-0.015531752859567979,0.023345452024711902,-0.2047143518368487,0.0,0.0,-0.6,0.0,0.0018932819366455078,0.003432035446166992,0.00781702995300293,0
2.857633590698242,-0.06256486475467682,-0.045472897589206696,-0.6549584269523621,0.1597897306166871,-0.5325803033926076,-0.015036109702510885,0.02068341506387439,-0.20322119526705323,0.0,0.0,-0.6,0.0,0.0016815662384033203,0.003201723098754883,0.007380247116088867,0
2.8678808212280273,-0.06256486475467682,-0.045472897589206696,-0.6549584269523621,0.1597897306166871,-0.5325884935026515,-0.014701262930232346,0.018865211830850413,-0.20217598566819597,0.0,0.0,-0.6,0.0,0.0015003681182861328,0.002855539321899414,0.0068814754486083984,0
2.8781135082244873,-0.062354426831007004,-0.04526427015662193,-0.6545502543449402,0.15798577394075194,-0.5327230367174631,-0.019322214469488837,0.017459729524936393,-0.20076785519552057,0.0,0.0,-0.6,0.0,0.0015366077423095703,0.002942800521850586,0.006695270538330078,0
2.8871145248413086,-0.062354426831007004,-0.04526427015662193,-0.6545502543449402,0.15798577394075194,-0.5328290194593489,-0.02250331153053687,0.01652603037496125,-0.19978216386464737,0.0,0.0,-0.6,0.0,0.0015704631805419922,0.002970457077026367,0.0069332122802734375,0
2.8982934951782227,-0.06208975613117218,-0.045107536017894745,-0.6540201902389526,0.1561886254218643,-0.5329160628863938,-0.022425245474831507,0.012890756296736219,-0.19841824923845364,0.0,0.0,-0.6,0.0,0.0017511844635009766,0.0033941268920898438,0.007688999176025391,0
2.9096148014068604,-0.06191651150584221,-0.04492007568478584,-0.6535530686378479,0.15418318988488777,-0.5328925478843564,-0.01774438100982937,0.013005585921167287,-0.19671147067375216,0.0,0.0,-0.6,0.0,0.0017769336700439453,0.0031757354736328125,0.007475137710571289,0
2.921076536178589,-0.06191651150584221,-0.04492007568478584,-0.6535530686378479,0.15418318988488777,-0.5328750929534274,-0.014543419512136724,0.013074132502435271,-0.19551672567846062,0.0,0.0,-0.6,0.0,0.0021996498107910156,0.003746509552001953,0.008173227310180664,0
2.933018684387207,-0.06174137070775032,-0.044726595282554626,-0.6529926657676697,0.15254502914553575,-0.5329091521933053,-0.018237584827219724,0.010677156214101986,-0.19406609390449978,0.0,0.0,-0.6,0.0,0.0024797916412353516,0.004746675491333008,0.009595394134521484,0
2.945674419403076,-0.06174137070775032,-0.044726595282554626,-0.6529926657676697,0.15254502914553575,-0.5329357706853879,-0.020769242733261695,0.009048583182580323,-0.19305065166272675,0.0,0.0,-0.6,0.0,0.0020704269409179688,0.00401616096496582,0.00834202766418457,0
2.957906723022461,-0.06165400892496109,-0.04450031742453575,-0.6524937748908997,0.15063225734582358,-0.5329366331688766,-0.018763951453236463,0.005440662424133824,-0.191622552668594,0.0,0.0,-0.6,0.0,0.002156496047973633,0.004056692123413086,0.008767366409301758,0
2.9706881046295166,-0.061500273644924164,-0.044348377734422684,-0.6519685983657837,0.1490335833669039,-0.5329518178290499,-0.017515248408979393,0.006895531719333152,-0.19002338063060634,0.0,0.0,-0.6,0.0,0.002370119094848633,0.00414586067199707,0.00934910774230957,0
2.9827017784118652,-0.061500273644924164,-0.044348377734422684,-0.6519685983657837,0.1490335833669039,-0.5329636618514697,-0.016663846743182553,0.007890372766904357,-0.1889039602040145,0.0,0.0,-0.6,0.0,0.0018429756164550781,0.003795623779296875,0.008972406387329102,0
2.994713068008423,-0.06129875034093857,-0.0440819077193737,-0.651255190372467,0.1462410298489518,-0.532970141732149,-0.019291748932915305,0.004743154825324479,-0.18707315833616892,0.0,0.0,-0.6,0.0,0.0018658638000488281,0.0041120052337646484,0.008973121643066406,0
3.0073158740997314,-0.06129875034093857,-0.0440819077193737,-0.651255190372467,0.1462410298489518,-0.532975634116005,-0.021091520400725115,0.002596745047456651,-0.18579159702867643,0.0,0.0,-0.6,0.0,0.002511739730834961,0.0048329830169677734,0.010625123977661133,0
3.0222058296203613,-0.061163175851106644,-0.043967172503471375,-0.6507092714309692,0.14447250861597608,-0.5330552076048678,-0.019547832529256598,0.003787612498996804,-0.1842313086510661,0.0,0.0,-0.6,0.0,0.002254962921142578,0.004326343536376953,0.009044647216796875,0
3.036165475845337,-0.061050817370414734,-0.04393836855888367,-0.6504400372505188,0.14359903511247765,-0.5330340231011728,-0.015874832191814726,0.0063683962071789816,-0.1828115542229268,0.0,0.0,-0.6,0.0,0.0016040802001953125,0.0035676956176757812,0.00895071029663086,0
3.048815965652466,-0.060816824436187744,-0.04383888840675354,-0.6499031782150269,0.14199175508851364,-0.5331178110572729,-0.01050438871087651,0.006859082513228542,-0.18121499611424297,0.0,0.0,-0.6,0.0,0.003629922866821289,0.005802154541015625,0.01155543327331543,0
