time,x,y,z,yaw,throttle,roll_rate,pitch_rate,yaw_rate,x_ref,y_ref,z_ref,yaw_ref,pred_time,nr_time,ctrl_callback_time,metadata
3.5762786865234375e-06,-0.10867828875780106,-0.05302776023745537,-0.23977769911289215,-0.07407283314589654,-0.53243324130429,0.018051687502921042,-0.05507456551173412,0.027777312429731606,0.0,0.0,-0.6,0.0,0.007161617279052734,0.008233070373535156,0.011148691177368164,Hardware
0.01354670524597168,-0.10867828875780106,-0.05302776023745537,-0.23977769911289215,-0.07407283314589654,-0.541326304766496,0.028771400764164914,-0.09317437493138754,0.04722143113052074,0.0,0.0,-0.6,0.0,0.0009899139404296875,0.0019268989562988281,0.00446009635925293,Nonlinear
0.020237445831298828,-0.10862185806035995,-0.053004685789346695,-0.23976197838783264,-0.07394652413104316,-0.5483852759629089,0.03428048054579938,-0.11825203516226422,0.06078494834049215,0.0,0.0,-0.6,0.0,0.0016427040100097656,0.002669095993041992,0.005125761032104492,2x Speed
0.02994370460510254,-0.10860159248113632,-0.05298400670289993,-0.23975755274295807,-0.07403152097282018,-0.5540009267249858,0.03758343826923999,-0.13429575597931454,0.0703112842031508,0.0,0.0,-0.6,0.0,0.0014133453369140625,0.002576112747192383,0.005194664001464844,0OrderHold
0.03991961479187012,-0.10855839401483536,-0.05295761674642563,-0.23974597454071045,-0.07400019156973812,-0.5584885839648595,0.0388483242669746,-0.143961918165396,0.07696797078085647,0.0,0.0,-0.6,0.0,0.0010819435119628906,0.002167224884033203,0.004994630813598633,QuatYawError
0.05014395713806152,-0.10854119807481766,-0.05293218791484833,-0.23977166414260864,-0.07412017747021145,-0.5620206815260261,0.0396824418768784,-0.14999042014661196,0.0816726460979282,0.0,0.0,-0.6,0.0,0.0012354850769042969,0.0025005340576171875,0.005392313003540039,NoPyJoules
0.06062006950378418,-0.10851684212684631,-0.05292288959026337,-0.2398105412721634,-0.07401714103569713,-0.5648235779319257,0.039804773964558074,-0.15247139393568965,0.0849272801569329,0.0,0.0,-0.6,0.0,0.0012307167053222656,0.0024063587188720703,0.005332469940185547,0
0.07183527946472168,-0.10849017649888992,-0.05291736498475075,-0.2398487627506256,-0.0740150532834089,-0.5670174767060673,0.03981916813469513,-0.15276590868362766,0.08720474109112909,0.0,0.0,-0.6,0.0,0.001394033432006836,0.0025510787963867188,0.005615234375,0
0.08106303215026855,-0.10845907032489777,-0.05292775109410286,-0.23987454175949097,-0.07371120208465276,-0.568740021349824,0.03957984614992959,-0.15171139116079427,0.0886850195455388,0.0,0.0,-0.6,0.0,0.00151824951171875,0.002794981002807617,0.005777597427368164,0
0.09080767631530762,-0.10842213779687881,-0.05294254422187805,-0.2399217039346695,-0.07348548552627619,-0.5701206215553739,0.040362587923667204,-0.14963590822686856,0.08963657075422977,0.0,0.0,-0.6,0.0,0.0016088485717773438,0.0028693675994873047,0.006338596343994141,0
0.10083317756652832,-0.10837961733341217,-0.05296354368329048,-0.23996756970882416,-0.07334028061459073,-0.5712119448044647,0.04177444691665258,-0.14795884147841748,0.09024820475843387,0.0,0.0,-0.6,0.0,0.0013689994812011719,0.002610921859741211,0.005844593048095703,0
0.11157751083374023,-0.10832817107439041,-0.05297815427184105,-0.24001580476760864,-0.07331514351557451,-0.5720172369372435,0.042999185724645436,-0.1457344143144149,0.09066692214924374,0.0,0.0,-0.6,0.0,0.0015881061553955078,0.0026917457580566406,0.0058934688568115234,0
0.12093925476074219,-0.10829105228185654,-0.05299508571624756,-0.24005568027496338,-0.07333121507067354,-0.5726886782428813,0.0412777698389936,-0.1440958189207242,0.0909660511559729,0.0,0.0,-0.6,0.0,0.001186370849609375,0.0025300979614257812,0.005553483963012695,0
0.13074135780334473,-0.10824227333068848,-0.053018584847450256,-0.2401251643896103,-0.07337255113154026,-0.5731820970656476,0.03984199810365786,-0.1434203450991356,0.09119094248350879,0.0,0.0,-0.6,0.0,0.0014154911041259766,0.0024306774139404297,0.005395174026489258,0
0.1410980224609375,-0.10818708688020706,-0.05302245914936066,-0.240202859044075,-0.07340642168160251,-0.5735678165427055,0.03936792740313834,-0.14332266843631614,0.09136106786905693,0.0,0.0,-0.6,0.0,0.001544952392578125,0.002681255340576172,0.005857229232788086,0
0.15096640586853027,-0.108130544424057,-0.053046829998493195,-0.2402956336736679,-0.07328618203745232,-0.5738819783308498,0.04039254760284412,-0.14274698695241628,0.09143506577238453,0.0,0.0,-0.6,0.0,0.0015947818756103516,0.0028574466705322266,0.006162166595458984,0
0.16143083572387695,-0.1080603078007698,-0.05308375507593155,-0.2403990924358368,-0.07295917792439564,-0.5739793915329278,0.04281193369175922,-0.14046014871925444,0.09136423776231761,0.0,0.0,-0.6,0.0,0.0011560916900634766,0.0021941661834716797,0.005087852478027344,0
0.1706993579864502,-0.10797825455665588,-0.05311897397041321,-0.24052709341049194,-0.07247124134151153,-0.5740908739318883,0.04364925474764966,-0.13766595659537983,0.09113168193668938,0.0,0.0,-0.6,0.0,0.0017139911651611328,0.0029897689819335938,0.006142139434814453,0
0.18128418922424316,-0.107887402176857,-0.05318164452910423,-0.24067522585391998,-0.07184763143205142,-0.574147624109972,0.043771112795869434,-0.13401522475968033,0.09073503914270224,0.0,0.0,-0.6,0.0,0.001476287841796875,0.0027687549591064453,0.006017923355102539,0
0.19153881072998047,-0.10779834538698196,-0.05326015502214432,-0.24084904789924622,-0.07086962491507166,-0.5740872248099175,0.04463075133628263,-0.12863349721858158,0.09009063674304409,0.0,0.0,-0.6,0.0,0.001516103744506836,0.002516031265258789,0.005858421325683594,0
0.20175862312316895,-0.10769602656364441,-0.05336235836148262,-0.2410571128129959,-0.06975711645398458,-0.5739775362379036,0.04696496661989517,-0.12259506746884999,0.08922236439037444,0.0,0.0,-0.6,0.0,0.0013644695281982422,0.002485036849975586,0.005826711654663086,0
0.21181893348693848,-0.10759460180997849,-0.053492285311222076,-0.24132061004638672,-0.06860264148006352,-0.5737812322531428,0.04996183004866385,-0.11633187732273449,0.08818164562828697,0.0,0.0,-0.6,0.0,0.0015892982482910156,0.002821683883666992,0.006423473358154297,0
0.22247791290283203,-0.10750041157007217,-0.05364372208714485,-0.24164782464504242,-0.06712293603929458,-0.5735594153516008,0.05392883313901844,-0.10902521616080887,0.0868982529545354,0.0,0.0,-0.6,0.0,0.0012784004211425781,0.002222299575805664,0.005235433578491211,0
0.2309432029724121,-0.10739459842443466,-0.05380834639072418,-0.24202007055282593,-0.06543166423151918,-0.5732961203643814,0.058255559975885066,-0.10042720695486054,0.085365651154996,0.0,0.0,-0.6,0.0,0.0046503543853759766,0.0066471099853515625,0.011746644973754883,0
0.2455155849456787,-0.10739459842443466,-0.05380834639072418,-0.24202007055282593,-0.06543166423151918,-0.5730774348224285,0.06125051500433098,-0.09459365079230864,0.0842928298953161,0.0,0.0,-0.6,0.0,0.0028603076934814453,0.004528045654296875,0.00915074348449707,0
0.25961923599243164,-0.10707780718803406,-0.05433345586061478,-0.24345500767230988,-0.060297301950970716,-0.5726081820855139,0.06609560296011208,-0.0803510715180146,0.08161646915832868,0.0,0.0,-0.6,0.0,0.002397775650024414,0.004309415817260742,0.010973453521728516,0
0.2730979919433594,-0.10707780718803406,-0.05433345586061478,-0.24345500767230988,-0.060297301950970716,-0.5722172001671882,0.0694632599265584,-0.07070912958261671,0.07974301664244597,0.0,0.0,-0.6,0.0,0.001996278762817383,0.0035037994384765625,0.007838249206542969,0
0.28726720809936523,-0.1068020835518837,-0.05511903762817383,-0.24550606310367584,-0.05441272934106247,-0.5713917778182594,0.07080817647788636,-0.05301913934495042,0.07622488515260191,0.0,0.0,-0.6,0.0,0.0019485950469970703,0.0034155845642089844,0.00961160659790039,0
0.3001401424407959,-0.1068020835518837,-0.05511903762817383,-0.24550606310367584,-0.05441272934106247,-0.5707114117901846,0.0718313491981431,-0.041129623129513904,0.07376219310972008,0.0,0.0,-0.6,0.0,0.0024271011352539062,0.003487825393676758,0.008382320404052734,0
0.3123054504394531,-0.10659904778003693,-0.05575447157025337,-0.24733412265777588,-0.050396206911187014,-0.569764348462641,0.06802056071341503,-0.03096012392652362,0.07053211276849962,0.0,0.0,-0.6,0.0,0.0031952857971191406,0.004988193511962891,0.0088653564453125,0
0.3242228031158447,-0.10659904778003693,-0.05575447157025337,-0.24733412265777588,-0.050396206911187014,-0.5689965371246101,0.06556798254610467,-0.02425318926152347,0.06827105652964516,0.0,0.0,-0.6,0.0,0.0019533634185791016,0.003149271011352539,0.007000446319580078,0
0.33490824699401855,-0.10642801225185394,-0.05641243979334831,-0.24957667291164398,-0.04616306546080676,-0.567978713008961,0.06111240977304813,-0.017741063508264054,0.06510088911855456,0.0,0.0,-0.6,0.0,0.003209352493286133,0.004708528518676758,0.009968996047973633,0
0.3492746353149414,-0.10624953359365463,-0.05714922398328781,-0.2522054612636566,-0.041330759072304095,-0.5667323987203201,0.05640169544359794,-0.011825866137440055,0.06106965703510277,0.0,0.0,-0.6,0.0,0.0017056465148925781,0.002871274948120117,0.00824880599975586,0
0.35897231101989746,-0.10624953359365463,-0.05714922398328781,-0.2522054612636566,-0.041330759072304095,-0.5657317592904528,0.05341182458841383,-0.00811697250398431,0.05824779457668879,0.0,0.0,-0.6,0.0,0.0023763179779052734,0.0050733089447021484,0.01403355598449707,0
0.3766303062438965,-0.1059192642569542,-0.05823082849383354,-0.25684189796447754,-0.033844490565092436,-0.5644174727949737,0.048488282950192835,-7.54049579292683e-05,0.05346514016559245,0.0,0.0,-0.6,0.0,0.001306772232055664,0.002496957778930664,0.006282806396484375,0
0.3883519172668457,-0.1059192642569542,-0.05823082849383354,-0.25684189796447754,-0.033844490565092436,-0.5633600915899293,0.04536708762263541,0.005057846411636112,0.05011728207782773,0.0,0.0,-0.6,0.0,0.002321481704711914,0.004227161407470703,0.009613990783691406,0
0.4023416042327881,-0.10558871924877167,-0.05892426520586014,-0.26089051365852356,-0.02796038629694817,-0.5621259719241543,0.04691961258813948,0.00980987550449317,0.045567242315835574,0.0,0.0,-0.6,0.0,0.002292633056640625,0.0038080215454101562,0.009322166442871094,0
0.4153895378112793,-0.10558871924877167,-0.05892426520586014,-0.26089051365852356,-0.02796038629694817,-0.5611420409943056,0.04823224126234792,0.012732660599696573,0.042382214482443656,0.0,0.0,-0.6,0.0,0.0017020702362060547,0.0038166046142578125,0.006917715072631836,0
0.42547106742858887,-0.10519947856664658,-0.059771981090307236,-0.2653839588165283,-0.021470085134892625,-0.559894726974545,0.044918968490252835,0.023855765105253664,0.03771883206329591,0.0,0.0,-0.6,0.0,0.0013117790222167969,0.0023272037506103516,0.005079984664916992,0
0.4346942901611328,-0.10519947856664658,-0.059771981090307236,-0.2653839588165283,-0.021470085134892625,-0.5588886977032566,0.04291062371099227,0.03111167368242563,0.03445446436988947,0.0,0.0,-0.6,0.0,0.0037703514099121094,0.006566762924194336,0.01136922836303711,0
0.45059704780578613,-0.10486909002065659,-0.06062376871705055,-0.26973816752433777,-0.016142474011827595,-0.5576416461503418,0.04118616910958988,0.03968817032848358,0.030171552813360404,0.0,0.0,-0.6,0.0,0.0020685195922851562,0.003985404968261719,0.008849143981933594,0
0.4627687931060791,-0.10486909002065659,-0.06062376871705055,-0.26973816752433777,-0.016142474011827595,-0.5566410828478802,0.04027931739864285,0.045225807313183375,0.027173514723785427,0.0,0.0,-0.6,0.0,0.0023517608642578125,0.0042345523834228516,0.009102106094360352,0
0.4753715991973877,-0.10439177602529526,-0.061812322586774826,-0.27629518508911133,-0.007568124641615033,-0.5553009500717137,0.03144048783304364,0.05089469906993861,0.02185950704725614,0.0,0.0,-0.6,0.0,0.0035614967346191406,0.005141258239746094,0.009887218475341797,0
0.4879796504974365,-0.10439177602529526,-0.061812322586774826,-0.27629518508911133,-0.007568124641615033,-0.5542211067295578,0.025700801400773545,0.054388014653486555,0.018139701673685428,0.0,0.0,-0.6,0.0,0.0027539730072021484,0.004563331604003906,0.009990453720092773,0
0.5017926692962646,-0.10380588471889496,-0.06299787014722824,-0.2833528518676758,0.0011516821474000893,-0.552911119851215,0.029614580377301577,0.0681440751888467,0.012265910366308093,0.0,0.0,-0.6,0.0,0.0018200874328613281,0.0030884742736816406,0.008758068084716797,0
0.5143473148345947,-0.10380588471889496,-0.06299787014722824,-0.2833528518676758,0.0011516821474000893,-0.5518603052889648,0.032526139668004536,0.07719869060181891,0.008154256451140285,0.0,0.0,-0.6,0.0,0.0016336441040039062,0.002845287322998047,0.006941080093383789,0
0.5259406566619873,-0.10336022078990936,-0.06382516026496887,-0.2887689173221588,0.006986993166265716,-0.550698737333193,0.03422389528579633,0.08439813024758708,0.0030878570784492274,0.0,0.0,-0.6,0.0,0.0014226436614990234,0.0025565624237060547,0.006396293640136719,0
0.5336978435516357,-0.10336022078990936,-0.06382516026496887,-0.2887689173221588,0.006986993166265716,-0.5497712477750961,0.03563917477947434,0.08903521372703105,-0.0004586224824347147,0.0,0.0,-0.6,0.0,0.0030333995819091797,0.005730867385864258,0.009436368942260742,0
0.5494422912597656,-0.10265142470598221,-0.06506692618131638,-0.2965545356273651,0.016130039772231767,-0.548627522535028,0.03615572284317225,0.09618322276639857,-0.00636980065229043,0.0,0.0,-0.6,0.0,0.0017070770263671875,0.002842426300048828,0.007894515991210938,0
0.560302734375,-0.10265142470598221,-0.06506692618131638,-0.2965545356273651,0.016130039772231767,-0.5477136256047029,0.03677654356526403,0.10080322879586891,-0.010507625371189665,0.0,0.0,-0.6,0.0,0.0022623538970947266,0.003407716751098633,0.009366035461425781,0
0.5736777782440186,-0.1020643413066864,-0.06609399616718292,-0.3031064569950104,0.024158412293379113,-0.5468248208134094,0.03748656508867572,0.09642492545103241,-0.016414742369851715,0.0,0.0,-0.6,0.0,0.002097606658935547,0.004802227020263672,0.010003805160522461,0
0.5860059261322021,-0.1020643413066864,-0.06609399616718292,-0.3031064569950104,0.024158412293379113,-0.5461180614917256,0.03821542917400268,0.09324892203944081,-0.02054972426891461,0.0,0.0,-0.6,0.0,0.0033349990844726562,0.004744529724121094,0.008891820907592773,0
0.5975956916809082,-0.10100940614938736,-0.06754512339830399,-0.3121017813682556,0.033676536474255156,-0.5450942631771594,0.04013660218077042,0.09722435926816428,-0.027013508166085054,0.0,0.0,-0.6,0.0,0.002599954605102539,0.0036661624908447266,0.007534503936767578,0
0.6085324287414551,-0.10100940614938736,-0.06754512339830399,-0.3121017813682556,0.033676536474255156,-0.5442783692358014,0.04169143562761288,0.0997207273566905,-0.031538156894106585,0.0,0.0,-0.6,0.0,0.0016214847564697266,0.002866983413696289,0.007270336151123047,0
0.621234655380249,-0.10020429641008377,-0.06833407282829285,-0.31825342774391174,0.04031850249053356,-0.5434191249122747,0.03720122300259929,0.10514956743452959,-0.03719614825982149,0.0,0.0,-0.6,0.0,0.0017566680908203125,0.003170013427734375,0.006602287292480469,0
0.6310000419616699,-0.09979385137557983,-0.06869670003652573,-0.32131490111351013,0.04385433251859368,-0.5425725524543953,0.03543256397105163,0.11064788282513398,-0.042482678476344675,0.0,0.0,-0.6,0.0,0.0012540817260742188,0.0021686553955078125,0.005172252655029297,0
0.641533374786377,-0.09936940670013428,-0.06906690448522568,-0.3244084119796753,0.04735015900596786,-0.5417878288986485,0.03418020521476397,0.11487517986203713,-0.0474941845606742,0.0,0.0,-0.6,0.0,0.0017707347869873047,0.0028448104858398438,0.0074176788330078125,0
0.6516087055206299,-0.09936940670013428,-0.06906690448522568,-0.3244084119796753,0.04735015900596786,-0.5411599702726979,0.033517108628325264,0.1176120047643016,-0.051002238819709424,0.0,0.0,-0.6,0.0,0.0019843578338623047,0.003293752670288086,0.00748133659362793,0
0.662999153137207,-0.09848006069660187,-0.06981706619262695,-0.33066579699516296,0.05388329286204161,-0.5404876719401301,0.03323131022590511,0.11831544528961412,-0.0559078019970573,0.0,0.0,-0.6,0.0,0.0030248165130615234,0.004094839096069336,0.00879979133605957,0
0.6747334003448486,-0.09848006069660187,-0.06981706619262695,-0.33066579699516296,0.05388329286204161,-0.5399509483698243,0.03321649955168589,0.11867852987839635,-0.05934169622120824,0.0,0.0,-0.6,0.0,0.001857757568359375,0.0037078857421875,0.00809621810913086,0
0.6855418682098389,-0.09750881791114807,-0.07062345743179321,-0.3369709551334381,0.06021039633015157,-0.5394171513470445,0.033801121710749456,0.11874061639645861,-0.06411808597864783,0.0,0.0,-0.6,0.0,0.001455545425415039,0.0034246444702148438,0.007681131362915039,0
0.6966724395751953,-0.09645643830299377,-0.07151462882757187,-0.3433002829551697,0.06709277290819222,-0.538728014802179,0.036596898633369464,0.12112061818490812,-0.07004245002562479,0.0,0.0,-0.6,0.0,0.002764463424682617,0.004236698150634766,0.007543325424194336,0
0.7072482109069824,-0.09645643830299377,-0.07151462882757187,-0.3433002829551697,0.06709277290819222,-0.5381804216915621,0.03869252187967689,0.1226433131328759,-0.07418950485852327,0.0,0.0,-0.6,0.0,0.0019707679748535156,0.0032262802124023438,0.008120298385620117,0
0.7181005477905273,-0.09645643830299377,-0.07151462882757187,-0.3433002829551697,0.06709277290819222,-0.5377452841445596,0.040277608009577366,0.12360089832728569,-0.07709244324154554,0.0,0.0,-0.6,0.0,0.0015671253204345703,0.002742290496826172,0.005814790725708008,0
0.727968692779541,-0.09537403285503387,-0.07247234135866165,-0.34961628913879395,0.07339221273431436,-0.5372128308171521,0.041038027952888655,0.12862693170075865,-0.08148679004444918,0.0,0.0,-0.6,0.0,0.0011181831359863281,0.002004861831665039,0.006408214569091797,0
0.7353689670562744,-0.09482789039611816,-0.07295198738574982,-0.3527592420578003,0.07665625415347191,-0.5367123561615137,0.041368704227647275,0.13225958973348165,-0.08578684833866208,0.0,0.0,-0.6,0.0,0.0011534690856933594,0.0020415782928466797,0.0043201446533203125,0
0.7443666458129883,-0.09428196400403976,-0.07346667349338531,-0.35590067505836487,0.07947087641207978,-0.5363484141203976,0.03916516278533801,0.1318461914599362,-0.08985237249159636,0.0,0.0,-0.6,0.0,0.0018231868743896484,0.004105806350708008,0.008162736892700195,0
0.7561836242675781,-0.09320638328790665,-0.07447214424610138,-0.3621525168418884,0.08609094130209995,-0.5359360055220392,0.03582811104249696,0.12371626386666376,-0.09518076373240884,0.0,0.0,-0.6,0.0,0.001802682876586914,0.004011392593383789,0.007281064987182617,0
0.7661957740783691,-0.09320638328790665,-0.07447214424610138,-0.3621525168418884,0.08609094130209995,-0.535601058924569,0.03369063088975732,0.11811448852560012,-0.09891063760096994,0.0,0.0,-0.6,0.0,0.002762317657470703,0.0039212703704833984,0.00826263427734375,0
0.7765927314758301,-0.09320638328790665,-0.07447214424610138,-0.3621525168418884,0.08609094130209995,-0.535330515670152,0.03233660994972057,0.11424615086387967,-0.10152154930897289,0.0,0.0,-0.6,0.0,0.0028734207153320312,0.004193305969238281,0.008298635482788086,0
0.7885632514953613,-0.0913350060582161,-0.07607065141201019,-0.37229466438293457,0.0963315499753664,-0.5349575651147037,0.029825196183141004,0.10748839555019535,-0.10718941575705743,0.0,0.0,-0.6,0.0,0.0013065338134765625,0.0022630691528320312,0.004983663558959961,0
0.7969698905944824,-0.0913350060582161,-0.07607065141201019,-0.37229466438293457,0.0963315499753664,-0.5346556964084198,0.02823780422560476,0.10283430226755619,-0.11115692227070552,0.0,0.0,-0.6,0.0,0.0028314590454101562,0.004452228546142578,0.008624792098999023,0
0.8082282543182373,-0.0913350060582161,-0.07607065141201019,-0.37229466438293457,0.0963315499753664,-0.5344124086409021,0.027249228653984787,0.09962267648731916,-0.11393417683025349,0.0,0.0,-0.6,0.0,0.0018286705017089844,0.0034499168395996094,0.008598089218139648,0
0.8209068775177002,-0.08978797495365143,-0.0775250643491745,-0.380661278963089,0.1048499802898918,-0.5341259481621359,0.028385496838847092,0.09248601049630985,-0.11907266638988173,0.0,0.0,-0.6,0.0,0.0015535354614257812,0.0027332305908203125,0.0067234039306640625,0
0.831397533416748,-0.0892077162861824,-0.07803133875131607,-0.3836727440357208,0.10752857003174729,-0.5338292374244819,0.029855832663636644,0.08675548264853687,-0.12367408023481784,0.0,0.0,-0.6,0.0,0.001565694808959961,0.002730846405029297,0.005764484405517578,0
0.84018874168396,-0.08863046020269394,-0.07854882627725601,-0.3866920471191406,0.11022858425250995,-0.5335263281328483,0.03284275893223744,0.08057717866336418,-0.1279075752590595,0.0,0.0,-0.6,0.0,0.0012371540069580078,0.002143383026123047,0.004387378692626953,0
0.8517374992370605,-0.08805536478757858,-0.07903517037630081,-0.38968339562416077,0.11285710527343405,-0.533226873741763,0.03676418752334097,0.07564143848456278,-0.13185671715887548,0.0,0.0,-0.6,0.0,0.0019092559814453125,0.0038607120513916016,0.007549285888671875,0
0.8629584312438965,-0.08805536478757858,-0.07903517037630081,-0.38968339562416077,0.11285710527343405,-0.5329907587957666,0.03954461223491717,0.07225590050992421,-0.13462111648874783,0.0,0.0,-0.6,0.0,0.0020186901092529297,0.0034384727478027344,0.007807016372680664,0
0.8748228549957275,-0.08702415227890015,-0.07997332513332367,-0.394910603761673,0.1184202599052059,-0.532708533002669,0.0365725986036593,0.06527591984995801,-0.13864237900657167,0.0,0.0,-0.6,0.0,0.0018773078918457031,0.004076480865478516,0.008549213409423828,0
0.8850772380828857,-0.08702415227890015,-0.07997332513332367,-0.394910603761673,0.1184202599052059,-0.5324790935857333,0.034643452731737606,0.060484534859394215,-0.14145726276904957,0.0,0.0,-0.6,0.0,0.001821756362915039,0.004006862640380859,0.008061647415161133,0
0.8964595794677734,-0.0854102373123169,-0.0813087671995163,-0.40309786796569824,0.1262781678076657,-0.5321496073478945,0.0376505611923007,0.05423469184561474,-0.14637439686620443,0.0,0.0,-0.6,0.0,0.002610921859741211,0.004147052764892578,0.008246898651123047,0
0.9059271812438965,-0.0854102373123169,-0.0813087671995163,-0.40309786796569824,0.1262781678076657,-0.5318886695851374,0.03982231339522815,0.04995453494406092,-0.1498163907342143,0.0,0.0,-0.6,0.0,0.0015437602996826172,0.004410266876220703,0.0077779293060302734,0
0.9172697067260742,-0.08425537496805191,-0.08221497386693954,-0.40904733538627625,0.13121088218925567,-0.5316433521705416,0.04245610698013995,0.04049740125360768,-0.15407555433491663,0.0,0.0,-0.6,0.0,0.0010666847229003906,0.0021746158599853516,0.004603147506713867,0
0.9247000217437744,-0.08425537496805191,-0.08221497386693954,-0.40904733538627625,0.13121088218925567,-0.5314493702620099,0.044356038176774595,0.03403035753300813,-0.15705696885540954,0.0,0.0,-0.6,0.0,0.0021164417266845703,0.0031354427337646484,0.007211446762084961,0
0.9347069263458252,-0.0832885205745697,-0.08306810259819031,-0.4141911268234253,0.13644613533173558,-0.531158966235244,0.04400873876015522,0.02558970577436278,-0.16110717894818347,0.0,0.0,-0.6,0.0,0.001556396484375,0.0024182796478271484,0.0057146549224853516,0
0.9423537254333496,-0.0832885205745697,-0.08306810259819031,-0.4141911268234253,0.13644613533173558,-0.5309268216052053,0.0438842553237644,0.01980394094114278,-0.16394232601312642,0.0,0.0,-0.6,0.0,0.0033948421478271484,0.004942893981933594,0.007501840591430664,0
0.9535388946533203,-0.08218026906251907,-0.08396241813898087,-0.4200025200843811,0.14108350702724154,-0.530679858239813,0.04294545282410098,0.01076912729058463,-0.16766594334440033,0.0,0.0,-0.6,0.0,0.0015583038330078125,0.003354787826538086,0.006616115570068359,0
0.963489294052124,-0.08218026906251907,-0.08396241813898087,-0.4200025200843811,0.14108350702724154,-0.5304826414993292,0.04240327054912679,0.004576403872835609,-0.1702724754762932,0.0,0.0,-0.6,0.0,0.0018527507781982422,0.004242658615112305,0.008209705352783203,0
0.9743452072143555,-0.08103052526712418,-0.0849638283252716,-0.4264973998069763,0.14683839516393168,-0.5301719532060044,0.03984978972765594,0.0013087985845418315,-0.17425513101987564,0.0,0.0,-0.6,0.0,0.002107381820678711,0.004317045211791992,0.007600307464599609,0
0.9853668212890625,-0.08103052526712418,-0.0849638283252716,-0.4264973998069763,0.14683839516393168,-0.5299216141764868,0.038212395493775864,-0.0009588868442943956,-0.17704298990038453,0.0,0.0,-0.6,0.0,0.003493070602416992,0.004721164703369141,0.008745431900024414,0
0.9961588382720947,-0.07998057454824448,-0.0858447402715683,-0.4322133958339691,0.15136838924302282,-0.5297217626274716,0.039147714163114675,-0.00545162037343388,-0.18069323889639907,0.0,0.0,-0.6,0.0,0.0027039051055908203,0.004157304763793945,0.0076105594635009766,0
1.006596565246582,-0.07998057454824448,-0.0858447402715683,-0.4322133958339691,0.15136838924302282,-0.5295642245806974,0.0398607773864916,-0.008538022881837592,-0.18324841319361035,0.0,0.0,-0.6,0.0,0.0026557445526123047,0.003919839859008789,0.007216453552246094,0
1.018061637878418,-0.07896646857261658,-0.08671466261148453,-0.4378052055835724,0.15596875618084505,-0.5294104541047545,0.041744644589355916,-0.011504050762076553,-0.18676217280334062,0.0,0.0,-0.6,0.0,0.0015485286712646484,0.002752065658569336,0.007510185241699219,0
1.0282642841339111,-0.07896646857261658,-0.08671466261148453,-0.4378052055835724,0.15596875618084505,-0.5292905033131706,0.04309019137475831,-0.013542238012253323,-0.1892218045301529,0.0,0.0,-0.6,0.0,0.0010199546813964844,0.0017981529235839844,0.004884958267211914,0
1.0368871688842773,-0.07798434048891068,-0.0875454992055893,-0.4433128535747528,0.1607479761064507,-0.5291273543971929,0.040333963000427485,-0.015031508150593615,-0.19273575421102251,0.0,0.0,-0.6,0.0,0.0014863014221191406,0.002608060836791992,0.005677223205566406,0
1.0446465015411377,-0.07798434048891068,-0.0875454992055893,-0.4433128535747528,0.1607479761064507,-0.5289942973798344,0.038509293217254235,-0.016070997034118364,-0.19519551898763232,0.0,0.0,-0.6,0.0,0.0030601024627685547,0.005168914794921875,0.00835275650024414,0
1.0557968616485596,-0.0769866481423378,-0.08837094902992249,-0.4487418532371521,0.16489430419154602,-0.5288352250870483,0.0340838109946725,-0.01363012606856396,-0.1984722273631691,0.0,0.0,-0.6,0.0,0.0017242431640625,0.003656625747680664,0.007397890090942383,0
1.0656111240386963,-0.0769866481423378,-0.08837094902992249,-0.4487418532371521,0.16489430419154602,-0.5287017420120067,0.031107391357567894,-0.011989904938747095,-0.20076592322604583,0.0,0.0,-0.6,0.0,0.0029032230377197266,0.0045013427734375,0.008821249008178711,0
1.078059196472168,-0.07602065056562424,-0.08918149024248123,-0.4540814757347107,0.16909438416167502,-0.5285789317967183,0.02715221417447686,-0.010645936336556385,-0.20394654031885703,0.0,0.0,-0.6,0.0,0.002562284469604492,0.004123687744140625,0.008535385131835938,0
1.0889759063720703,-0.07602065056562424,-0.08918149024248123,-0.4540814757347107,0.16909438416167502,-0.5284757769508259,0.024487070551454646,-0.009748914443435565,-0.20617297228382583,0.0,0.0,-0.6,0.0,0.001979351043701172,0.0033369064331054688,0.0076296329498291016,0
1.0994389057159424,-0.07508030533790588,-0.08999261260032654,-0.459361732006073,0.1733151112711252,-0.5283594062893775,0.025221174978237153,-0.010756554964278325,-0.2093142473253469,0.0,0.0,-0.6,0.0,0.0018017292022705078,0.0034530162811279297,0.008222341537475586,0
1.111950397491455,-0.07508030533790588,-0.08999261260032654,-0.459361732006073,0.1733151112711252,-0.5282674771609873,0.025763267748727753,-0.011458200181717811,-0.21151313985441259,0.0,0.0,-0.6,0.0,0.0018482208251953125,0.0035839080810546875,0.008320331573486328,0
1.1238441467285156,-0.07373753190040588,-0.09120935946702957,-0.4671691954135895,0.1790449310962757,-0.5281023545480986,0.028397402562153957,-0.00785996518575546,-0.2152010470591885,0.0,0.0,-0.6,0.0,0.0013425350189208984,0.0028269290924072266,0.0058591365814208984,0
1.131235122680664,-0.07373753190040588,-0.09120935946702957,-0.4671691954135895,0.1790449310962757,-0.5279708380136433,0.030243430362026664,-0.005421866147180926,-0.21778258210253276,0.0,0.0,-0.6,0.0,0.0010581016540527344,0.003506183624267578,0.006769895553588867,0
1.1401896476745605,-0.07373753190040588,-0.09120935946702957,-0.4671691954135895,0.1790449310962757,-0.5278662285042222,0.031544783517991684,-0.00377318045822103,-0.2195896566328745,0.0,0.0,-0.6,0.0,0.0015442371368408203,0.0026454925537109375,0.00580286979675293,0
1.1520030498504639,-0.07289937883615494,-0.09202802181243896,-0.47227469086647034,0.18254049870469935,-0.52774509499805,0.027645970791090886,-0.003051293216905797,-0.22216544665727184,0.0,0.0,-0.6,0.0,0.0018792152404785156,0.0032720565795898438,0.007028341293334961,0
1.1631860733032227,-0.07250489294528961,-0.092432402074337,-0.47477880120277405,0.18435244189443542,-0.5276400944791765,0.02378316353702048,-0.0023930473601409706,-0.22464797837050107,0.0,0.0,-0.6,0.0,0.0021944046020507812,0.003777027130126953,0.00749969482421875,0
1.1735680103302002,-0.07250489294528961,-0.092432402074337,-0.47477880120277405,0.18435244189443542,-0.5275516035857404,0.021177602905793333,-0.0019622609181202764,-0.2263857505697623,0.0,0.0,-0.6,0.0,0.0018150806427001953,0.00411677360534668,0.00857090950012207,0
1.1863069534301758,-0.07139787822961807,-0.09366960823535919,-0.48215341567993164,0.1893311629487546,-0.5274988215031103,0.021020936793865526,-0.0039042357820773194,-0.2294692115046135,0.0,0.0,-0.6,0.0,0.003331899642944336,0.0046117305755615234,0.00849151611328125,0
1.197587490081787,-0.07139787822961807,-0.09366960823535919,-0.48215341567993164,0.1893311629487546,-0.5274572784010966,0.020936236880691034,-0.005236576776198388,-0.23162763415901025,0.0,0.0,-0.6,0.0,0.0015249252319335938,0.002805471420288086,0.005669593811035156,0
1.2073569297790527,-0.07068692892789841,-0.09444428235292435,-0.4869377017021179,0.1925097000235624,-0.5274718348847353,0.022137168366109662,-0.009260801188417895,-0.23433048142014037,0.0,0.0,-0.6,0.0,0.002248525619506836,0.0037212371826171875,0.008352041244506836,0
1.2191014289855957,-0.07068692892789841,-0.09444428235292435,-0.4869377017021179,0.1925097000235624,-0.5274864163281084,0.02296221170101539,-0.012003969085712635,-0.23622247450293227,0.0,0.0,-0.6,0.0,0.00336456298828125,0.004525423049926758,0.008450508117675781,0
1.2319378852844238,-0.0699729174375534,-0.095304474234581,-0.4922025799751282,0.19602133115059786,-0.5274579854615158,0.020211042285962946,-0.012954255835842678,-0.23886373133352415,0.0,0.0,-0.6,0.0,0.0011837482452392578,0.002043485641479492,0.0059206485748291016,0
1.243462324142456,-0.06965946406126022,-0.09566225856542587,-0.49445444345474243,0.19726069236149935,-0.5274692260975979,0.01877502161499074,-0.012464837757650898,-0.24117737156902685,0.0,0.0,-0.6,0.0,0.0013718605041503906,0.0024137496948242188,0.005588054656982422,0
1.2504191398620605,-0.06965946406126022,-0.09566225856542587,-0.49445444345474243,0.19726069236149935,-0.5274764974937636,0.01778953382946122,-0.01212881579078894,-0.24279691973387943,0.0,0.0,-0.6,0.0,0.0026633739471435547,0.0041866302490234375,0.007316112518310547,0
1.2616565227508545,-0.06898275017738342,-0.09648195654153824,-0.4994810223579407,0.2004329683386455,-0.527469269797881,0.01938092353679638,-0.017627860195554977,-0.24512020694070533,0.0,0.0,-0.6,0.0,0.001966714859008789,0.0034868717193603516,0.007771968841552734,0
1.2729477882385254,-0.06898275017738342,-0.09648195654153824,-0.4994810223579407,0.2004329683386455,-0.5274674297914889,0.020481679864786925,-0.021381578946392234,-0.24674650798548417,0.0,0.0,-0.6,0.0,0.002055644989013672,0.0035974979400634766,0.007247447967529297,0
1.283639907836914,-0.06838627904653549,-0.09719360619783401,-0.5037891864776611,0.2025837776379085,-0.5275012109948356,0.014740996875703257,-0.0252939111241544,-0.24869147220405266,0.0,0.0,-0.6,0.0,0.0026731491088867188,0.00483250617980957,0.00873112678527832,0
1.295605182647705,-0.06838627904653549,-0.09719360619783401,-0.5037891864776611,0.2025837776379085,-0.5275239222309512,0.010811562094371965,-0.027963390473431386,-0.2500529471570512,0.0,0.0,-0.6,0.0,0.0020117759704589844,0.0043566226959228516,0.007824182510375977,0
1.3067383766174316,-0.06784845888614655,-0.09781769663095474,-0.5074346661567688,0.20473327778725064,-0.5275798937532196,0.006835676611748851,-0.030245456735964734,-0.2518120421801531,0.0,0.0,-0.6,0.0,0.0027048587799072266,0.00439000129699707,0.008010387420654297,0
1.3198237419128418,-0.06754332035779953,-0.0981597751379013,-0.5095131397247314,0.20574315306730245,-0.52752771280011,0.004654488603600723,-0.030679720071360463,-0.25342211192634395,0.0,0.0,-0.6,0.0,0.0026695728302001953,0.0045740604400634766,0.008020162582397461,0
1.3324103355407715,-0.06696904450654984,-0.09877347946166992,-0.5135921239852905,0.2074930288661327,-0.5275376123943911,0.0029928045730023565,-0.026914827749065506,-0.255205364173214,0.0,0.0,-0.6,0.0,0.0018148422241210938,0.003115415573120117,0.0067691802978515625,0
1.3431060314178467,-0.0667259693145752,-0.09902495890855789,-0.5150942206382751,0.20849295423705946,-0.5274978705388779,0.00020081099268220298,-0.02610226154794497,-0.25682861276014546,0.0,0.0,-0.6,0.0,0.0014388561248779297,0.0025076866149902344,0.00555729866027832,0
1.350625991821289,-0.06644507497549057,-0.09929423779249191,-0.5170920491218567,0.2093156704158604,-0.5274975610862216,-0.005304354006508524,-0.02496138661749735,-0.25827340533804805,0.0,0.0,-0.6,0.0,0.0011188983917236328,0.002115964889526367,0.004340648651123047,0
1.3610100746154785,-0.06616315990686417,-0.09955540299415588,-0.5190675258636475,0.21007880893987166,-0.5274171729845244,-0.008754523179706855,-0.024238458451009148,-0.2595709370890842,0.0,0.0,-0.6,0.0,0.002068758010864258,0.003729581832885742,0.008323192596435547,0
1.3718981742858887,-0.06616315990686417,-0.09955540299415588,-0.5190675258636475,0.21007880893987166,-0.5273492154713856,-0.011086562197124379,-0.023760238358616546,-0.2604792093148099,0.0,0.0,-0.6,0.0,0.0022530555725097656,0.0038614273071289062,0.008727073669433594,0
1.3842737674713135,-0.06547871232032776,-0.10024043917655945,-0.52436363697052,0.2124140117901033,-0.5273817886490239,-0.01138155504758945,-0.01885509566897997,-0.2619907009416331,0.0,0.0,-0.6,0.0,0.001932382583618164,0.0044078826904296875,0.008108854293823242,0
1.395146131515503,-0.06547871232032776,-0.10024043917655945,-0.52436363697052,0.2124140117901033,-0.5274040222808107,-0.011599980717358616,-0.015497353417407185,-0.26304874508043086,0.0,0.0,-0.6,0.0,0.0033080577850341797,0.004565238952636719,0.008393049240112305,0
1.4059786796569824,-0.06502348184585571,-0.10063000023365021,-0.5280991792678833,0.21360162846149475,-0.5274624097743941,-0.01190564101697379,-0.01654631198370589,-0.26423473222936095,0.0,0.0,-0.6,0.0,0.003239154815673828,0.0049245357513427734,0.008822441101074219,0
1.417989730834961,-0.06502348184585571,-0.10063000023365021,-0.5280991792678833,0.21360162846149475,-0.5275095426438351,-0.012131220038990158,-0.017251003279423936,-0.26506492323361236,0.0,0.0,-0.6,0.0,0.0014116764068603516,0.0024385452270507812,0.007078647613525391,0
1.428917646408081,-0.06465572863817215,-0.10096753388643265,-0.5312838554382324,0.21490658430992457,-0.5276142134677555,-0.011997563196181437,-0.015447815628348068,-0.2661354153797493,0.0,0.0,-0.6,0.0,0.0015859603881835938,0.003360748291015625,0.007767200469970703,0
1.4384982585906982,-0.06465572863817215,-0.10096753388643265,-0.5312838554382324,0.21490658430992457,-0.5276968090894834,-0.011940571029714271,-0.014193731589101071,-0.26688475988204546,0.0,0.0,-0.6,0.0,0.0021424293518066406,0.004567623138427734,0.00819087028503418,0
1.4497406482696533,-0.06415942311286926,-0.10137524455785751,-0.5360682010650635,0.21645356009393404,-0.5278342582177301,-0.013205400781541986,-0.012097737729093413,-0.2679894169526406,0.0,0.0,-0.6,0.0,0.0015523433685302734,0.002532958984375,0.005616664886474609,0
1.4585680961608887,-0.06415942311286926,-0.10137524455785751,-0.5360682010650635,0.21645356009393404,-0.527941711444237,-0.014114289100847402,-0.01063639104828673,-0.26876267690207295,0.0,0.0,-0.6,0.0,0.002410888671875,0.004167079925537109,0.008426189422607422,0
1.4713706970214844,-0.06380877643823624,-0.10158856958150864,-0.5393968224525452,0.21753843907362533,-0.5280659318914913,-0.016278702771592754,-0.012483961072184557,-0.2697107884840596,0.0,0.0,-0.6,0.0,0.0020585060119628906,0.0036585330963134766,0.0071620941162109375,0
1.4830186367034912,-0.06380877643823624,-0.10158856958150864,-0.5393968224525452,0.21753843907362533,-0.5281648185737131,-0.017792896878240063,-0.013719753301338369,-0.27037446659145054,0.0,0.0,-0.6,0.0,0.0018267631530761719,0.003307819366455078,0.006882190704345703,0
1.4939844608306885,-0.06346537172794342,-0.10174059122800827,-0.5426115393638611,0.21849517703600815,-0.5282755633653115,-0.01894770497496599,-0.008815917057252815,-0.2711978180025176,0.0,0.0,-0.6,0.0,0.0019080638885498047,0.003221273422241211,0.007754087448120117,0
1.5048513412475586,-0.06330396980047226,-0.10179955512285233,-0.544154167175293,0.21877202063900966,-0.5283758044338747,-0.017977914488964377,-0.0017017954779452544,-0.2718779803413902,0.0,0.0,-0.6,0.0,0.0016057491302490234,0.0028188228607177734,0.006348609924316406,0
1.515988826751709,-0.06330396980047226,-0.10179955512285233,-0.544154167175293,0.21877202063900966,-0.528451227546151,-0.017350396524450577,0.003181599510945373,-0.27235409397860794,0.0,0.0,-0.6,0.0,0.0028862953186035156,0.004457950592041016,0.007971763610839844,0
1.526961088180542,-0.0628466010093689,-0.10188634693622589,-0.5486007332801819,0.21987784347969402,-0.5286019626756954,-0.019851490878361227,0.007426704367256382,-0.2731020570899101,0.0,0.0,-0.6,0.0,0.0014917850494384766,0.003752470016479492,0.007086038589477539,0
1.536949634552002,-0.0628466010093689,-0.10188634693622589,-0.5486007332801819,0.21987784347969402,-0.5287178366916588,-0.021607200522409043,0.010359568734230029,-0.2736256312678218,0.0,0.0,-0.6,0.0,0.0016360282897949219,0.0028676986694335938,0.006268978118896484,0
1.5467033386230469,-0.0628466010093689,-0.10188634693622589,-0.5486007332801819,0.21987784347969402,-0.5288074471906536,-0.022841389814210394,0.01238756135019258,-0.27399213319236015,0.0,0.0,-0.6,0.0,0.001672506332397461,0.0028078556060791016,0.006060123443603516,0
1.5552043914794922,-0.06243567541241646,-0.10182292014360428,-0.55275559425354,0.2207819726115019,-0.5290154015516163,-0.023092516955719337,0.010320163531808467,-0.274587732963973,0.0,0.0,-0.6,0.0,0.0011868476867675781,0.0034592151641845703,0.0072591304779052734,0
1.5648183822631836,-0.06243567541241646,-0.10182292014360428,-0.55275559425354,0.2207819726115019,-0.5291827191220994,-0.023318976396043706,0.008952006873806057,-0.2750046528040997,0.0,0.0,-0.6,0.0,0.0015249252319335938,0.004046440124511719,0.008431673049926758,0
1.5760960578918457,-0.06243567541241646,-0.10182292014360428,-0.55275559425354,0.2207819726115019,-0.5293171887782553,-0.02351812552728097,0.008053564015182868,-0.2752964966921827,0.0,0.0,-0.6,0.0,0.0029077529907226562,0.004620075225830078,0.008411884307861328,0
1.5875325202941895,-0.062062691897153854,-0.1016874760389328,-0.5565918684005737,0.22136650189235446,-0.5295165956247773,-0.024559372976022696,0.013607741809881394,-0.27571998589416036,0.0,0.0,-0.6,0.0,0.0015158653259277344,0.0031931400299072266,0.00793910026550293,0
1.598548412322998,-0.062062691897153854,-0.1016874760389328,-0.5565918684005737,0.22136650189235446,-0.5296714101998892,-0.0253285498676237,0.017449484734829657,-0.2760164283355449,0.0,0.0,-0.6,0.0,0.0015568733215332031,0.0034301280975341797,0.007874488830566406,0
1.6094837188720703,-0.06185518950223923,-0.10154053568840027,-0.5589668154716492,0.22174684051768165,-0.529850242999065,-0.02571908153813878,0.02320276225285642,-0.2763665650290117,0.0,0.0,-0.6,0.0,0.0032548904418945312,0.004437923431396484,0.007848024368286133,0
1.6220479011535645,-0.06185518950223923,-0.10154053568840027,-0.5589668154716492,0.22174684051768165,-0.5299892956429719,-0.02603697045273893,0.027173077414436905,-0.27661166071443855,0.0,0.0,-0.6,0.0,0.0018460750579833984,0.003085613250732422,0.0065076351165771484,0
1.6325931549072266,-0.06162320449948311,-0.10135434567928314,-0.561222493648529,0.22203559919748675,-0.5302627762675972,-0.02650375275005666,0.026832115768163793,-0.27689151219916425,0.0,0.0,-0.6,0.0,0.001592397689819336,0.002819061279296875,0.007226467132568359,0
1.6427338123321533,-0.06162320449948311,-0.10135434567928314,-0.561222493648529,0.22203559919748675,-0.5304812555212964,-0.026893280516397822,0.026654384035931167,-0.27708740823846956,0.0,0.0,-0.6,0.0,0.001604318618774414,0.0036749839782714844,0.006922006607055664,0
1.652369737625122,-0.061365190893411636,-0.10108500719070435,-0.5632696151733398,0.2223305214460527,-0.5307556276917886,-0.02688235785678298,0.024229011612939753,-0.2773351313092017,0.0,0.0,-0.6,0.0,0.001646280288696289,0.002859830856323242,0.005809783935546875,0
1.6609086990356445,-0.06124185398221016,-0.10095008462667465,-0.564246654510498,0.22252572083428565,-0.531031858763958,-0.025313467745852445,0.022886048717125587,-0.277581737229298,0.0,0.0,-0.6,0.0,0.002325296401977539,0.0040361881256103516,0.008394241333007812,0
1.6725654602050781,-0.06124185398221016,-0.10095008462667465,-0.564246654510498,0.22252572083428565,-0.5312542018401628,-0.024309344236463675,0.022025212248112748,-0.27775436137336557,0.0,0.0,-0.6,0.0,0.001871347427368164,0.003422260284423828,0.0075855255126953125,0
1.6834993362426758,-0.060964010655879974,-0.10053135454654694,-0.5662944316864014,0.22263318991843034,-0.5314609344448303,-0.025460658697091236,0.02644891696726877,-0.27791549918076486,0.0,0.0,-0.6,0.0,0.002284526824951172,0.00663447380065918,0.010129928588867188,0
1.6961097717285156,-0.060964010655879974,-0.10053135454654694,-0.5662944316864014,0.22263318991843034,-0.5316228171508963,-0.026301371622835194,0.029515851217399854,-0.2780282956459482,0.0,0.0,-0.6,0.0,0.0028498172760009766,0.00463414192199707,0.008126258850097656,0
1.708503007888794,-0.06056113541126251,-0.09997986257076263,-0.5686428546905518,0.22260916735146283,-0.5318705420725441,-0.027473997409220272,0.029974984101211903,-0.27809824470896227,0.0,0.0,-0.6,0.0,0.0015368461608886719,0.0031845569610595703,0.007350921630859375,0
1.7200889587402344,-0.06056113541126251,-0.09997986257076263,-0.5686428546905518,0.22260916735146283,-0.5320675847262382,-0.028334252009243846,0.030336225583320352,-0.2781472090530721,0.0,0.0,-0.6,0.0,0.0018527507781982422,0.0034890174865722656,0.008190393447875977,0
1.7316741943359375,-0.060305409133434296,-0.09949760138988495,-0.5702008605003357,0.2224417982315068,-0.5323637685659731,-0.029817171217255075,0.028859924495153497,-0.2781187206739656,0.0,0.0,-0.6,0.0,0.0017063617706298828,0.0037124156951904297,0.007419109344482422,0
1.7407820224761963,-0.060305409133434296,-0.09949760138988495,-0.5702008605003357,0.2224417982315068,-0.5326001979073617,-0.030898155846373794,0.027905476486456214,-0.27809877880859074,0.0,0.0,-0.6,0.0,0.0017066001892089844,0.0030241012573242188,0.006615400314331055,0
1.752270221710205,-0.060001131147146225,-0.09898363798856735,-0.5714819431304932,0.22232810190634927,-0.5327751891834752,-0.029840915331675807,0.029622852706421506,-0.2780421833808953,0.0,0.0,-0.6,0.0,0.0015227794647216797,0.0027174949645996094,0.006215810775756836,0
1.7622120380401611,-0.05982349067926407,-0.09868228435516357,-0.5721936821937561,0.22211128830160703,-0.5329233375925422,-0.02550562808659339,0.030238339618713733,-0.2779212614797311,0.0,0.0,-0.6,0.0,0.002948760986328125,0.004285573959350586,0.00730133056640625,0
1.7726426124572754,-0.05982349067926407,-0.09868228435516357,-0.5721936821937561,0.22211128830160703,-0.5330433370659391,-0.022575027777812944,0.030683480858970193,-0.27783661614891453,0.0,0.0,-0.6,0.0,0.0022351741790771484,0.0037994384765625,0.008304357528686523,0
1.7837650775909424,-0.059494033455848694,-0.09803029894828796,-0.5735674500465393,0.22162002226292685,-0.5331804404825359,-0.02292124092076944,0.029080978547805957,-0.277593139652838,0.0,0.0,-0.6,0.0,0.002048492431640625,0.004371166229248047,0.008402824401855469,0
1.7979693412780762,-0.059215422719717026,-0.09741425514221191,-0.5747395753860474,0.22115796711862348,-0.5333222079030356,-0.024755847699378077,0.023995336319667656,-0.27724943542647074,0.0,0.0,-0.6,0.0,0.002191781997680664,0.0038089752197265625,0.00984954833984375,0
1.8097891807556152,-0.059215422719717026,-0.09741425514221191,-0.5747395753860474,0.22115796711862348,-0.5334362080970246,-0.026040505718199904,0.020543843217936047,-0.27700884246801355,0.0,0.0,-0.6,0.0,0.0018870830535888672,0.0031702518463134766,0.007327556610107422,0
1.822390079498291,-0.05883895605802536,-0.09672321379184723,-0.5760346055030823,0.22062900611288724,-0.5334870428375101,-0.025726212569751286,0.021701801941159046,-0.27664206701994254,0.0,0.0,-0.6,0.0,0.001880645751953125,0.003432035446166992,0.0071942806243896484,0
1.8342976570129395,-0.05850107595324516,-0.09607889503240585,-0.5771547555923462,0.21996719039174772,-0.533550527823844,-0.02681249673964347,0.01901632353716063,-0.27613714331086564,0.0,0.0,-0.6,0.0,0.002245187759399414,0.004841327667236328,0.00863504409790039,0
1.8447413444519043,-0.05850107595324516,-0.09607889503240585,-0.5771547555923462,0.21996719039174772,-0.5336017747430079,-0.02756806979068501,0.017192057168207653,-0.2757836967145117,0.0,0.0,-0.6,0.0,0.0014827251434326172,0.0026683807373046875,0.006432771682739258,0
1.8544776439666748,-0.05809919163584709,-0.0952768474817276,-0.5783873796463013,0.21939544781928105,-0.5335725239460305,-0.028600968582657756,0.018790244059651285,-0.27532188063238905,0.0,0.0,-0.6,0.0,0.0016651153564453125,0.002796649932861328,0.0058040618896484375,0
1.861534833908081,-0.05809919163584709,-0.0952768474817276,-0.5783873796463013,0.21939544781928105,-0.5335479839363164,-0.029301101562750467,0.019877692400217493,-0.27499860937490306,0.0,0.0,-0.6,0.0,0.0012786388397216797,0.002287626266479492,0.0047321319580078125,0
1.8725731372833252,-0.05768370255827904,-0.09451378136873245,-0.5794703960418701,0.21863898927800296,-0.5335770569757502,-0.028107356130292686,0.022787515211279204,-0.2744886475416767,0.0,0.0,-0.6,0.0,0.0017633438110351562,0.003272533416748047,0.0069997310638427734,0
1.8820850849151611,-0.05768370255827904,-0.09451378136873245,-0.5794703960418701,0.21863898927800296,-0.533599465292099,-0.02729699194182553,0.024779710048505054,-0.27413167425842516,0.0,0.0,-0.6,0.0,0.0018002986907958984,0.0034313201904296875,0.007517099380493164,0
1.893359661102295,-0.057208798825740814,-0.0936417505145073,-0.580748975276947,0.21763493612813434,-0.5336991590240268,-0.024137909315933653,0.024660560050217422,-0.2735052730289486,0.0,0.0,-0.6,0.0,0.001760721206665039,0.0029115676879882812,0.006739377975463867,0
1.9036240577697754,-0.057208798825740814,-0.0936417505145073,-0.580748975276947,0.21763493612813434,-0.533779951537732,-0.021997183132077422,0.024592904949610854,-0.27306679216831486,0.0,0.0,-0.6,0.0,0.002175569534301758,0.004396677017211914,0.008574962615966797,0
1.9161617755889893,-0.056682147085666656,-0.0928179919719696,-0.5818477869033813,0.2169218878868332,-0.5338556665061599,-0.01662186739311979,0.028227470248172747,-0.2724924624753834,0.0,0.0,-0.6,0.0,0.0015871524810791016,0.00397944450378418,0.007483959197998047,0
1.926954746246338,-0.056682147085666656,-0.0928179919719696,-0.5818477869033813,0.2169218878868332,-0.5339165689783509,-0.012961950412884511,0.030720398890977288,-0.27209043169032565,0.0,0.0,-0.6,0.0,0.0026230812072753906,0.003689289093017578,0.006964921951293945,0
1.9370825290679932,-0.056144967675209045,-0.09197289496660233,-0.5829094648361206,0.21604678338051608,-0.533989172848337,-0.011960366678133307,0.033119703707751524,-0.27148084595091365,0.0,0.0,-0.6,0.0,0.0022945404052734375,0.003634214401245117,0.00853419303894043,0
1.9481651782989502,-0.056144967675209045,-0.09197289496660233,-0.5829094648361206,0.21604678338051608,-0.5340467389341982,-0.0112890505349786,0.03476930669025883,-0.2710541359333394,0.0,0.0,-0.6,0.0,0.00167083740234375,0.0035185813903808594,0.0067822933197021484,0
1.9586589336395264,-0.05559384450316429,-0.09110350906848907,-0.5839095115661621,0.215141771671394,-0.534049272631236,-0.013347483852798329,0.0354789994308011,-0.27041605953011094,0.0,0.0,-0.6,0.0,0.0016598701477050781,0.0027608871459960938,0.005838632583618164,0
1.9655144214630127,-0.05559384450316429,-0.09110350906848907,-0.5839095115661621,0.215141771671394,-0.5340500857166502,-0.014754477525289703,0.03596519078600953,-0.2699694060478447,0.0,0.0,-0.6,0.0,0.0025548934936523438,0.004502296447753906,0.0071125030517578125,0
1.97674560546875,-0.055034928023815155,-0.09018449485301971,-0.5848435163497925,0.21437364451135668,-0.5340903626599501,-0.01206539332964611,0.040295299383269936,-0.26936870092525067,0.0,0.0,-0.6,0.0,0.0025587081909179688,0.00415349006652832,0.00881505012512207,0
1.9895029067993164,-0.055034928023815155,-0.09018449485301971,-0.5848435163497925,0.21437364451135668,-0.5341220356143566,-0.010233832798109327,0.04325845358998399,-0.26894820733943464,0.0,0.0,-0.6,0.0,0.0016207695007324219,0.0032846927642822266,0.007695913314819336,0
2.0003302097320557,-0.05449138954281807,-0.0892544835805893,-0.5857433676719666,0.21362511276499108,-0.5342344175271004,-0.005862497622873374,0.0418589355967456,-0.26837316242447645,0.0,0.0,-0.6,0.0,0.0024497509002685547,0.0038874149322509766,0.007443904876708984,0
2.0116539001464844,-0.05449138954281807,-0.0892544835805893,-0.5857433676719666,0.21362511276499108,-0.5343261435537338,-0.002894306500690031,0.04091573512719387,-0.2679706309840056,0.0,0.0,-0.6,0.0,0.002056598663330078,0.0034935474395751953,0.007326602935791016,0
2.023153305053711,-0.05367230251431465,-0.08777454495429993,-0.5870630741119385,0.21224633753817163,-0.5343541659549955,-0.0021364293065241004,0.04127469259694654,-0.26717181826563013,0.0,0.0,-0.6,0.0,0.002266407012939453,0.0035429000854492188,0.008296728134155273,0
2.0336568355560303,-0.05367230251431465,-0.08777454495429993,-0.5870630741119385,0.21224633753817163,-0.5343768047124495,-0.0016234754409529054,0.04152303362540352,-0.266612649362756,0.0,0.0,-0.6,0.0,0.0013206005096435547,0.0030350685119628906,0.007348060607910156,0
2.044940948486328,-0.05340997502207756,-0.08726271986961365,-0.587477445602417,0.21173967553845452,-0.5344302547894756,-0.0038269275336531954,0.043969406230203706,-0.26603123288085023,0.0,0.0,-0.6,0.0,0.0014922618865966797,0.002660512924194336,0.006496906280517578,0
2.0538296699523926,-0.05289579555392265,-0.08627583831548691,-0.588254988193512,0.21050291759754106,-0.5344936011224475,-0.008721085163296012,0.042979442762380984,-0.26516045711567393,0.0,0.0,-0.6,0.0,0.0009300708770751953,0.003598928451538086,0.006481170654296875,0
2.0628435611724854,-0.05289579555392265,-0.08627583831548691,-0.588254988193512,0.21050291759754106,-0.5345417943792518,-0.01207755664822148,0.04231384132641293,-0.26455091408005027,0.0,0.0,-0.6,0.0,0.0012631416320800781,0.0023505687713623047,0.004972219467163086,0
2.071735143661499,-0.05265374854207039,-0.08577046543359756,-0.5886185169219971,0.20994514953209045,-0.5345546975179422,-0.014259698324248348,0.03949593633306114,-0.26391507093056976,0.0,0.0,-0.6,0.0,0.0021104812622070312,0.0037169456481933594,0.0077822208404541016,0
2.0829148292541504,-0.05265374854207039,-0.08577046543359756,-0.5886185169219971,0.20994514953209045,-0.5345645476005444,-0.015753891583741284,0.03757321341725445,-0.2634699807259332,0.0,0.0,-0.6,0.0,0.0018091201782226562,0.0035295486450195312,0.0073299407958984375,0
2.093639373779297,-0.05191054940223694,-0.08438707143068314,-0.5896407961845398,0.20810250801550562,-0.53471280511719,-0.012722201598823533,0.034029969438676796,-0.26246742701396886,0.0,0.0,-0.6,0.0,0.0017423629760742188,0.003223419189453125,0.006790876388549805,0
2.104702949523926,-0.05191054940223694,-0.08438707143068314,-0.5896407961845398,0.20810250801550562,-0.5348328896172204,-0.010675835122141887,0.03162387726422175,-0.2617656394155838,0.0,0.0,-0.6,0.0,0.0022444725036621094,0.004225969314575195,0.009246110916137695,0
2.1172702312469482,-0.05140354856848717,-0.0835198387503624,-0.5902987718582153,0.20684055212757252,-0.5348370727823476,-0.0086401370786332,0.03236379861631816,-0.2608011546387493,0.0,0.0,-0.6,0.0,0.0018839836120605469,0.0029649734497070312,0.006449460983276367,0
2.1268043518066406,-0.05140354856848717,-0.0835198387503624,-0.5902987718582153,0.20684055212757252,-0.5348410798887994,-0.007249548390310769,0.032868157168915,-0.2601260152949649,0.0,0.0,-0.6,0.0,0.002992868423461914,0.00471186637878418,0.008814573287963867,0
2.139660358428955,-0.050894804298877716,-0.08262424916028976,-0.5909321308135986,0.20517511824003318,-0.5349164252173437,-0.005978687470217001,0.03230382537941223,-0.25902888004648894,0.0,0.0,-0.6,0.0,0.0018570423126220703,0.003293752670288086,0.00818181037902832,0
2.1493687629699707,-0.050894804298877716,-0.08262424916028976,-0.5909321308135986,0.20517511824003318,-0.5349772608114991,-0.005123610699215268,0.03192562696161745,-0.2582608853725555,0.0,0.0,-0.6,0.0,0.0018167495727539062,0.003156423568725586,0.007590055465698242,0
2.1593356132507324,-0.050402235239744186,-0.08183691650629044,-0.5914758443832397,0.20394567147760498,-0.535002699661435,-0.0017868988111006266,0.02958041308206276,-0.2572622465648917,0.0,0.0,-0.6,0.0,0.002630949020385742,0.003662109375,0.006669282913208008,0
2.1678285598754883,-0.050402235239744186,-0.08183691650629044,-0.5914758443832397,0.20394567147760498,-0.5350250010471475,0.00048764153084721387,0.027978102226092413,-0.2565631993995171,0.0,0.0,-0.6,0.0,0.0012433528900146484,0.002897500991821289,0.005637168884277344,0
2.1771838665008545,-0.05000501871109009,-0.08115790039300919,-0.5919396281242371,0.202763830145327,-0.53514778144031,-0.0011395819060268173,0.026305684873316474,-0.25563067588416055,0.0,0.0,-0.6,0.0,0.0017025470733642578,0.002821683883666992,0.0076751708984375,0
2.187662124633789,-0.05000501871109009,-0.08115790039300919,-0.5919396281242371,0.202763830145327,-0.5352453463764729,-0.002275240237478335,0.025178860980357813,-0.25497790942341064,0.0,0.0,-0.6,0.0,0.0017604827880859375,0.0033092498779296875,0.008526086807250977,0
2.2006683349609375,-0.04954823851585388,-0.08037998527288437,-0.5924380421638489,0.20166307114880444,-0.5353482878587433,-0.0029127964603605453,0.02319175961885772,-0.25410818827719,0.0,0.0,-0.6,0.0,0.0019385814666748047,0.0031604766845703125,0.007178306579589844,0
2.2121806144714355,-0.04954823851585388,-0.08037998527288437,-0.5924380421638489,0.20166307114880444,-0.5354306998217766,-0.0033673336459007484,0.021847249834863264,-0.25349938347483525,0.0,0.0,-0.6,0.0,0.002270936965942383,0.00406956672668457,0.008919000625610352,0
2.2242376804351807,-0.04889288544654846,-0.0794328898191452,-0.5930620431900024,0.19969928727999742,-0.5355013686599926,-0.002960267147306615,0.02331788153447952,-0.2523368011623849,0.0,0.0,-0.6,0.0,0.0023086071014404297,0.004904747009277344,0.008021354675292969,0
2.234860897064209,-0.04889288544654846,-0.0794328898191452,-0.5930620431900024,0.19969928727999742,-0.5355574686977359,-0.00269386851593876,0.02433165171896875,-0.25152299354366925,0.0,0.0,-0.6,0.0,0.0017955303192138672,0.0030035972595214844,0.0073621273040771484,0
2.24613618850708,-0.048473406583070755,-0.07872705906629562,-0.593438446521759,0.19858108522696516,-0.5355889231635326,-0.007744657100192355,0.026417715633466288,-0.2505340024406677,0.0,0.0,-0.6,0.0,0.0022695064544677734,0.0035495758056640625,0.007390022277832031,0
2.2563769817352295,-0.04813295230269432,-0.07803964614868164,-0.5937426090240479,0.19748337811903288,-0.5356947184559399,-0.0064336902198771275,0.030449108289708877,-0.24943006850310584,0.0,0.0,-0.6,0.0,0.0014846324920654297,0.0033392906188964844,0.007227182388305664,0
2.266021251678467,-0.04813295230269432,-0.07803964614868164,-0.5937426090240479,0.19748337811903288,-0.5357784093822908,-0.005553087437028064,0.0332161499421068,-0.24865731474681219,0.0,0.0,-0.6,0.0,0.0013799667358398438,0.0024251937866210938,0.00526118278503418,0
2.273244857788086,-0.047960493713617325,-0.07769057899713516,-0.5938741564750671,0.19688150319023542,-0.5358318289944469,-0.0042692607395338035,0.03460775792261624,-0.24789068401910758,0.0,0.0,-0.6,0.0,0.0010242462158203125,0.001905202865600586,0.005621194839477539,0
2.281435966491699,-0.047960493713617325,-0.07769057899713516,-0.5938741564750671,0.19688150319023542,-0.5358747206828071,-0.003400528906691573,0.035563702051602246,-0.24735404250971413,0.0,0.0,-0.6,0.0,0.0015938282012939453,0.0029401779174804688,0.007477760314941406,0
2.2920114994049072,-0.047651272267103195,-0.07691517472267151,-0.5941067337989807,0.1953568285759618,-0.5360566074823325,-0.002324502278389664,0.030182128119265992,-0.24640664047278651,0.0,0.0,-0.6,0.0,0.0015919208526611328,0.0028023719787597656,0.006125450134277344,0
2.3026134967803955,-0.047651272267103195,-0.07691517472267151,-0.5941067337989807,0.1953568285759618,-0.5362030237558305,-0.0016233729424531473,0.02652242347946807,-0.24574345904693687,0.0,0.0,-0.6,0.0,0.002497434616088867,0.003923892974853516,0.007599592208862305,0
2.3139750957489014,-0.04737631976604462,-0.07615270465612411,-0.594209611415863,0.19408596814601353,-0.536361324991057,-0.0010680986616339104,0.022953586254447902,-0.24480265938761184,0.0,0.0,-0.6,0.0,0.0022420883178710938,0.003734588623046875,0.008580446243286133,0
2.3255186080932617,-0.04737631976604462,-0.07615270465612411,-0.594209611415863,0.19408596814601353,-0.5364887010228722,-0.000718360712927189,0.020531885832704568,-0.24414409962608402,0.0,0.0,-0.6,0.0,0.001767873764038086,0.004178047180175781,0.00759577751159668,0
2.3358612060546875,-0.047142673283815384,-0.0754120722413063,-0.5942521691322327,0.19290893806767567,-0.536671965730051,-0.0033486196435218094,0.015268380544907666,-0.2432417215136381,0.0,0.0,-0.6,0.0,0.0028352737426757812,0.0043942928314208984,0.00837564468383789,0
2.3470938205718994,-0.047142673283815384,-0.0754120722413063,-0.5942521691322327,0.19290893806767567,-0.5368179786724246,-0.005182532837006676,0.011693437473815243,-0.24261005683492567,0.0,0.0,-0.6,0.0,0.0024874210357666016,0.00429844856262207,0.007990121841430664,0
2.3577466011047363,-0.04677842557430267,-0.0742240697145462,-0.5942363142967224,0.1907541575906165,-0.5369434865412127,-0.00558036628813818,0.009671356070096395,-0.2413598488809304,0.0,0.0,-0.6,0.0,0.0013720989227294922,0.0024743080139160156,0.0059125423431396484,0
2.367574691772461,-0.04677842557430267,-0.0742240697145462,-0.5942363142967224,0.1907541575906165,-0.5370440303206695,-0.005875374397531448,0.008303703772035514,-0.24048470331313335,0.0,0.0,-0.6,0.0,0.001562356948852539,0.002713441848754883,0.005858659744262695,0
2.3760011196136475,-0.046596478670835495,-0.07336996495723724,-0.5941898226737976,0.1891264819700559,-0.5371446646104635,-0.006536633279296593,0.007183006215612899,-0.23926172305796553,0.0,0.0,-0.6,0.0,0.0027327537536621094,0.004187345504760742,0.007220268249511719,0
2.3862464427948,-0.046596478670835495,-0.07336996495723724,-0.5941898226737976,0.1891264819700559,-0.5372249900723526,-0.007007017254706222,0.0064287707842570095,-0.23840563687934768,0.0,0.0,-0.6,0.0,0.0016944408416748047,0.004086017608642578,0.00772547721862793,0
2.396692991256714,-0.04652486741542816,-0.07290922850370407,-0.5941266417503357,0.18832483174774364,-0.5373671445922021,-0.009064314278079542,0.003560605917006067,-0.23750575772094815,0.0,0.0,-0.6,0.0,0.0027108192443847656,0.004032611846923828,0.008469343185424805,0
2.4072275161743164,-0.04652486741542816,-0.07290922850370407,-0.5941266417503357,0.18832483174774364,-0.5374803711164091,-0.010497083634914504,0.0016169047628916443,-0.2368758423100682,0.0,0.0,-0.6,0.0,0.0017168521881103516,0.0028848648071289062,0.006402254104614258,0
