time,x,y,z,yaw,throttle,roll_rate,pitch_rate,yaw_rate,x_ref,y_ref,z_ref,yaw_ref,pred_time,nr_time,ctrl_callback_time,metadata
3.0994415283203125e-06,-0.041198600083589554,-0.17029891908168793,-0.23834136128425598,-0.03890947602867928,-0.5405236079946357,0.10021837951936197,-0.013036112370391,0.014591053510752796,0.0,0.0,-0.6,0.0,0.00948643684387207,0.010846614837646484,0.014074325561523438,Hardware
0.018675804138183594,-0.041198600083589554,-0.17029891908168793,-0.23834136128425598,-0.03890947602867928,-0.5494731340466122,0.16980602045967869,-0.022443447001692967,0.024804790968280335,0.0,0.0,-0.6,0.0,0.0017066001892089844,0.002969980239868164,0.00850987434387207,Nonlinear
0.027044057846069336,-0.041198600083589554,-0.17029891908168793,-0.23834136128425598,-0.03890947602867928,-0.5565734778377749,0.21662850702498113,-0.028824651600619505,0.031954407188553115,0.0,0.0,-0.6,0.0,0.0020079612731933594,0.0032367706298828125,0.0069561004638671875,2x Speed
0.03739762306213379,-0.041198063641786575,-0.170291930437088,-0.23835539817810059,-0.03892154248081884,-0.5622752698846712,0.2474517184539569,-0.032035271188100935,0.03696366346229792,0.0,0.0,-0.6,0.0,0.0014445781707763672,0.0026428699493408203,0.0052416324615478516,0OrderHold
0.04404759407043457,-0.041198063641786575,-0.170291930437088,-0.23835539817810059,-0.03892154248081884,-0.566845077782127,0.2668817490654598,-0.03385533243996585,0.040470142853919706,0.0,0.0,-0.6,0.0,0.0009622573852539062,0.0017995834350585938,0.00399470329284668,QuatYawError
0.04995393753051758,-0.04120565578341484,-0.17029280960559845,-0.23836003243923187,-0.038923417065423724,-0.5704486962758325,0.2777935724153065,-0.035222693688433684,0.04292538139727949,0.0,0.0,-0.6,0.0,0.0012254714965820312,0.002048015594482422,0.004714250564575195,NoPyJoules
0.06088376045227051,-0.04120894894003868,-0.1702873408794403,-0.23837512731552124,-0.03892578926259401,-0.5733652570685378,0.28484157111182523,-0.035508811720937776,0.04464493795156668,0.0,0.0,-0.6,0.0,0.0017495155334472656,0.0028433799743652344,0.005890607833862305,0
0.07078862190246582,-0.04121209681034088,-0.17029601335525513,-0.23838186264038086,-0.03886166565423181,-0.5757200524721582,0.28822093779200764,-0.03531390979455354,0.04582458118643243,0.0,0.0,-0.6,0.0,0.0017309188842773438,0.003131866455078125,0.007035017013549805,0
0.0825645923614502,-0.04122040420770645,-0.17030805349349976,-0.23839876055717468,-0.03879269871072218,-0.5775579736031822,0.2896996709849478,-0.03551392075143464,0.04662446884702341,0.0,0.0,-0.6,0.0,0.0018231868743896484,0.0029985904693603516,0.006106853485107422,0
0.09088850021362305,-0.04122040420770645,-0.17030805349349976,-0.23839876055717468,-0.03879269871072218,-0.5790189851117179,0.28992668808098077,-0.035479624622983895,0.04718439020943665,0.0,0.0,-0.6,0.0,0.0019519329071044922,0.002990245819091797,0.0064160823822021484,0
0.10048723220825195,-0.041238125413656235,-0.17035691440105438,-0.23849011957645416,-0.03848545933691389,-0.5801028646390062,0.2908656241359988,-0.03316319622362911,0.04746112039794809,0.0,0.0,-0.6,0.0,0.0021500587463378906,0.0032269954681396484,0.006253242492675781,0
0.11131119728088379,-0.04124514013528824,-0.17037737369537354,-0.23854227364063263,-0.038248523311560124,-0.5809821470898192,0.2904525887893225,-0.03367336726202088,0.0475659805203986,0.0,0.0,-0.6,0.0,0.001272439956665039,0.0022203922271728516,0.005106449127197266,0
0.12111186981201172,-0.041236620396375656,-0.17041462659835815,-0.23859333992004395,-0.038181208858069006,-0.5816457758343379,0.28903921461503046,-0.03353224534241043,0.04761413968605489,0.0,0.0,-0.6,0.0,0.001627206802368164,0.0027260780334472656,0.006051540374755859,0
0.13129091262817383,-0.041241586208343506,-0.17043685913085938,-0.2386404126882553,-0.03826463515044038,-0.5821919300841288,0.28875579603239193,-0.030833073633559985,0.04767913596165356,0.0,0.0,-0.6,0.0,0.0017778873443603516,0.002892732620239258,0.006136417388916016,0
0.1409623622894287,-0.04123827442526817,-0.1704748272895813,-0.2386908382177353,-0.038321861091973206,-0.5825880100471428,0.28935081874992163,-0.028194777281570802,0.047746093082647434,0.0,0.0,-0.6,0.0,0.001220703125,0.0021016597747802734,0.004815816879272461,0
0.14955496788024902,-0.041190214455127716,-0.1704668402671814,-0.2387845367193222,-0.038166252863147135,-0.5828576660445107,0.2872469660609618,-0.024668397142016456,0.04773460998153338,0.0,0.0,-0.6,0.0,0.0013463497161865234,0.002219676971435547,0.004906415939331055,0
0.15995311737060547,-0.04112247750163078,-0.17042015492916107,-0.23894676566123962,-0.03794830382705244,-0.5829230343489021,0.2860257732553923,-0.022276195765257505,0.04764484092221812,0.0,0.0,-0.6,0.0,0.0013575553894042969,0.0022742748260498047,0.005731821060180664,0
0.17067193984985352,-0.04098891839385033,-0.17021746933460236,-0.23937645554542542,-0.03767862757363974,-0.5828809342018141,0.2824888809403802,-0.019331930251155066,0.04748087398566761,0.0,0.0,-0.6,0.0,0.0009233951568603516,0.0017538070678710938,0.004023075103759766,0
0.1812152862548828,-0.04098891839385033,-0.17021746933460236,-0.23937645554542542,-0.03767862757363974,-0.5828361909308867,0.2800661054020777,-0.0173123174610741,0.047366097130082344,0.0,0.0,-0.6,0.0,0.0011532306671142578,0.002075672149658203,0.0045392513275146484,0
0.19041705131530762,-0.04084489494562149,-0.16978630423545837,-0.24008874595165253,-0.03733907398504206,-0.582418658900368,0.27037845607485783,-0.015506158118869979,0.04715842073544844,0.0,0.0,-0.6,0.0,0.0009114742279052734,0.0016837120056152344,0.003933429718017578,0
0.19977760314941406,-0.04084489494562149,-0.16978630423545837,-0.24008874595165253,-0.03733907398504206,-0.5820584325502356,0.2638866911474608,-0.01430153008880415,0.04701304725920457,0.0,0.0,-0.6,0.0,0.0009922981262207031,0.001802682876586914,0.004148721694946289,0
0.21032333374023438,-0.04082081466913223,-0.16951754689216614,-0.24065391719341278,-0.036929277499551195,-0.5814872026944398,0.253484441137764,-0.015274003177807718,0.046757612143774704,0.0,0.0,-0.6,0.0,0.002036571502685547,0.0031538009643554688,0.006578207015991211,0
0.2202150821685791,-0.040822699666023254,-0.16922596096992493,-0.2413676530122757,-0.03633838154853188,-0.5807499446483222,0.24051726850507088,-0.014969188205047945,0.04635722158134215,0.0,0.0,-0.6,0.0,0.0018451213836669922,0.0031633377075195312,0.0062944889068603516,0
0.23037028312683105,-0.040767885744571686,-0.16893360018730164,-0.24224446713924408,-0.035641250066377854,-0.5798433334082627,0.22574893194864631,-0.010293783255725632,0.04581552388183174,0.0,0.0,-0.6,0.0,0.0015900135040283203,0.0027937889099121094,0.005849599838256836,0
0.2407081127166748,-0.04067414626479149,-0.1686122864484787,-0.24327410757541656,-0.03486375695035696,-0.5788324026009997,0.20848653664149414,-0.005648416717507703,0.04514477557366675,0.0,0.0,-0.6,0.0,0.0012865066528320312,0.0023040771484375,0.0054090023040771484,0
0.24979805946350098,-0.04060919210314751,-0.16827410459518433,-0.24447859823703766,-0.03396293289839928,-0.5776384867012473,0.19215227241966906,-0.0011680611233873756,0.044337442738467264,0.0,0.0,-0.6,0.0,0.0011570453643798828,0.002024412155151367,0.00421905517578125,0
0.2601602077484131,-0.04060695692896843,-0.16793622076511383,-0.24588920176029205,-0.03289078838251985,-0.576256533550071,0.1747072947121719,0.0020922163579029387,0.043370255560372155,0.0,0.0,-0.6,0.0,0.001306295394897461,0.0025162696838378906,0.005977630615234375,0
0.2700073719024658,-0.040629614144563675,-0.16755548119544983,-0.24743840098381042,-0.03148638958265558,-0.5750152558161704,0.1550748439443624,0.007743128229073968,0.04216657498575546,0.0,0.0,-0.6,0.0,0.0016510486602783203,0.0028433799743652344,0.0062236785888671875,0
0.2811722755432129,-0.040626998990774155,-0.16714802384376526,-0.24905109405517578,-0.030074521332629223,-0.5737821174177403,0.13371725254213404,0.01543217862963886,0.04079454798976615,0.0,0.0,-0.6,0.0,0.0017087459564208984,0.0027382373809814453,0.005776166915893555,0
0.28974366188049316,-0.04062279686331749,-0.1667528599500656,-0.25083276629447937,-0.028527303217098145,-0.5723259760572671,0.1128623352420669,0.022593589034900267,0.03925392229924697,0.0,0.0,-0.6,0.0,0.0014045238494873047,0.002524852752685547,0.0062448978424072266,0
0.300248384475708,-0.040644947439432144,-0.16638214886188507,-0.25281500816345215,-0.02685979055983533,-0.5707387007546371,0.09109292457963108,0.027702448942794736,0.037550167069411354,0.0,0.0,-0.6,0.0,0.0017173290252685547,0.00289154052734375,0.005663394927978516,0
0.31032538414001465,-0.040837060660123825,-0.1655317097902298,-0.2572830617427826,-0.023243906943002882,-0.568841680231144,0.055472602391324594,0.02784179597002002,0.035001582052211044,0.0,0.0,-0.6,0.0,0.0016224384307861328,0.0028460025787353516,0.005854129791259766,0
0.3200705051422119,-0.040837060660123825,-0.1655317097902298,-0.2572830617427826,-0.023243906943002882,-0.5672499889303285,0.03194159426819915,0.02770584590949126,0.03321757254017482,0.0,0.0,-0.6,0.0,0.0012078285217285156,0.0023670196533203125,0.0057713985443115234,0
0.3312695026397705,-0.040929004549980164,-0.16446875035762787,-0.2621604800224304,-0.019384462053657573,-0.565420295167086,0.004189352348170854,0.028098287638663868,0.03052147404824549,0.0,0.0,-0.6,0.0,0.00199127197265625,0.0032074451446533203,0.006076335906982422,0
0.34113216400146484,-0.04112658277153969,-0.1639975905418396,-0.2648630738258362,-0.017199147619397698,-0.5635503109366731,-0.02200733621857567,0.02120980561546093,0.02781471219104399,0.0,0.0,-0.6,0.0,0.0014996528625488281,0.0024404525756835938,0.00559544563293457,0
0.3502197265625,-0.04112658277153969,-0.1639975905418396,-0.2648630738258362,-0.017199147619397698,-0.5620217152751622,-0.03916458843195402,0.016253859079310106,0.025919978891006005,0.0,0.0,-0.6,0.0,0.0012712478637695312,0.002118349075317383,0.0048291683197021484,0
0.35991907119750977,-0.0415835939347744,-0.16279222071170807,-0.27060532569885254,-0.012666471979387455,-0.5602401619977161,-0.06382467404734413,0.01620904339465373,0.02289391221597359,0.0,0.0,-0.6,0.0,0.002219676971435547,0.0033087730407714844,0.0057065486907958984,0
0.37051916122436523,-0.041823018342256546,-0.16222238540649414,-0.2736826539039612,-0.010201302103107364,-0.5584190562825343,-0.08230410325438833,0.0144714808431637,0.019851226839847178,0.0,0.0,-0.6,0.0,0.0013120174407958984,0.002289295196533203,0.005579948425292969,0
0.38150882720947266,-0.042100660502910614,-0.16160805523395538,-0.2769133150577545,-0.007641856631229683,-0.5566499047891483,-0.10107669210709447,0.014189347624282473,0.016761555024603223,0.0,0.0,-0.6,0.0,0.0017344951629638672,0.002847433090209961,0.006272792816162109,0
0.3915722370147705,-0.04230460897088051,-0.16092699766159058,-0.28023648262023926,-0.0049742580729145655,-0.5550517382860053,-0.11576812065556025,0.017875245002694613,0.013598435294566323,0.0,0.0,-0.6,0.0,0.0017058849334716797,0.0028705596923828125,0.005973339080810547,0
0.40041637420654297,-0.04230460897088051,-0.16092699766159058,-0.28023648262023926,-0.0049742580729145655,-0.5537663116767597,-0.12527536070507825,0.020146500480392203,0.011384251483538721,0.0,0.0,-0.6,0.0,0.0014300346374511719,0.0025832653045654297,0.005609989166259766,0
0.41098690032958984,-0.0426999107003212,-0.1594158262014389,-0.2871648669242859,0.0003304435577249227,-0.5520676666925917,-0.1380510807709854,0.017573755727661438,0.00784505970432996,0.0,0.0,-0.6,0.0,0.0017726421356201172,0.0028820037841796875,0.005890369415283203,0
0.42072105407714844,-0.04289823770523071,-0.1585724651813507,-0.2908506989479065,0.003072968877964907,-0.5503763978718096,-0.14885379609239988,0.018139081364081912,0.004339178463794597,0.0,0.0,-0.6,0.0,0.0017628669738769531,0.0030333995819091797,0.006221771240234375,0
0.4309971332550049,-0.04301990196108818,-0.1576925367116928,-0.2946465015411377,0.00587220291671512,-0.5487942760576635,-0.15694614426873119,0.019760112766278513,0.0008353488308877536,0.0,0.0,-0.6,0.0,0.0012488365173339844,0.0025177001953125,0.005474090576171875,0
0.44150733947753906,-0.04318723455071449,-0.15678921341896057,-0.2985260486602783,0.008702145083109248,-0.5472558920897637,-0.1634946505697928,0.015534056005354669,-0.0026785602245448367,0.0,0.0,-0.6,0.0,0.001649618148803711,0.0026404857635498047,0.006096839904785156,0
0.4506056308746338,-0.04337819293141365,-0.15580496191978455,-0.3024933934211731,0.011600967861020687,-0.5458432458998381,-0.17018485978756734,0.015462152333924133,-0.006225355105064442,0.0,0.0,-0.6,0.0,0.0009686946868896484,0.0017595291137695312,0.004481792449951172,0
0.46084094047546387,-0.0435083732008934,-0.15481996536254883,-0.30651935935020447,0.014533004406088191,-0.5445018775691823,-0.17267473336865846,0.015433758930243053,-0.009807625225828481,0.0,0.0,-0.6,0.0,0.001402139663696289,0.0023043155670166016,0.004868984222412109,0
0.46973609924316406,-0.043646086007356644,-0.15379585325717926,-0.31061309576034546,0.017496112756183547,-0.5432802770749684,-0.17805109129700197,0.015484203229430261,-0.013426379941649072,0.0,0.0,-0.6,0.0,0.0015001296997070312,0.002458810806274414,0.005376577377319336,0
0.4814019203186035,-0.04376707971096039,-0.1527363657951355,-0.31478849053382874,0.020417098493248208,-0.5419753929769455,-0.18104373447849453,0.01633010113058298,-0.017054877894121946,0.0,0.0,-0.6,0.0,0.0017390251159667969,0.0028464794158935547,0.006202220916748047,0
0.49217820167541504,-0.04391452297568321,-0.1516769528388977,-0.31906771659851074,0.023442453347549352,-0.5407057504513997,-0.18372383911985835,0.01704192148972296,-0.020729334531217475,0.0,0.0,-0.6,0.0,0.0017518997192382812,0.0027887821197509766,0.006870746612548828,0
0.5003824234008789,-0.04391452297568321,-0.1516769528388977,-0.31906771659851074,0.023442453347549352,-0.5396924504938239,-0.18524024501270955,0.017327358708809387,-0.023301454177184013,0.0,0.0,-0.6,0.0,0.0016024112701416016,0.0027670860290527344,0.005933046340942383,0
0.5102543830871582,-0.04430444538593292,-0.14952439069747925,-0.3277859389781952,0.029685002227864698,-0.5384427230736357,-0.18680309146441418,0.017253128862626782,-0.027442893759477522,0.0,0.0,-0.6,0.0,0.0016934871673583984,0.0029273033142089844,0.005988359451293945,0
0.5207393169403076,-0.04449120908975601,-0.14844617247581482,-0.3321830928325653,0.03274930422057618,-0.5373061338096295,-0.18528862633804832,0.018501754290339588,-0.03149101471434804,0.0,0.0,-0.6,0.0,0.0013380050659179688,0.002500295639038086,0.005358695983886719,0
0.5306978225708008,-0.04470007121562958,-0.14738309383392334,-0.33655765652656555,0.035719471820933435,-0.5362910100361382,-0.1876148148705633,0.017153429778227397,-0.03543851223289657,0.0,0.0,-0.6,0.0,0.0022025108337402344,0.003378629684448242,0.006369352340698242,0
0.5403916835784912,-0.04494659975171089,-0.14622077345848083,-0.34094056487083435,0.03877897044175893,-0.535328804841513,-0.19642634871663148,0.01777432183012652,-0.03934907247868498,0.0,0.0,-0.6,0.0,0.0020949840545654297,0.003077983856201172,0.007565975189208984,0
0.5512018203735352,-0.0451468825340271,-0.1449744999408722,-0.3454039394855499,0.04176615936269406,-0.5342718375989549,-0.20566002797219635,0.02234787863759055,-0.04320666049608925,0.0,0.0,-0.6,0.0,0.0013403892517089844,0.0025284290313720703,0.0051119327545166016,0
0.5595917701721191,-0.04532158002257347,-0.14372554421424866,-0.34994950890541077,0.044795193692024664,-0.5331462250107798,-0.21000492986182112,0.02857700533425378,-0.04704285998177121,0.0,0.0,-0.6,0.0,0.0009622573852539062,0.0027048587799072266,0.005120992660522461,0
0.5710453987121582,-0.04547286033630371,-0.14245933294296265,-0.35452404618263245,0.047702839740325326,-0.5321864207896045,-0.2113577809678588,0.03517382245437824,-0.05081856688986462,0.0,0.0,-0.6,0.0,0.001585245132446289,0.0027163028717041016,0.0057430267333984375,0
0.5812320709228516,-0.045613594353199005,-0.14118234813213348,-0.35901451110839844,0.05066015874277012,-0.5314616331511659,-0.20823425150125818,0.04024583387278642,-0.05457055635144679,0.0,0.0,-0.6,0.0,0.0021181106567382812,0.0033164024353027344,0.006867885589599609,0
0.5901892185211182,-0.045613594353199005,-0.14118234813213348,-0.35901451110839844,0.05066015874277012,-0.5308777569178565,-0.20607911741263615,0.043577051997599925,-0.05719694897455348,0.0,0.0,-0.6,0.0,0.001605987548828125,0.0025954246520996094,0.005795001983642578,0
0.6003861427307129,-0.046020135283470154,-0.13854201138019562,-0.3679056465625763,0.0565299801986507,-0.5301902927187613,-0.2022831622210513,0.04456382368869716,-0.061236606856680906,0.0,0.0,-0.6,0.0,0.0017826557159423828,0.002954721450805664,0.005860328674316406,0
0.6105713844299316,-0.04619675874710083,-0.1371021717786789,-0.37240472435951233,0.05946293628510063,-0.5294752073129333,-0.198739491641836,0.04747149941788713,-0.06516422590658544,0.0,0.0,-0.6,0.0,0.001592874526977539,0.0028073787689208984,0.0059587955474853516,0
0.6205065250396729,-0.04634782671928406,-0.13566887378692627,-0.37694481015205383,0.06233466961676696,-0.528713452966229,-0.19110643803484995,0.05094166610054939,-0.0689904592408969,0.0,0.0,-0.6,0.0,0.0015361309051513672,0.002548694610595703,0.0057315826416015625,0
0.631721019744873,-0.04653012380003929,-0.1342742145061493,-0.38148123025894165,0.06518086102301998,-0.5280800509465801,-0.18387152145171526,0.05021151322928259,-0.07273614435225982,0.0,0.0,-0.6,0.0,0.002119779586791992,0.003392457962036133,0.006435394287109375,0
0.6418282985687256,-0.04676663875579834,-0.13284839689731598,-0.3859844207763672,0.06799722433754431,-0.5275936714623309,-0.18293585580733224,0.049465336717329667,-0.0764142601731605,0.0,0.0,-0.6,0.0,0.001786947250366211,0.0027971267700195312,0.006035566329956055,0
0.6516463756561279,-0.04698905721306801,-0.13136374950408936,-0.3904637098312378,0.0708227484186966,-0.5270579878839389,-0.1812168325839042,0.052054240587873626,-0.08004851277822309,0.0,0.0,-0.6,0.0,0.0015625953674316406,0.002611398696899414,0.005791664123535156,0
0.6602761745452881,-0.04719511792063713,-0.12985850870609283,-0.39498722553253174,0.07353909085514197,-0.5263234315305473,-0.17506871276578434,0.05556359342112397,-0.0836111180154432,0.0,0.0,-0.6,0.0,0.0011444091796875,0.0020368099212646484,0.004234790802001953,0
0.6696822643280029,-0.047402095049619675,-0.12832726538181305,-0.39952602982521057,0.07626714394054289,-0.5257320804636328,-0.16858582592120175,0.059005781318956285,-0.0871279615885164,0.0,0.0,-0.6,0.0,0.0010137557983398438,0.0027680397033691406,0.0053327083587646484,0
0.681239128112793,-0.047623954713344574,-0.12679752707481384,-0.4040302336215973,0.07905948583791743,-0.5252398299048137,-0.15809764278577404,0.0649610632961441,-0.0906368803011831,0.0,0.0,-0.6,0.0,0.0014088153839111328,0.0029327869415283203,0.0064008235931396484,0
0.6909852027893066,-0.047855962067842484,-0.12523099780082703,-0.4085138738155365,0.08181435173232926,-0.5247255115653736,-0.14378944283486408,0.07143476721609188,-0.09412619811045421,0.0,0.0,-0.6,0.0,0.0017850399017333984,0.0029609203338623047,0.006201505661010742,0
0.7006552219390869,-0.04810035973787308,-0.12362917512655258,-0.41302061080932617,0.08453316310991842,-0.5242121389012988,-0.13000543698165604,0.07536201178194979,-0.09758827484353388,0.0,0.0,-0.6,0.0,0.0019505023956298828,0.003106832504272461,0.006494045257568359,0
0.7108333110809326,-0.048321060836315155,-0.12201125919818878,-0.41755610704421997,0.08724377386491758,-0.5237098959265196,-0.11731354206839012,0.07936027176384929,-0.10102820758982034,0.0,0.0,-0.6,0.0,0.0017714500427246094,0.0028405189514160156,0.0059053897857666016,0
0.7210433483123779,-0.04852628335356712,-0.12037959694862366,-0.4220808148384094,0.08987164762392517,-0.5231527978187434,-0.10561977810986874,0.07983822638107431,-0.10442161317184279,0.0,0.0,-0.6,0.0,0.0015246868133544922,0.0026497840881347656,0.005503416061401367,0
0.7304894924163818,-0.04876633360981941,-0.11875437945127487,-0.42659732699394226,0.09253177103668114,-0.5226554936636452,-0.1008871595987295,0.0754124866559663,-0.10779454335904785,0.0,0.0,-0.6,0.0,0.0014407634735107422,0.002740144729614258,0.006571054458618164,0
0.741539478302002,-0.049028027802705765,-0.11712212860584259,-0.4310958981513977,0.09521109315461196,-0.5221522638839139,-0.09911586543589875,0.07097003683239027,-0.11116034028430961,0.0,0.0,-0.6,0.0,0.0017075538635253906,0.0030126571655273438,0.006155729293823242,0
0.7512221336364746,-0.049248166382312775,-0.11550787091255188,-0.4355836808681488,0.09780241884270659,-0.5216047777688102,-0.09699670205480151,0.07011660955919795,-0.11448814526502837,0.0,0.0,-0.6,0.0,0.0014650821685791016,0.002398967742919922,0.005225658416748047,0
0.7598071098327637,-0.04940861836075783,-0.1139477863907814,-0.44009700417518616,0.10034650013516143,-0.5210088188011633,-0.09503877069867549,0.07253086084562506,-0.1177716392362078,0.0,0.0,-0.6,0.0,0.0011899471282958984,0.002161264419555664,0.0046274662017822266,0
0.7698240280151367,-0.04959392547607422,-0.11235731840133667,-0.4446261525154114,0.10289347177145611,-0.5204400638180754,-0.0939392605144989,0.07476078321845678,-0.12102519937963824,0.0,0.0,-0.6,0.0,0.0022573471069335938,0.0033483505249023438,0.0063323974609375,0
0.7808914184570312,-0.04980574920773506,-0.11072369664907455,-0.4491194784641266,0.10540425919804981,-0.5200186185089846,-0.09025256692342358,0.07586666050546716,-0.12424423676501781,0.0,0.0,-0.6,0.0,0.001598358154296875,0.002922534942626953,0.0057294368743896484,0
0.7911121845245361,-0.05003798007965088,-0.10914291441440582,-0.4535759687423706,0.10782637696725304,-0.5195669473411757,-0.07909434817638139,0.07372755576123688,-0.12740585709822919,0.0,0.0,-0.6,0.0,0.0017673969268798828,0.0029311180114746094,0.006012916564941406,0
0.8004453182220459,-0.0502794086933136,-0.10759832710027695,-0.4580784738063812,0.11030873382849975,-0.5190391483554716,-0.06998820814112813,0.07005891560298669,-0.1305498751544447,0.0,0.0,-0.6,0.0,0.0017366409301757812,0.002966642379760742,0.006661891937255859,0
0.8111860752105713,-0.05049379914999008,-0.10602710396051407,-0.4626176357269287,0.11279705842244343,-0.518471638719414,-0.0608955590227125,0.06765701825759028,-0.13368380951652445,0.0,0.0,-0.6,0.0,0.0015399456024169922,0.0026595592498779297,0.005933046340942383,0
0.8208436965942383,-0.050640664994716644,-0.10441672056913376,-0.46712246537208557,0.11515869193494838,-0.5180684706270725,-0.053382674151155635,0.06617263118386277,-0.13676317613716968,0.0,0.0,-0.6,0.0,0.001821279525756836,0.0028765201568603516,0.005989551544189453,0
0.831531286239624,-0.05079662427306175,-0.10287760198116302,-0.4716137647628784,0.11751810315356535,-0.5176166226585407,-0.04326918891334422,0.06488569999226883,-0.13980351197860275,0.0,0.0,-0.6,0.0,0.0013878345489501953,0.0024805068969726562,0.0055086612701416016,0
0.8409323692321777,-0.05100475251674652,-0.10132799297571182,-0.47609618306159973,0.11982841249977426,-0.5171013875646578,-0.035482957664913696,0.06446276310113246,-0.14279811307243429,0.0,0.0,-0.6,0.0,0.004645109176635742,0.005759716033935547,0.00972890853881836,0
0.8580331802368164,-0.05135578289628029,-0.09829059988260269,-0.48504438996315,0.12445698334982472,-0.516452830815701,-0.02761544865842413,0.06342941566366736,-0.14663004790688444,0.0,0.0,-0.6,0.0,0.0027997493743896484,0.005883693695068359,0.013296127319335938,0
0.8770346641540527,-0.05135578289628029,-0.09829059988260269,-0.48504438996315,0.12445698334982472,-0.5159276857191569,-0.02234660207276206,0.06263085430474025,-0.1493124022910007,0.0,0.0,-0.6,0.0,0.0035626888275146484,0.0073206424713134766,0.015462875366210938,0
0.8983454704284668,-0.052001502364873886,-0.0926104187965393,-0.5031026005744934,0.133313971501651,-0.5152076872474878,-0.010700251343909992,0.05633190016423048,-0.1545114209168144,0.0,0.0,-0.6,0.0,0.0032434463500976562,0.0070343017578125,0.015146255493164062,0
0.9187154769897461,-0.052001502364873886,-0.0926104187965393,-0.5031026005744934,0.133313971501651,-0.5146225090280617,-0.002870802478306341,0.05196229367943983,-0.15815073395488558,0.0,0.0,-0.6,0.0,0.0027489662170410156,0.006388425827026367,0.01352381706237793,0
0.9385883808135986,-0.052649810910224915,-0.08723526448011398,-0.5210632085800171,0.14177973191259632,-0.5138051038559416,0.011133633071215194,0.04391704903553793,-0.1638729132356378,0.0,0.0,-0.6,0.0,0.003938198089599609,0.007523775100708008,0.015217065811157227,0
0.9565551280975342,-0.052649810910224915,-0.08723526448011398,-0.5210632085800171,0.14177973191259632,-0.5131407543861176,0.02055593040231421,0.03836025394464916,-0.16787843873216607,0.0,0.0,-0.6,0.0,0.0036046504974365234,0.006645679473876953,0.014529943466186523,0
0.9758391380310059,-0.05333337187767029,-0.08226779848337173,-0.5388068556785583,0.14991857907585915,-0.5122717620631531,0.030168783071872506,0.028742908974377097,-0.1737343742659576,0.0,0.0,-0.6,0.0,0.003940105438232422,0.007006406784057617,0.016265153884887695,0
0.99593186378479,-0.05333337187767029,-0.08226779848337173,-0.5388068556785583,0.14991857907585915,-0.5115704502380051,0.03660550233867486,0.022096776633923232,-0.1778335291396134,0.0,0.0,-0.6,0.0,0.003798246383666992,0.007043600082397461,0.016379117965698242,0
1.0171444416046143,-0.05404370650649071,-0.07770523428916931,-0.5562953948974609,0.15781756785762177,-0.510740737580314,0.05612972407044885,0.0075475724895585385,-0.18366505834433172,0.0,0.0,-0.6,0.0,0.005202531814575195,0.007911443710327148,0.016452789306640625,0
1.0368449687957764,-0.05404370650649071,-0.07770523428916931,-0.5562953948974609,0.15781756785762177,-0.5100664383460408,0.06934235048947761,-0.002413430845421987,-0.1877471287876363,0.0,0.0,-0.6,0.0,0.006757497787475586,0.009781599044799805,0.016985416412353516,0
1.0607545375823975,-0.05476756393909454,-0.07349319010972977,-0.5736050605773926,0.16554680089874763,-0.5092543085051443,0.07572456054903537,-0.013029783941134227,-0.19350304048837003,0.0,0.0,-0.6,0.0,0.0036163330078125,0.006101369857788086,0.013877153396606445,0
1.079547643661499,-0.055138107389211655,-0.07168171554803848,-0.5821157097816467,0.16931369737432925,-0.5083100245251326,0.08703031736511234,-0.02429515139033565,-0.19894476485722704,0.0,0.0,-0.6,0.0,0.0040111541748046875,0.0070378780364990234,0.014810562133789062,0
1.1006920337677002,-0.05566355213522911,-0.06911057233810425,-0.5946359634399414,0.17474937594004153,-0.5076221757367613,0.10320004740911076,-0.03980386372486413,-0.20479235137756865,0.0,0.0,-0.6,0.0,0.003979921340942383,0.007916688919067383,0.015634775161743164,0
1.119847059249878,-0.05566355213522911,-0.06911057233810425,-0.5946359634399414,0.17474937594004153,-0.507072586719404,0.11420153771433754,-0.05042395450883412,-0.20888566194180952,0.0,0.0,-0.6,0.0,0.0040819644927978516,0.007447242736816406,0.01483011245727539,0
1.141036033630371,-0.0563787966966629,-0.06611716002225876,-0.6111495494842529,0.18143896451756503,-0.5065290082389985,0.12358310465160612,-0.05762391277486999,-0.2142595750533482,0.0,0.0,-0.6,0.0,0.003567934036254883,0.006932258605957031,0.015181303024291992,0
1.161074161529541,-0.0563787966966629,-0.06611716002225876,-0.6111495494842529,0.18143896451756503,-0.5060976417141274,0.12997096870856634,-0.06260523796992139,-0.21802131423142684,0.0,0.0,-0.6,0.0,0.003147602081298828,0.005070924758911133,0.013478994369506836,0
1.180830955505371,-0.056993626058101654,-0.06415938585996628,-0.6232169270515442,0.18609242159585201,-0.505465670746101,0.12959494101628355,-0.06267306215863787,-0.22239957806043892,0.0,0.0,-0.6,0.0,0.003272533416748047,0.005513906478881836,0.013452768325805664,0
1.2025389671325684,-0.05735621973872185,-0.06301582604646683,-0.6311207413673401,0.18906347393890227,-0.5050694142044552,0.12773125735556556,-0.06607100858559661,-0.2265785073693914,0.0,0.0,-0.6,0.0,0.003297090530395508,0.007237434387207031,0.015227794647216797,0
1.22432279586792,-0.058024097234010696,-0.06137849763035774,-0.6426447629928589,0.19305984280351915,-0.504770858308552,0.13425589097670396,-0.06956991695955606,-0.23100239620988922,0.0,0.0,-0.6,0.0,0.0035135746002197266,0.007196187973022461,0.013719797134399414,0
1.2419147491455078,-0.058024097234010696,-0.06137849763035774,-0.6426447629928589,0.19305984280351915,-0.5045363977115022,0.13872346210089836,-0.07201235055592055,-0.23409911839823905,0.0,0.0,-0.6,0.0,0.0032689571380615234,0.007050991058349609,0.016041040420532227,0
1.2627789974212646,-0.05879625678062439,-0.05958417430520058,-0.6574341058731079,0.19826548548327824,-0.5044557365750003,0.12999274747639072,-0.07198983141005962,-0.23821893993499255,0.0,0.0,-0.6,0.0,0.0031576156616210938,0.0071065425872802734,0.014690399169921875,0
1.2833831310272217,-0.05879625678062439,-0.05958417430520058,-0.6574341058731079,0.19826548548327824,-0.5043838473814373,0.12405069223019922,-0.07201298878186836,-0.24110281501072123,0.0,0.0,-0.6,0.0,0.0018658638000488281,0.004942178726196289,0.010797977447509766,0
1.3002102375030518,-0.059650082141160965,-0.05814167857170105,-0.6714690327644348,0.2026499916767523,-0.5042916797641187,0.11739480828344136,-0.05974568662200474,-0.2447657173862833,0.0,0.0,-0.6,0.0,0.003253936767578125,0.007229328155517578,0.01591348648071289,0
1.3210771083831787,-0.059650082141160965,-0.05814167857170105,-0.6714690327644348,0.2026499916767523,-0.504198003395003,0.11283967239680305,-0.051415580482319805,-0.24732974904917787,0.0,0.0,-0.6,0.0,0.003216981887817383,0.007483482360839844,0.016000032424926758,0
1.3429396152496338,-0.06063523888587952,-0.0570240318775177,-0.6846990585327148,0.20637719405577418,-0.5041146900528801,0.10318046400379628,-0.05079460110409604,-0.2505222721053366,0.0,0.0,-0.6,0.0,0.0044116973876953125,0.007355690002441406,0.015481710433959961,0
1.36366868019104,-0.06063523888587952,-0.0570240318775177,-0.6846990585327148,0.20637719405577418,-0.5040390253998983,0.0966070678156448,-0.05040910642729442,-0.25275703824464874,0.0,0.0,-0.6,0.0,0.0036590099334716797,0.00638270378112793,0.01416325569152832,0
1.3845601081848145,-0.061509281396865845,-0.056051600724458694,-0.6972136497497559,0.20956999761318068,-0.5042806971113247,0.08299855874383504,-0.041040370916628925,-0.2555186758761941,0.0,0.0,-0.6,0.0,0.0037660598754882812,0.0061070919036865234,0.0142974853515625,0
1.4036414623260498,-0.061509281396865845,-0.056051600724458694,-0.6972136497497559,0.20956999761318068,-0.5044530560351254,0.07366061891992015,-0.034575588165612264,-0.25745182221827667,0.0,0.0,-0.6,0.0,0.0041582584381103516,0.007104396820068359,0.015171289443969727,0
1.4253427982330322,-0.06237261742353439,-0.055229365825653076,-0.7091366648674011,0.2121075474358473,-0.5046964252558014,0.0593279855292857,-0.02384701446825736,-0.2597566058412341,0.0,0.0,-0.6,0.0,0.003966331481933594,0.0072972774505615234,0.015392780303955078,0
1.4451067447662354,-0.06307438760995865,-0.054721567779779434,-0.717545747756958,0.21381573971875234,-0.504876745846364,0.0484389989291982,-0.018422011181447626,-0.2620105264833624,0.0,0.0,-0.6,0.0,0.0037386417388916016,0.006943225860595703,0.01311802864074707,0
1.4639825820922852,-0.06307438760995865,-0.054721567779779434,-0.717545747756958,0.21381573971875234,-0.5050087137404488,0.04097326522082449,-0.01466603208744904,-0.2635882709328842,0.0,0.0,-0.6,0.0,0.004133462905883789,0.007460117340087891,0.015718698501586914,0
1.4840285778045654,-0.06389350444078445,-0.053983282297849655,-0.728121280670166,0.21581909806507252,-0.5052520765589624,0.02055643785330969,-0.00959767477480779,-0.2654439514274193,0.0,0.0,-0.6,0.0,0.004291057586669922,0.007276773452758789,0.01407480239868164,0
1.5037109851837158,-0.06389350444078445,-0.053983282297849655,-0.728121280670166,0.21581909806507252,-0.5054282014349625,0.006582247987683913,-0.0060698309176803866,-0.2667429277735944,0.0,0.0,-0.6,0.0,0.0037691593170166016,0.00703740119934082,0.014881134033203125,0
1.5245323181152344,-0.06466405093669891,-0.05319811776280403,-0.7380772233009338,0.21704875151112585,-0.5057524052216553,-0.005921078439146528,0.00240584559553661,-0.26811333125818687,0.0,0.0,-0.6,0.0,0.003103971481323242,0.006682872772216797,0.014126300811767578,0
1.5453071594238281,-0.06466405093669891,-0.05319811776280403,-0.7380772233009338,0.21704875151112585,-0.5059990972443013,-0.014508841322932089,0.008293774078942951,-0.26907261369740204,0.0,0.0,-0.6,0.0,0.0040493011474609375,0.0073659420013427734,0.016525983810424805,0
1.566767930984497,-0.06531859934329987,-0.05237332358956337,-0.747261106967926,0.21834828014757204,-0.5062662575812764,-0.022727231305404737,0.014033945107723001,-0.2702314346435198,0.0,0.0,-0.6,0.0,0.0030438899993896484,0.006009817123413086,0.014401674270629883,0
1.5875892639160156,-0.06531859934329987,-0.05237332358956337,-0.747261106967926,0.21834828014757204,-0.5064736433673458,-0.028375189990074014,0.01803188995752788,-0.27104260930580254,0.0,0.0,-0.6,0.0,0.0023467540740966797,0.005616426467895508,0.013187646865844727,0
1.60770583152771,-0.06590287387371063,-0.05147160589694977,-0.7557421326637268,0.21915994885023538,-0.5066337362471506,-0.0411353343910779,0.023477068986349898,-0.27191480733288703,0.0,0.0,-0.6,0.0,0.0034792423248291016,0.0069310665130615234,0.015168190002441406,0
1.626662015914917,-0.06590287387371063,-0.05147160589694977,-0.7557421326637268,0.21915994885023538,-0.5067546273194483,-0.049862291881156935,0.027234625782583115,-0.27252534595185857,0.0,0.0,-0.6,0.0,0.004327535629272461,0.007295846939086914,0.01613020896911621,0
1.6492338180541992,-0.06635529547929764,-0.05038400739431381,-0.7636361122131348,0.2195841034296508,-0.5070489017696501,-0.05359630509408255,0.02673017406099084,-0.27311178095241945,0.0,0.0,-0.6,0.0,0.004194021224975586,0.008270502090454102,0.016958236694335938,0
1.670602560043335,-0.06635529547929764,-0.05038400739431381,-0.7636361122131348,0.2195841034296508,-0.5072855890075275,-0.05617307151062116,0.0264647792683432,-0.27352228545281226,0.0,0.0,-0.6,0.0,0.0037305355072021484,0.0058100223541259766,0.013036251068115234,0
1.689803123474121,-0.06665053963661194,-0.04912564530968666,-0.7709364295005798,0.22004170140103696,-0.5076488732544249,-0.06464520928449977,0.02004151299576662,-0.27398123784235057,0.0,0.0,-0.6,0.0,0.0032224655151367188,0.005853891372680664,0.012700319290161133,0
1.707780122756958,-0.06665053963661194,-0.04912564530968666,-0.7709364295005798,0.22004170140103696,-0.507944040054518,-0.07045437996062912,0.01575132128994856,-0.2743025045150339,0.0,0.0,-0.6,0.0,0.00360870361328125,0.0069730281829833984,0.014299392700195312,0
1.7263076305389404,-0.06692256033420563,-0.04785563796758652,-0.7776165008544922,0.22028179529776995,-0.5081808668086367,-0.07183435420708462,0.02036918868308368,-0.27461742639719156,0.0,0.0,-0.6,0.0,0.004166841506958008,0.007733583450317383,0.014918327331542969,0
1.745898962020874,-0.06692256033420563,-0.04785563796758652,-0.7776165008544922,0.22028179529776995,-0.5083683049631655,-0.07278809495366056,0.023583678490268503,-0.2748378717146976,0.0,0.0,-0.6,0.0,0.0036008358001708984,0.006889820098876953,0.015533685684204102,0
1.7667222023010254,-0.06708920747041702,-0.04641670733690262,-0.7835568785667419,0.22025008237421087,-0.5088191559671361,-0.07561894196953817,0.019318711063211605,-0.2749802910906172,0.0,0.0,-0.6,0.0,0.0042781829833984375,0.00773167610168457,0.015114784240722656,0
1.7879359722137451,-0.06708920747041702,-0.04641670733690262,-0.7835568785667419,0.22025008237421087,-0.5091843058485385,-0.07756278146921132,0.01651684564615341,-0.2750799846537596,0.0,0.0,-0.6,0.0,0.003096342086791992,0.0067479610443115234,0.012592077255249023,0
1.8059325218200684,-0.06701550632715225,-0.04483592510223389,-0.789002001285553,0.22030923122360363,-0.5097010171343985,-0.07339751392755743,0.013211986430035867,-0.275171950966483,0.0,0.0,-0.6,0.0,0.0031745433807373047,0.007068157196044922,0.014255523681640625,0
1.8248436450958252,-0.06701550632715225,-0.04483592510223389,-0.789002001285553,0.22030923122360363,-0.5101165247697594,-0.07055124989828342,0.011087638996843913,-0.2752363273853894,0.0,0.0,-0.6,0.0,0.0025708675384521484,0.006612539291381836,0.012690305709838867,0
1.8443403244018555,-0.06696809828281403,-0.04321739077568054,-0.7938064932823181,0.21998535589981336,-0.510466482960304,-0.07306290263236277,0.01476097154067407,-0.27515993763220264,0.0,0.0,-0.6,0.0,0.003656625747680664,0.0074427127838134766,0.015767574310302734,0
1.8649091720581055,-0.06696809828281403,-0.04321739077568054,-0.7938064932823181,0.21998535589981336,-0.5107461320210384,-0.07476492017186961,0.01735544821781064,-0.27510646480497264,0.0,0.0,-0.6,0.0,0.003496885299682617,0.006528139114379883,0.013581514358520508,0
1.8816163539886475,-0.06678315252065659,-0.04150963947176933,-0.7979773283004761,0.2192116573250762,-0.5113260035518086,-0.0631263456426722,0.020978406383807238,-0.27477889686038925,0.0,0.0,-0.6,0.0,0.003246307373046875,0.006468296051025391,0.014178037643432617,0
1.9003009796142578,-0.06678315252065659,-0.04150963947176933,-0.7979773283004761,0.2192116573250762,-0.5117826395019905,-0.05514355994291549,0.023592846682672853,-0.2745495992991763,0.0,0.0,-0.6,0.0,0.0038344860076904297,0.006869316101074219,0.014451026916503906,0
1.9178385734558105,-0.06641679257154465,-0.039803646504879,-0.8015865087509155,0.21858383995320302,-0.5123457637871771,-0.043975594945856344,0.02369690484551713,-0.27415365949188036,0.0,0.0,-0.6,0.0,0.003677845001220703,0.006285429000854492,0.01299738883972168,0
1.9370582103729248,-0.06641679257154465,-0.039803646504879,-0.8015865087509155,0.21858383995320302,-0.5127920826359726,-0.03631591073938026,0.02390045146160279,-0.2738765016267677,0.0,0.0,-0.6,0.0,0.003739595413208008,0.0072329044342041016,0.014182329177856445,0
1.957704782485962,-0.06618521362543106,-0.03865210339426994,-0.8038291931152344,0.2177970899440513,-0.5131144627546561,-0.027116147803449536,0.02793899855514334,-0.2733874598677571,0.0,0.0,-0.6,0.0,0.003701448440551758,0.0068356990814208984,0.014543771743774414,0
1.9778716564178467,-0.06618521362543106,-0.03865210339426994,-0.8038291931152344,0.2177970899440513,-0.5133672190998704,-0.020817412373514615,0.030768879144818472,-0.27304513063644953,0.0,0.0,-0.6,0.0,0.0029664039611816406,0.004750967025756836,0.013536453247070312,0
1.9992854595184326,-0.06572549790143967,-0.03713677451014519,-0.8063583970069885,0.21644087214750576,-0.5139295941153367,-0.01410806132081555,0.033190523580071886,-0.2722969185008301,0.0,0.0,-0.6,0.0,0.002499103546142578,0.005609989166259766,0.013808965682983398,0
2.0206029415130615,-0.06531155109405518,-0.036100540310144424,-0.8078973293304443,0.21550428186341739,-0.5143405108469815,0.005606389793117075,0.03720352101143548,-0.2714219486493635,0.0,0.0,-0.6,0.0,0.0033049583435058594,0.006737947463989258,0.014950037002563477,0
2.040919542312622,-0.06531155109405518,-0.036100540310144424,-0.8078973293304443,0.21550428186341739,-0.5146588992684502,0.019095998797504753,0.040029105875494464,-0.2708094697533366,0.0,0.0,-0.6,0.0,0.0023207664489746094,0.006343841552734375,0.015236616134643555,0
2.06162428855896,-0.0647188127040863,-0.034806765615940094,-0.8095310926437378,0.21382445247849818,-0.5151143109019473,0.023445615436850864,0.04276331733469661,-0.26975079850677347,0.0,0.0,-0.6,0.0,0.0031588077545166016,0.006614208221435547,0.012655973434448242,0
2.0741665363311768,-0.0647188127040863,-0.034806765615940094,-0.8095310926437378,0.21382445247849818,-0.5154778798931101,0.02643941520912323,0.044722267897041146,-0.269009728634179,0.0,0.0,-0.6,0.0,0.0014407634735107422,0.0026743412017822266,0.005643129348754883,0
2.085484504699707,-0.06426844745874405,-0.03421888127923012,-0.8103150725364685,0.21274539664216918,-0.5157810442629088,0.03925559316470489,0.051300583971735474,-0.26808633378475244,0.0,0.0,-0.6,0.0,0.0024292469024658203,0.004170656204223633,0.00898122787475586,0
2.096801280975342,-0.06392829865217209,-0.033636681735515594,-0.8108945488929749,0.21171132733042627,-0.5161619717714511,0.049892094715919155,0.05390153556570255,-0.2670521813982376,0.0,0.0,-0.6,0.0,0.003156423568725586,0.004875659942626953,0.009640216827392578,0
2.1101624965667725,-0.06392829865217209,-0.033636681735515594,-0.8108945488929749,0.21171132733042627,-0.5164660752776075,0.0571638464976665,0.05574185087658378,-0.2663282747276769,0.0,0.0,-0.6,0.0,0.0015292167663574219,0.003654956817626953,0.009092092514038086,0
2.12312388420105,-0.06352600455284119,-0.03317497298121452,-0.8114533424377441,0.2106063150853755,-0.5166620049038274,0.06783377214731566,0.05544326000585939,-0.26540716046639057,0.0,0.0,-0.6,0.0,0.0029251575469970703,0.005123615264892578,0.011014223098754883,0
2.137087345123291,-0.06307091563940048,-0.032670579850673676,-0.811920166015625,0.20955369747456964,-0.5170249068292718,0.07210631395030674,0.053007175454225765,-0.26436764887942366,0.0,0.0,-0.6,0.0,0.0018935203552246094,0.0037648677825927734,0.009392499923706055,0
2.150487184524536,-0.06307091563940048,-0.032670579850673676,-0.811920166015625,0.20955369747456964,-0.5173173890219532,0.07501527378098179,0.0514046108626822,-0.26363999076856093,0.0,0.0,-0.6,0.0,0.002478361129760742,0.004532337188720703,0.00959634780883789,0
2.1633963584899902,-0.06245581805706024,-0.032176144421100616,-0.8124539256095886,0.20782542190864606,-0.517512519217385,0.07836318572011869,0.05902172144150744,-0.26248252675373607,0.0,0.0,-0.6,0.0,0.0025899410247802734,0.004698991775512695,0.009641647338867188,0
2.1752095222473145,-0.06245581805706024,-0.032176144421100616,-0.8124539256095886,0.20782542190864606,-0.5176675410548075,0.08064825077271927,0.06425068064134254,-0.26167230194335833,0.0,0.0,-0.6,0.0,0.002671957015991211,0.004460811614990234,0.009222745895385742,0
2.189314842224121,-0.061970304697752,-0.031966228038072586,-0.812777578830719,0.20648711681647242,-0.5179659288098941,0.08851427150508422,0.06424070375334709,-0.26060328016652906,0.0,0.0,-0.6,0.0,0.0019435882568359375,0.004042387008666992,0.010724544525146484,0
2.2038233280181885,-0.061970304697752,-0.031966228038072586,-0.812777578830719,0.20648711681647242,-0.518207356044265,0.09387479580847313,0.06427129108761526,-0.2598549649227586,0.0,0.0,-0.6,0.0,0.0047817230224609375,0.007906913757324219,0.015787124633789062,0
2.226045846939087,-0.06103828176856041,-0.031671684235334396,-0.8131060600280762,0.20398765711712583,-0.5184074103337228,0.09778839962077729,0.05701219008052862,-0.25839384686485467,0.0,0.0,-0.6,0.0,0.0038106441497802734,0.0072021484375,0.016776561737060547,0
2.2461462020874023,-0.06103828176856041,-0.031671684235334396,-0.8131060600280762,0.20398765711712583,-0.518569752092359,0.10044370746586838,0.052080571726227584,-0.2573710642243215,0.0,0.0,-0.6,0.0,0.0023310184478759766,0.0053863525390625,0.014465093612670898,0
2.267495632171631,-0.06006866320967674,-0.03162703663110733,-0.8132163286209106,0.20134104782528192,-0.5187414842759606,0.10379327208382164,0.05573994761421703,-0.25566263789150745,0.0,0.0,-0.6,0.0,0.003515958786010742,0.007080078125,0.015376806259155273,0
2.288792133331299,-0.06006866320967674,-0.03162703663110733,-0.8132163286209106,0.20134104782528192,-0.5188801489923472,0.10607066910521533,0.058256809112667444,-0.25446673945853715,0.0,0.0,-0.6,0.0,0.0035364627838134766,0.006664752960205078,0.01458597183227539,0
2.311208724975586,-0.058964941650629044,-0.03160122036933899,-0.8133655190467834,0.19867019684288204,-0.5190046400676176,0.10509639718052713,0.04842656675097512,-0.2526280414370331,0.0,0.0,-0.6,0.0,0.0034685134887695312,0.005583763122558594,0.014254570007324219,0
2.3305540084838867,-0.058964941650629044,-0.03160122036933899,-0.8133655190467834,0.19867019684288204,-0.5191035266912561,0.10440768319143447,0.041732644073011776,-0.2513409528219874,0.0,0.0,-0.6,0.0,0.0035181045532226562,0.006484031677246094,0.015296459197998047,0
2.352069854736328,-0.05769316479563713,-0.03160962834954262,-0.8136441707611084,0.19604452465059324,-0.5192592574669641,0.1049970976765253,0.03649338126604021,-0.24945536371936552,0.0,0.0,-0.6,0.0,0.003737211227416992,0.0072062015533447266,0.015697002410888672,0
2.3751237392425537,-0.056723374873399734,-0.03159530460834503,-0.8139404654502869,0.1938561769756434,-0.5193939612777225,0.09831232230991198,0.030365484948549664,-0.24731482096942428,0.0,0.0,-0.6,0.0,0.003713369369506836,0.007503032684326172,0.01578521728515625,0
2.3960392475128174,-0.056723374873399734,-0.03159530460834503,-0.8139404654502869,0.1938561769756434,-0.5194964881589289,0.09371807039538387,0.026207918137371868,-0.24581644104446476,0.0,0.0,-0.6,0.0,0.003721475601196289,0.006524562835693359,0.012059211730957031,0
2.412259578704834,-0.05543765425682068,-0.03156982734799385,-0.8143725395202637,0.19126647042020306,-0.5196123547405768,0.08321802396383896,0.013588476500904794,-0.2437964351387035,0.0,0.0,-0.6,0.0,0.0026967525482177734,0.0049932003021240234,0.010790109634399414,0
2.4259345531463623,-0.05543765425682068,-0.03156982734799385,-0.8143725395202637,0.19126647042020306,-0.5196961544067136,0.07601263249080717,0.005005353720449178,-0.24238243100467002,0.0,0.0,-0.6,0.0,0.0024445056915283203,0.004813432693481445,0.010622739791870117,0
2.4414095878601074,-0.05479785054922104,-0.03153335303068161,-0.8145429491996765,0.18992100378230792,-0.5198561852206541,0.06800997982218926,0.0023534230068527158,-0.24088807812163598,0.0,0.0,-0.6,0.0,0.006928443908691406,0.009329080581665039,0.015131711959838867,0
2.4614813327789307,-0.05421138182282448,-0.0315791554749012,-0.8147819638252258,0.18858104165346046,-0.5198345327753168,0.0561858490496514,0.0026198777651969263,-0.2393395453051944,0.0,0.0,-0.6,0.0,0.002531766891479492,0.00476837158203125,0.010335206985473633,0
2.4763882160186768,-0.053549639880657196,-0.031601984053850174,-0.8149718642234802,0.1871114839063061,-0.5198453926826753,0.04387978905252155,-0.005288314412575153,-0.2377044881785025,0.0,0.0,-0.6,0.0,0.0025987625122070312,0.004833221435546875,0.010471582412719727,0
2.4908695220947266,-0.05306791886687279,-0.03156667202711105,-0.8151313066482544,0.18576936796964602,-0.5198848693969961,0.031595710192127355,-0.014114989821696945,-0.23605665471357065,0.0,0.0,-0.6,0.0,0.0025894641876220703,0.004544734954833984,0.010133981704711914,0
2.5046350955963135,-0.05306791886687279,-0.03156667202711105,-0.8151313066482544,0.18576936796964602,-0.5199093205207568,0.02319513623000933,-0.020119104445385068,-0.23490317128811786,0.0,0.0,-0.6,0.0,0.002218484878540039,0.00425267219543457,0.009371757507324219,0
2.517759084701538,-0.052199263125658035,-0.03150765970349312,-0.8154329657554626,0.1839424345837714,-0.5199556393129816,0.012779172769274504,-0.023967393498660006,-0.23341063287059827,0.0,0.0,-0.6,0.0,0.002256631851196289,0.00469970703125,0.010160207748413086,0
2.5312297344207764,-0.052199263125658035,-0.03150765970349312,-0.8154329657554626,0.1839424345837714,-0.5199874278939035,0.0056576877152204105,-0.026576771662646066,-0.2323658559783341,0.0,0.0,-0.6,0.0,0.0025763511657714844,0.004692792892456055,0.011027097702026367,0
2.546902894973755,-0.05172520875930786,-0.03149954602122307,-0.8155820369720459,0.18264525830071718,-0.5199472492173238,-0.0013017028815742937,-0.030847527213390683,-0.23114807104760401,0.0,0.0,-0.6,0.0,0.0025997161865234375,0.005016326904296875,0.010449886322021484,0
2.5630877017974854,-0.051220204681158066,-0.03137649968266487,-0.8157837986946106,0.18136971450180414,-0.5198174959293058,-0.0135659443679128,-0.02799180693700367,-0.22981729267150067,0.0,0.0,-0.6,0.0,0.002935171127319336,0.0053560733795166016,0.013289451599121094,0
2.578418016433716,-0.051220204681158066,-0.03137649968266487,-0.8157837986946106,0.18136971450180414,-0.5197049927210027,-0.02191127313036552,-0.02605177250081834,-0.22888574780822796,0.0,0.0,-0.6,0.0,0.002655506134033203,0.004826545715332031,0.010720968246459961,0
2.5943593978881836,-0.050692155957221985,-0.031249526888132095,-0.8159058690071106,0.17941178662855728,-0.5196969300527046,-0.025413871127952303,-0.03402796794008202,-0.22749944345146994,0.0,0.0,-0.6,0.0,0.0024192333221435547,0.004493236541748047,0.010289669036865234,0
2.607217788696289,-0.050692155957221985,-0.031249526888132095,-0.8159058690071106,0.17941178662855728,-0.5196925508666899,-0.02780875424043533,-0.039469887283200576,-0.2265290304017389,0.0,0.0,-0.6,0.0,0.002282381057739258,0.004513263702392578,0.009410858154296875,0
2.6209120750427246,-0.050147220492362976,-0.030993152409791946,-0.8160662651062012,0.17758284303409397,-0.5198858845471199,-0.03489470318805455,-0.04073365347998595,-0.22516388741900384,0.0,0.0,-0.6,0.0,0.002200603485107422,0.004214048385620117,0.009989500045776367,0
2.6349523067474365,-0.050147220492362976,-0.030993152409791946,-0.8160662651062012,0.17758284303409397,-0.5200388690303249,-0.03976390317968063,-0.04155864721355003,-0.22420828733108888,0.0,0.0,-0.6,0.0,0.00939178466796875,0.011832952499389648,0.017850160598754883,0
2.6566553115844727,-0.04981498420238495,-0.030723989009857178,-0.8160271048545837,0.17602726966838106,-0.5199677692913777,-0.053611910364522807,-0.04242388308145524,-0.22295602725740638,0.0,0.0,-0.6,0.0,0.002733469009399414,0.005132436752319336,0.010720252990722656,0
2.6721556186676025,-0.049569450318813324,-0.03054245561361313,-0.8160293698310852,0.17490074870541078,-0.5200161630535836,-0.060031910975118584,-0.044356001191898545,-0.22165699984471482,0.0,0.0,-0.6,0.0,0.0026171207427978516,0.0048334598541259766,0.010666370391845703,0
2.686614513397217,-0.049569450318813324,-0.03054245561361313,-0.8160293698310852,0.17490074870541078,-0.5200552163236426,-0.06442046284037467,-0.04566131187946609,-0.2207476806558303,0.0,0.0,-0.6,0.0,0.0026557445526123047,0.004876375198364258,0.010367870330810547,0
2.7017462253570557,-0.04940846189856529,-0.030165910720825195,-0.815811038017273,0.1731191170244187,-0.5200213390830838,-0.0628413338472563,-0.04867481159314897,-0.21944304534323952,0.0,0.0,-0.6,0.0,0.0020494461059570312,0.004036426544189453,0.010035991668701172,0
2.713945150375366,-0.04940846189856529,-0.030165910720825195,-0.815811038017273,0.1731191170244187,-0.5199962528578617,-0.06176310384702026,-0.050739786737916834,-0.2185298006244256,0.0,0.0,-0.6,0.0,0.002511739730834961,0.005353689193725586,0.010409832000732422,0
2.728910446166992,-0.049200188368558884,-0.029631704092025757,-0.8155419826507568,0.17136992221280048,-0.5202835246130394,-0.06494826887700027,-0.053409819343917364,-0.2172345812668994,0.0,0.0,-0.6,0.0,0.0023941993713378906,0.004514932632446289,0.010579109191894531,0
2.742788553237915,-0.049200188368558884,-0.029631704092025757,-0.8155419826507568,0.17136992221280048,-0.5205156184052052,-0.06715305648487031,-0.05516933658913263,-0.21632792771663067,0.0,0.0,-0.6,0.0,0.0024878978729248047,0.00490880012512207,0.01097416877746582,0
2.756654739379883,-0.049212899059057236,-0.02909056842327118,-0.8150275945663452,0.16986171471777778,-0.520586313850069,-0.07146514789692611,-0.04765702687696463,-0.2151276924208093,0.0,0.0,-0.6,0.0,0.0027666091918945312,0.005316019058227539,0.011127710342407227,0
2.7718162536621094,-0.049212899059057236,-0.02909056842327118,-0.8150275945663452,0.16986171471777778,-0.520636064520977,-0.07440985272932632,-0.042507676200749245,-0.21428752771373402,0.0,0.0,-0.6,0.0,0.0025348663330078125,0.004763603210449219,0.010684490203857422,0
2.7872416973114014,-0.049236148595809937,-0.028464579954743385,-0.814432680606842,0.16822365979945225,-0.5209278018634101,-0.06967119705303888,-0.0364485844439619,-0.2130851418244096,0.0,0.0,-0.6,0.0,0.0026273727416992188,0.004976749420166016,0.011041641235351562,0
2.801283836364746,-0.049236148595809937,-0.028464579954743385,-0.814432680606842,0.16822365979945225,-0.521155432797341,-0.06645045240386395,-0.03224672631047786,-0.21224347170188215,0.0,0.0,-0.6,0.0,0.0022776126861572266,0.004268169403076172,0.00970315933227539,0
2.8158013820648193,-0.049415409564971924,-0.027857063338160515,-0.8137048482894897,0.16660653449732435,-0.5212978969704161,-0.06839858948521631,-0.03315031916406954,-0.21104788062781532,0.0,0.0,-0.6,0.0,0.0025086402893066406,0.004693031311035156,0.010131359100341797,0
2.8288583755493164,-0.049415409564971924,-0.027857063338160515,-0.8137048482894897,0.16660653449732435,-0.5214129248141249,-0.06973618483627345,-0.03373454092765066,-0.21021096687596819,0.0,0.0,-0.6,0.0,0.0024743080139160156,0.004717111587524414,0.011079788208007812,0
2.8433942794799805,-0.04956909269094467,-0.027168065309524536,-0.8128343820571899,0.16491926196439188,-0.5218576004018801,-0.06432521484477903,-0.030154792830984486,-0.2089924000498259,0.0,0.0,-0.6,0.0,0.002391815185546875,0.0049707889556884766,0.010427474975585938,0
2.8578898906707764,-0.04956909269094467,-0.027168065309524536,-0.8128343820571899,0.16491926196439188,-0.5222092310378926,-0.06063878430539685,-0.02760493796500339,-0.20813940327152594,0.0,0.0,-0.6,0.0,0.0022497177124023438,0.004529237747192383,0.010361909866333008,0
2.8722147941589355,-0.04974225535988808,-0.02673209272325039,-0.8121910691261292,0.16389348763856412,-0.5222554574682908,-0.06187783227757943,-0.023124109915554022,-0.20715764015453067,0.0,0.0,-0.6,0.0,0.00274658203125,0.005164384841918945,0.010712385177612305,0
2.8878939151763916,-0.049847763031721115,-0.026222966611385345,-0.811552107334137,0.16268005061365284,-0.522464804577167,-0.057684503678094204,-0.015958839933059264,-0.20601536708829243,0.0,0.0,-0.6,0.0,0.002447366714477539,0.004808902740478516,0.01064610481262207,0
2.902564764022827,-0.049847763031721115,-0.026222966611385345,-0.811552107334137,0.16268005061365284,-0.5226253393246849,-0.05482097698884856,-0.011015287025910129,-0.2052157759419253,0.0,0.0,-0.6,0.0,0.002187490463256836,0.004204511642456055,0.009620904922485352,0
2.9153308868408203,-0.05020761862397194,-0.025475388392806053,-0.8104251623153687,0.16090762452960874,-0.5227476243952712,-0.048774895059430994,-0.011862659394162069,-0.2039914023579522,0.0,0.0,-0.6,0.0,0.002259492874145508,0.004231929779052734,0.00944972038269043,0
2.928968667984009,-0.05020761862397194,-0.025475388392806053,-0.8104251623153687,0.16090762452960874,-0.5228444878214759,-0.04464977884159132,-0.012415995147698736,-0.20313434084917067,0.0,0.0,-0.6,0.0,0.0023653507232666016,0.004687070846557617,0.010584592819213867,0
2.943518877029419,-0.05040581151843071,-0.024724075570702553,-0.8093694448471069,0.1590180100271637,-0.5231411142283351,-0.03833656258066218,-0.0073858498211887185,-0.20182579235460718,0.0,0.0,-0.6,0.0,0.002602815628051758,0.004755496978759766,0.010267496109008789,0
2.9576032161712646,-0.05040581151843071,-0.024724075570702553,-0.8093694448471069,0.1590180100271637,-0.5233729068230638,-0.034021965526437326,-0.0038776529626827656,-0.20090980840841233,0.0,0.0,-0.6,0.0,0.0025413036346435547,0.004876613616943359,0.011175394058227539,0
2.9722132682800293,-0.05074675753712654,-0.023957693949341774,-0.8082822561264038,0.1570773918116532,-0.523325428256314,-0.03310240538595675,0.00490522745861649,-0.19954088781525994,0.0,0.0,-0.6,0.0,0.0026865005493164062,0.004917621612548828,0.010570287704467773,0
2.9877378940582275,-0.05074675753712654,-0.023957693949341774,-0.8082822561264038,0.1570773918116532,-0.5232803714166588,-0.032468397594361376,0.010890340717222058,-0.19858264340005286,0.0,0.0,-0.6,0.0,0.002489805221557617,0.004933834075927734,0.010922908782958984,0
3.002161741256714,-0.05110445246100426,-0.023193325847387314,-0.8072258234024048,0.1550730477358743,-0.5233522046756495,-0.02943587745077593,0.008636823611273763,-0.19716024328099127,0.0,0.0,-0.6,0.0,0.0026123523712158203,0.00499272346496582,0.010624885559082031,0
3.015505075454712,-0.05110445246100426,-0.023193325847387314,-0.8072258234024048,0.1550730477358743,-0.5234103692611084,-0.027367427832996206,0.007112305419671641,-0.19616456319764775,0.0,0.0,-0.6,0.0,0.002105712890625,0.003992319107055664,0.009283065795898438,0
3.0296664237976074,-0.05128157138824463,-0.022760165855288506,-0.8066380023956299,0.15378823537997563,-0.5234816951021357,-0.018867703301197157,0.0076529087631727055,-0.19498578250584547,0.0,0.0,-0.6,0.0,0.0024275779724121094,0.004878044128417969,0.010872840881347656,0
3.0439183712005615,-0.051464613527059555,-0.022250782698392868,-0.8060325980186462,0.15238471572525392,-0.523444968097406,-0.010501314471266877,0.0077578653802063136,-0.1936343161510634,0.0,0.0,-0.6,0.0,0.0027120113372802734,0.005139827728271484,0.010903596878051758,0
3.0590360164642334,-0.051464613527059555,-0.022250782698392868,-0.8060325980186462,0.15238471572525392,-0.5234138781924195,-0.004792341917428375,0.00781454542946193,-0.19268828970271556,0.0,0.0,-0.6,0.0,0.0026941299438476562,0.0073108673095703125,0.012493610382080078,0
3.072800874710083,-0.051750548183918,-0.021612832322716713,-0.8052240014076233,0.15023612634795938,-0.5232418341289253,-0.005326884492361607,0.016341318356000892,-0.19122035017238712,0.0,0.0,-0.6,0.0,0.005158901214599609,0.0073926448822021484,0.010586738586425781,0
3.0895421504974365,-0.051750548183918,-0.021612832322716713,-0.8052240014076233,0.15023612634795938,-0.5230979949979404,-0.005683958401221453,0.022121592150572727,-0.19019279250115675,0.0,0.0,-0.6,0.0,0.0025255680084228516,0.004954099655151367,0.011105060577392578,0
3.1050796508789062,-0.05207027867436409,-0.0210120789706707,-0.8044233322143555,0.14812139171416494,-0.5230270671722399,0.0015609050072334894,0.01799051486460684,-0.18868047664362309,0.0,0.0,-0.6,0.0,0.0023474693298339844,0.004556894302368164,0.010395050048828125,0
3.118788480758667,-0.05207027867436409,-0.0210120789706707,-0.8044233322143555,0.14812139171416494,-0.5229714078522489,0.006500552007744444,0.0151484889553174,-0.18762185554334906,0.0,0.0,-0.6,0.0,0.0022797584533691406,0.004190921783447266,0.009258270263671875,0
3.133263349533081,-0.052290696650743484,-0.02042459137737751,-0.8038017153739929,0.14606823172485964,-0.5229780657810142,0.010396737444905307,0.016548308612034008,-0.18611088577716822,0.0,0.0,-0.6,0.0,0.0026178359985351562,0.0050542354583740234,0.011074304580688477,0
3.1472792625427246,-0.052290696650743484,-0.02042459137737751,-0.8038017153739929,0.14606823172485964,-0.5229826623838789,0.01305640621672476,0.017501918738569662,-0.18505320694084118,0.0,0.0,-0.6,0.0,0.002656698226928711,0.005161762237548828,0.010933637619018555,0
3.162858724594116,-0.052577611058950424,-0.019965076819062233,-0.8031947016716003,0.14400042421005557,-0.522720391806318,0.010591894120178235,0.020166679463388095,-0.18353740393736118,0.0,0.0,-0.6,0.0,0.0029921531677246094,0.0052945613861083984,0.01116800308227539,0
3.1778736114501953,-0.052577611058950424,-0.019965076819062233,-0.8031947016716003,0.14400042421005557,-0.5225086110416712,0.008918607697323564,0.021932137975746224,-0.18247634183492473,0.0,0.0,-0.6,0.0,0.0028657913208007812,0.005322933197021484,0.011392354965209961,0
3.1942763328552246,-0.052821703255176544,-0.019566843286156654,-0.8026400804519653,0.14182990634082332,-0.5225515404915503,0.012816506341035526,0.017647458653783733,-0.1809196541622576,0.0,0.0,-0.6,0.0,0.002485036849975586,0.004506587982177734,0.010889530181884766,0
3.209228754043579,-0.052821703255176544,-0.019566843286156654,-0.8026400804519653,0.14182990634082332,-0.5225879043451322,0.015471794584445399,0.014726932081332106,-0.17982997279139015,0.0,0.0,-0.6,0.0,0.002538442611694336,0.004631996154785156,0.010490894317626953,0
3.2235467433929443,-0.0530090369284153,-0.019217969849705696,-0.8022230863571167,0.13977047827979244,-0.5225444333402618,0.01706597526297529,0.01181656758677294,-0.1782949103088968,0.0,0.0,-0.6,0.0,0.0025472640991210938,0.005114555358886719,0.011200428009033203,0
3.237654447555542,-0.0530090369284153,-0.019217969849705696,-0.8022230863571167,0.13977047827979244,-0.5225112517317799,0.01815215852571637,0.009818727861835545,-0.177220366571151,0.0,0.0,-0.6,0.0,0.00260162353515625,0.005224943161010742,0.011194467544555664,0
