time,x,y,z,yaw,throttle,roll_rate,pitch_rate,yaw_rate,x_ref,y_ref,z_ref,yaw_ref,pred_time,nr_time,ctrl_callback_time,metadata
2.1457672119140625e-06,-0.15108084678649902,-0.09100949019193649,-0.23898272216320038,-0.06156829495644967,-0.5324206433574077,0.05038844760448334,-0.0671101716745993,0.023088110608665568,0.0,0.0,-0.6,0.0,0.0013585090637207031,0.0022530555725097656,0.004571437835693359,Hardware
0.011690855026245117,-0.15108084678649902,-0.09100949019193649,-0.23898272216320038,-0.06156829495644967,-0.541285343309422,0.0839946370599707,-0.1132985092417074,0.039249788034732384,0.0,0.0,-0.6,0.0,0.0018620491027832031,0.0031867027282714844,0.0065920352935791016,Nonlinear
0.020244121551513672,-0.15108084678649902,-0.09100949019193649,-0.23898272216320038,-0.06156829495644967,-0.5483449709414061,0.10575102478427229,-0.14382266299793334,0.0505629622329798,0.0,0.0,-0.6,0.0,0.0020852088928222656,0.003512144088745117,0.006592512130737305,2x Speed
0.030731201171875,-0.15114159882068634,-0.09098315984010696,-0.23901069164276123,-0.0614729926941393,-0.5540136208485908,0.11918069617653014,-0.16292982443312481,0.05844644582338705,0.0,0.0,-0.6,0.0,0.0020322799682617188,0.003252267837524414,0.006632566452026367,0OrderHold
0.04052543640136719,-0.151164248585701,-0.09097781032323837,-0.2390197068452835,-0.061489623774406636,-0.5585623013418928,0.12741327404258607,-0.17477962215173526,0.06397112099177749,0.0,0.0,-0.6,0.0,0.0018477439880371094,0.003128528594970703,0.0067446231842041016,QuatYawError
0.05086541175842285,-0.15118466317653656,-0.090975821018219,-0.23904256522655487,-0.061467811673209534,-0.5621846155032885,0.1320671007296099,-0.1813952434514692,0.0678302140716973,0.0,0.0,-0.6,0.0,0.0015788078308105469,0.0028214454650878906,0.006175518035888672,NoPyJoules
0.06103229522705078,-0.15120680630207062,-0.0909772589802742,-0.23906256258487701,-0.06143661736359187,-0.5650877835420508,0.13481145715193313,-0.18500846049916736,0.07051988136153471,0.0,0.0,-0.6,0.0,0.001850128173828125,0.0030493736267089844,0.006457090377807617,0
0.07097434997558594,-0.15123042464256287,-0.09098678082227707,-0.23907926678657532,-0.06144330167538981,-0.5673305903336435,0.13653724353448243,-0.18613932825915944,0.07240515508134522,0.0,0.0,-0.6,0.0,0.0014820098876953125,0.002716541290283203,0.006358623504638672,0
0.0812845230102539,-0.15125811100006104,-0.09099482744932175,-0.23911048471927643,-0.06139547068805336,-0.5691200686751348,0.1362613363174534,-0.18673793998574803,0.0737069100649615,0.0,0.0,-0.6,0.0,0.0015778541564941406,0.002913236618041992,0.0067958831787109375,0
0.09119772911071777,-0.15128640830516815,-0.0909942016005516,-0.239152729511261,-0.06129546686933094,-0.5705445626967249,0.13668476468746749,-0.18595074492772942,0.07458063712147203,0.0,0.0,-0.6,0.0,0.0014235973358154297,0.002843618392944336,0.00557255744934082,0
0.1006619930267334,-0.1513015478849411,-0.09101869910955429,-0.23919688165187836,-0.061023622421121276,-0.5716602681768816,0.13576854231566388,-0.18401345462722662,0.07509030439295084,0.0,0.0,-0.6,0.0,0.0016109943389892578,0.002603292465209961,0.005688667297363281,0
0.11181926727294922,-0.15130876004695892,-0.09104170650243759,-0.23923295736312866,-0.06067049673611016,-0.5725222768851004,0.13742579182590817,-0.18169488904859238,0.07531464935110667,0.0,0.0,-0.6,0.0,0.0022711753845214844,0.0035696029663085938,0.006117105484008789,0
0.12041926383972168,-0.15128886699676514,-0.09107993543148041,-0.23929493129253387,-0.060409736887441605,-0.5731687700217661,0.13808475433663697,-0.17784052662617922,0.07537390587856546,0.0,0.0,-0.6,0.0,0.0023097991943359375,0.0035064220428466797,0.006385326385498047,0
0.13076305389404297,-0.15125837922096252,-0.09112890064716339,-0.23937760293483734,-0.06031128664663824,-0.5736533866460453,0.13688929863615953,-0.17466400539402466,0.07537846660748516,0.0,0.0,-0.6,0.0,0.0019345283508300781,0.0032258033752441406,0.006827592849731445,0
0.14109444618225098,-0.15120531618595123,-0.09118182957172394,-0.23947522044181824,-0.0603529521099289,-0.5740283530962494,0.13557973869755696,-0.17233564395723194,0.07539728366646299,0.0,0.0,-0.6,0.0,0.0015511512756347656,0.002744436264038086,0.006430149078369141,0
0.1501781940460205,-0.15116949379444122,-0.09121017903089523,-0.23954550921916962,-0.060318160179905406,-0.5743033536848976,0.13870543622170034,-0.1676026317097067,0.07539740863398862,0.0,0.0,-0.6,0.0,0.0022125244140625,0.003515481948852539,0.006524562835693359,0
0.1620020866394043,-0.1509614735841751,-0.09132158011198044,-0.23975487053394318,-0.059812588534741626,-0.5745027506598885,0.13950514723939014,-0.16020493554893928,0.07520790674432017,0.0,0.0,-0.6,0.0,0.0013842582702636719,0.002396106719970703,0.006105661392211914,0
0.17061638832092285,-0.1509614735841751,-0.09132158011198044,-0.23975487053394318,-0.059812588534741626,-0.5746469271314253,0.13999667847736136,-0.15504389307584693,0.07507525542155224,0.0,0.0,-0.6,0.0,0.0018894672393798828,0.003043651580810547,0.006818056106567383,0
0.18208956718444824,-0.15082216262817383,-0.09136702120304108,-0.23987072706222534,-0.05944711274147645,-0.5747469153437114,0.13855578213524525,-0.14947730200453463,0.07484534607314028,0.0,0.0,-0.6,0.0,0.0018837451934814453,0.0032520294189453125,0.0062487125396728516,0
0.19095087051391602,-0.15042820572853088,-0.0914485901594162,-0.24021121859550476,-0.05812035796057282,-0.5746966469928859,0.13470008255141772,-0.1412937059048908,0.07418687648641309,0.0,0.0,-0.6,0.0,0.0012764930725097656,0.0022766590118408203,0.0057086944580078125,0
0.20019268989562988,-0.15042820572853088,-0.0914485901594162,-0.24021121859550476,-0.05812035796057282,-0.5746349882455458,0.13205173202944392,-0.13568229768111773,0.07372594777570403,0.0,0.0,-0.6,0.0,0.0024263858795166016,0.003565073013305664,0.006907939910888672,0
0.21155428886413574,-0.15018293261528015,-0.09148547053337097,-0.2404479831457138,-0.057294383184875404,-0.5744851483172708,0.12998394871774144,-0.12997194415592106,0.07309355713731898,0.0,0.0,-0.6,0.0,0.0019376277923583984,0.0032122135162353516,0.006946563720703125,0
0.22081327438354492,-0.14962656795978546,-0.09156210720539093,-0.24106107652187347,-0.05468481239085104,-0.5741324894460296,0.12628213141916997,-0.11944826451033233,0.07167229464269262,0.0,0.0,-0.6,0.0,0.0015642642974853516,0.0032453536987304688,0.006302356719970703,0
0.23041772842407227,-0.14962656795978546,-0.09156210720539093,-0.24106107652187347,-0.05468481239085104,-0.5738266345942236,0.12381068493181623,-0.11234519258631304,0.0706774108964541,0.0,0.0,-0.6,0.0,0.002134084701538086,0.0034847259521484375,0.006609916687011719,0
0.24045395851135254,-0.14904777705669403,-0.09163494408130646,-0.24198035895824432,-0.05215223243329583,-0.5733734092778802,0.1200463142086076,-0.09873923698190545,0.06903127479000402,0.0,0.0,-0.6,0.0,0.0014960765838623047,0.003135204315185547,0.00600123405456543,0
0.2506542205810547,-0.14876367151737213,-0.09167217463254929,-0.24257318675518036,-0.050476552156894235,-0.5728561336879096,0.11661111917535626,-0.08444849153165587,0.06725059941183839,0.0,0.0,-0.6,0.0,0.0016241073608398438,0.002845287322998047,0.006337881088256836,0
0.26001954078674316,-0.14876367151737213,-0.09167217463254929,-0.24257318675518036,-0.050476552156894235,-0.5724134392291025,0.11436126788390844,-0.07482964848829331,0.06600412664712238,0.0,0.0,-0.6,0.0,0.0017175674438476562,0.003609180450439453,0.006577730178833008,0
0.2702054977416992,-0.14848747849464417,-0.09170527756214142,-0.24325765669345856,-0.049088229765362444,-0.5719042574887934,0.11145753143407384,-0.06245020324878842,0.06461097481499677,0.0,0.0,-0.6,0.0,0.0020270347595214844,0.003393888473510742,0.0065228939056396484,0
0.280719518661499,-0.14798478782176971,-0.09177098423242569,-0.2448900043964386,-0.04533128480432459,-0.5711855825281386,0.10693518519876505,-0.04294026356643483,0.06222691417211357,0.0,0.0,-0.6,0.0,0.0015597343444824219,0.002567291259765625,0.005933523178100586,0
0.2900538444519043,-0.14798478782176971,-0.09177098423242569,-0.2448900043964386,-0.04533128480432459,-0.5705730557711076,0.10399008717457515,-0.029828300006101816,0.06055807172210289,0.0,0.0,-0.6,0.0,0.002161264419555664,0.003467559814453125,0.006497859954833984,0
0.30019545555114746,-0.14774401485919952,-0.09179314225912094,-0.24585427343845367,-0.04364508132627034,-0.5698344207446348,0.09972456198931585,-0.016720492930108306,0.058757555702823636,0.0,0.0,-0.6,0.0,0.0024585723876953125,0.003660440444946289,0.006646156311035156,0
0.3110213279724121,-0.14750368893146515,-0.09182898700237274,-0.24694374203681946,-0.04154795942147259,-0.5690529510588257,0.0945614700276209,-0.0042398795507538195,0.05671077377502726,0.0,0.0,-0.6,0.0,0.001102447509765625,0.0019366741180419922,0.004711627960205078,0
0.3203697204589844,-0.1471654623746872,-0.09197741746902466,-0.24841898679733276,-0.03884200556936195,-0.5680938273605866,0.07789133194298292,0.0051258302211165,0.05426329373103226,0.0,0.0,-0.6,0.0,0.0019609928131103516,0.0029039382934570312,0.006189107894897461,0
0.33049726486206055,-0.14690785109996796,-0.0920327827334404,-0.2497115135192871,-0.03691794165561629,-0.567105068761922,0.06435507359707135,0.014054522001210613,0.051828533732581124,0.0,0.0,-0.6,0.0,0.002200603485107422,0.003440380096435547,0.006348848342895508,0
0.34028124809265137,-0.14662905037403107,-0.09208592027425766,-0.2511022686958313,-0.034868786449534554,-0.5660876993569124,0.05268785466318245,0.022807560213949106,0.04935576853138257,0.0,0.0,-0.6,0.0,0.0024018287658691406,0.003648996353149414,0.00676274299621582,0
0.3515207767486572,-0.14623920619487762,-0.09211724996566772,-0.25296643376350403,-0.031450863379102516,-0.5650986097674946,0.03846777376735124,0.034718107542013474,0.04634311173913425,0.0,0.0,-0.6,0.0,0.001756429672241211,0.0030167102813720703,0.006664276123046875,0
0.3618006706237793,-0.1459483653306961,-0.09218282997608185,-0.2545570433139801,-0.029367503602214587,-0.5641291507991818,0.027787655635762833,0.044278901152923614,0.04345299206822232,0.0,0.0,-0.6,0.0,0.0013065338134765625,0.0027539730072021484,0.005891323089599609,0
0.37053990364074707,-0.1459483653306961,-0.09218282997608185,-0.2545570433139801,-0.029367503602214587,-0.5633360457267346,0.020709941302058606,0.05049163003824148,0.0414299082985846,0.0,0.0,-0.6,0.0,0.0016856193542480469,0.0030765533447265625,0.006535053253173828,0
0.3804466724395752,-0.14525443315505981,-0.09232783317565918,-0.2580298185348511,-0.02475826066196086,-0.562301023283705,0.01696216724665134,0.05866843987612921,0.03828528355724769,0.0,0.0,-0.6,0.0,0.0018656253814697266,0.003339529037475586,0.006366729736328125,0
0.3909332752227783,-0.14499156177043915,-0.09236382693052292,-0.25942298769950867,-0.02210218372619227,-0.5613064003598796,0.013525342069986797,0.07115767195021769,0.03508801738739313,0.0,0.0,-0.6,0.0,0.0015788078308105469,0.002856016159057617,0.006425380706787109,0
0.4001603126525879,-0.14463119208812714,-0.09240652620792389,-0.26136356592178345,-0.019653064868701397,-0.5602813904576788,0.010136747962876563,0.0811702915693278,0.031931511496940006,0.0,0.0,-0.6,0.0,0.0017898082733154297,0.003647327423095703,0.006492137908935547,0
0.41152119636535645,-0.14424258470535278,-0.09244102984666824,-0.2634306848049164,-0.017200316539044167,-0.5592989668709472,0.007388936783772435,0.09034440732751287,0.028802176749997264,0.0,0.0,-0.6,0.0,0.00136566162109375,0.0025603771209716797,0.005303859710693359,0
0.42035841941833496,-0.14378558099269867,-0.09243500232696533,-0.2660711109638214,-0.012893680386720834,-0.5583106519785112,0.0023163969208294995,0.09302727627453458,0.02499665387001725,0.0,0.0,-0.6,0.0,0.0019087791442871094,0.003019094467163086,0.006280660629272461,0
0.43039417266845703,-0.14335647225379944,-0.09246209263801575,-0.2682493031024933,-0.010243524954454509,-0.5573780598656847,-0.002542124458585676,0.0950583925638149,0.021338979566931413,0.0,0.0,-0.6,0.0,0.0018694400787353516,0.002774953842163086,0.0063173770904541016,0
0.440108060836792,-0.14291180670261383,-0.0924583151936531,-0.27046698331832886,-0.007634662026604853,-0.55652830118786,-0.006115310580032618,0.09826219041241682,0.01780028395682928,0.0,0.0,-0.6,0.0,0.0020787715911865234,0.003248453140258789,0.006365299224853516,0
0.4500446319580078,-0.14242978394031525,-0.09245755523443222,-0.2727328836917877,-0.004937938876424307,-0.5557036614730718,-0.009244520091158025,0.10111844550526955,0.014311925848438559,0.0,0.0,-0.6,0.0,0.0017743110656738281,0.0032029151916503906,0.006727457046508789,0
0.4606754779815674,-0.14208509027957916,-0.09256778657436371,-0.2744523584842682,-0.0017197887835379636,-0.5549191058978384,-0.005164382681432493,0.10707733120832172,0.01066326888773342,0.0,0.0,-0.6,0.0,0.0015561580657958984,0.0026612281799316406,0.006236076354980469,0
0.4701695442199707,-0.1415872424840927,-0.09256377816200256,-0.27680253982543945,0.0010289650480520033,-0.5542039749995478,-0.0036733338233087146,0.1113217205735416,0.007078426328392812,0.0,0.0,-0.6,0.0,0.0018057823181152344,0.0031976699829101562,0.006563901901245117,0
0.4809999465942383,-0.14106781780719757,-0.09256855398416519,-0.27920517325401306,0.0037502704966311394,-0.5534644660903231,-0.004123228582204446,0.11376202497152044,0.0035485469936387586,0.0,0.0,-0.6,0.0,0.0014071464538574219,0.0028951168060302734,0.006565570831298828,0
0.4910562038421631,-0.14054152369499207,-0.09256730228662491,-0.281679630279541,0.006512032031257365,-0.552740003567894,-0.00807585705862721,0.11743875592612413,4.197088382608405e-05,0.0,0.0,-0.6,0.0,0.0015621185302734375,0.0027086734771728516,0.0060808658599853516,0
0.5012013912200928,-0.1401549130678177,-0.09259924292564392,-0.2835707664489746,0.0098708575950814,-0.5519490906060537,-0.015606176081534032,0.11484131150474577,-0.0036721919794767736,0.0,0.0,-0.6,0.0,0.0013532638549804688,0.00244140625,0.005366086959838867,0
0.5110034942626953,-0.13957345485687256,-0.09257717430591583,-0.2861460745334625,0.012639215961793973,-0.5511864790761023,-0.021811642593490603,0.11523786835082288,-0.007310240371306788,0.0,0.0,-0.6,0.0,0.0014891624450683594,0.002618074417114258,0.005631923675537109,0
0.5202372074127197,-0.138949453830719,-0.0925413966178894,-0.28876814246177673,0.015429514954089195,-0.5504193081210854,-0.026542142157355078,0.11804962372574246,-0.010903236367697723,0.0,0.0,-0.6,0.0,0.0026307106018066406,0.0038518905639648438,0.006457805633544922,0
0.5301923751831055,-0.1378551423549652,-0.09247788041830063,-0.29341578483581543,0.02154691974178752,-0.5497060837559923,-0.031221218499839852,0.11979246464689687,-0.01571236036055809,0.0,0.0,-0.6,0.0,0.0017163753509521484,0.0030558109283447266,0.006493091583251953,0
0.5405476093292236,-0.13715577125549316,-0.09242777526378632,-0.2961122393608093,0.02443745471855084,-0.5489658882184861,-0.034166851131440176,0.12438619347643651,-0.02016269777184567,0.0,0.0,-0.6,0.0,0.0016529560089111328,0.0028204917907714844,0.006407022476196289,0
0.5502476692199707,-0.13715577125549316,-0.09242777526378632,-0.2961122393608093,0.02443745471855084,-0.5483731942966794,-0.03602077436772458,0.12734116118652153,-0.023277933959748122,0.0,0.0,-0.6,0.0,0.0017445087432861328,0.0029838085174560547,0.006536245346069336,0
0.5601792335510254,-0.1364097148180008,-0.0923653095960617,-0.29884278774261475,0.027405697743435226,-0.547784968293597,-0.03986069812731799,0.1317182381522041,-0.026571690425611458,0.0,0.0,-0.6,0.0,0.002000570297241211,0.0032422542572021484,0.006948947906494141,0
0.570986270904541,-0.1356315314769745,-0.09226202219724655,-0.30160635709762573,0.030419664298132636,-0.5471286981445662,-0.04424864574861921,0.1353219221787952,-0.0300075574097273,0.0,0.0,-0.6,0.0,0.0015785694122314453,0.002876758575439453,0.0068895816802978516,0
0.5803086757659912,-0.13432270288467407,-0.09202325344085693,-0.30649682879447937,0.03667156720431648,-0.5464618471537195,-0.04475272670412745,0.13787031837174732,-0.034757127888429225,0.0,0.0,-0.6,0.0,0.001943826675415039,0.003223419189453125,0.006589174270629883,0
0.590390682220459,-0.13432270288467407,-0.09202325344085693,-0.30649682879447937,0.03667156720431648,-0.5459300581623138,-0.044961381016231226,0.1394689014357817,-0.03808182722351725,0.0,0.0,-0.6,0.0,0.0013995170593261719,0.0026280879974365234,0.0054547786712646484,0
0.6000175476074219,-0.13264283537864685,-0.09173979610204697,-0.3121335804462433,0.04239615814188205,-0.5453667392480165,-0.044526735763125255,0.1469461719131061,-0.04255583835966337,0.0,0.0,-0.6,0.0,0.0019674301147460938,0.003072977066040039,0.006052732467651367,0
0.6117260456085205,-0.13200096786022186,-0.09171587228775024,-0.31424131989479065,0.04571898849965464,-0.5448749613970523,-0.04122931148797237,0.15222231582852266,-0.04693370753913047,0.0,0.0,-0.6,0.0,0.0013492107391357422,0.0023527145385742188,0.005743265151977539,0
0.6198623180389404,-0.13110661506652832,-0.09160048514604568,-0.31709471344947815,0.0485820967430568,-0.5443227933275429,-0.04047358891518772,0.15622983919637795,-0.05107188155604067,0.0,0.0,-0.6,0.0,0.0009620189666748047,0.0017948150634765625,0.004816293716430664,0
0.6300785541534424,-0.13020232319831848,-0.09148220717906952,-0.31993183493614197,0.051483518839786656,-0.5438355725348298,-0.04170428419390957,0.16020001730777597,-0.05505663665415139,0.0,0.0,-0.6,0.0,0.002192258834838867,0.003423929214477539,0.006534099578857422,0
0.6400570869445801,-0.12926553189754486,-0.09139049798250198,-0.3227694630622864,0.05483752526266053,-0.5433921183124683,-0.04206910092814535,0.16424674570217299,-0.05910371763140314,0.0,0.0,-0.6,0.0,0.0021202564239501953,0.003357410430908203,0.006125926971435547,0
0.6502838134765625,-0.1283055990934372,-0.09132643043994904,-0.3256146311759949,0.058110372486291854,-0.5429798498755009,-0.04053155734056913,0.16893749377756864,-0.0631639920243411,0.0,0.0,-0.6,0.0,0.001699209213256836,0.003339529037475586,0.00621485710144043,0
0.6603817939758301,-0.12732575833797455,-0.0912649855017662,-0.32844898104667664,0.06091495680846993,-0.5426111635918355,-0.037535489140422144,0.17259082989819624,-0.06705790322021447,0.0,0.0,-0.6,0.0,0.0023043155670166016,0.0038068294525146484,0.0068247318267822266,0
0.6708190441131592,-0.12631870806217194,-0.09119214117527008,-0.3313145637512207,0.06423166843036412,-0.5422476912854342,-0.03149446652951459,0.17499499729348372,-0.07102740791553615,0.0,0.0,-0.6,0.0,0.002211332321166992,0.0038590431213378906,0.006737709045410156,0
0.6808745861053467,-0.1252981424331665,-0.09111087024211884,-0.33414605259895325,0.06763219311132972,-0.5418636858601183,-0.0233666209165217,0.17569804071290332,-0.07508125795762341,0.0,0.0,-0.6,0.0,0.0017731189727783203,0.003032684326171875,0.006518840789794922,0
0.6911425590515137,-0.12426046282052994,-0.09103163331747055,-0.3369787633419037,0.07098007212976301,-0.5416029161107502,-0.015594621244542806,0.17421735155963425,-0.07917440761899697,0.0,0.0,-0.6,0.0,0.0016181468963623047,0.0026960372924804688,0.005982398986816406,0
0.7005960941314697,-0.1232222244143486,-0.09092794358730316,-0.33977317810058594,0.0738215225877617,-0.5414158683015046,-0.008694768042502524,0.17260494228073714,-0.08310515630371823,0.0,0.0,-0.6,0.0,0.001750946044921875,0.002857685089111328,0.0062847137451171875,0
0.71201491355896,-0.12218879908323288,-0.09081113338470459,-0.3424970507621765,0.07716447437142225,-0.5411962057990174,-0.003071639238877279,0.16968845606138408,-0.08711028730189599,0.0,0.0,-0.6,0.0,0.0018963813781738281,0.002947092056274414,0.006383657455444336,0
0.7210936546325684,-0.12114768475294113,-0.09069833904504776,-0.34524044394493103,0.08044197347855778,-0.5409685952540519,0.0010530656735660776,0.1676905450389499,-0.09114294116578932,0.0,0.0,-0.6,0.0,0.0009312629699707031,0.0017049312591552734,0.004054546356201172,0
0.7300839424133301,-0.12010504305362701,-0.0905730202794075,-0.3479751646518707,0.0831793452021597,-0.5406807802741728,0.0070127989663946195,0.16694270252525692,-0.09499231326685856,0.0,0.0,-0.6,0.0,0.0021202564239501953,0.0033409595489501953,0.007022857666015625,0
0.7411887645721436,-0.11905404925346375,-0.09040523320436478,-0.35068297386169434,0.08644469627742468,-0.5403755119240811,0.01342104431576912,0.16674948656208952,-0.09891138039083813,0.0,0.0,-0.6,0.0,0.0017766952514648438,0.0029315948486328125,0.0064830780029296875,0
0.7510025501251221,-0.1179843619465828,-0.09023742377758026,-0.3534087836742401,0.08973454161185186,-0.540087482284553,0.018545309600631887,0.16739040312878664,-0.10288841937803406,0.0,0.0,-0.6,0.0,0.0015227794647216797,0.0028700828552246094,0.006341457366943359,0
0.7617390155792236,-0.11692085862159729,-0.09005796164274216,-0.3561329245567322,0.09250035579538232,-0.5397527285168645,0.025062993049208983,0.16731616235098323,-0.10670952698790165,0.0,0.0,-0.6,0.0,0.00171661376953125,0.002996683120727539,0.006400346755981445,0
0.7712502479553223,-0.11584576219320297,-0.08985559642314911,-0.358843058347702,0.09585731629882294,-0.5395198785350072,0.029215509948920353,0.16509904321235322,-0.11064316250359264,0.0,0.0,-0.6,0.0,0.0018429756164550781,0.0030448436737060547,0.006068706512451172,0
0.7808489799499512,-0.11474709212779999,-0.08966471254825592,-0.3615596294403076,0.09913234241373271,-0.5393267241359644,0.032713325106748195,0.16156653086521655,-0.11462484215766064,0.0,0.0,-0.6,0.0,0.0018353462219238281,0.003316640853881836,0.006214141845703125,0
0.7904477119445801,-0.11363190412521362,-0.08951012045145035,-0.3642827272415161,0.10195459027193425,-0.5390717984909457,0.037222715922856,0.15494673489826769,-0.11847036086234061,0.0,0.0,-0.6,0.0,0.001466989517211914,0.002550840377807617,0.005525112152099609,0
0.800267219543457,-0.11252038925886154,-0.08934833109378815,-0.3669983744621277,0.10523374439942339,-0.5388424877250989,0.039972619284082585,0.14807268079401661,-0.12239190675342507,0.0,0.0,-0.6,0.0,0.0017070770263671875,0.003113985061645508,0.007134675979614258,0
0.8113405704498291,-0.11139816790819168,-0.08920609205961227,-0.36969688534736633,0.10849515508036327,-0.5385507648019493,0.04220221262714242,0.1415258153329644,-0.1263600178825298,0.0,0.0,-0.6,0.0,0.0014116764068603516,0.0033981800079345703,0.006171464920043945,0
0.8205773830413818,-0.11026158183813095,-0.08907978236675262,-0.37242063879966736,0.11112244113454255,-0.5382420112554648,0.0426795077543495,0.13694316512252158,-0.13012292794322053,0.0,0.0,-0.6,0.0,0.0015857219696044922,0.0026924610137939453,0.0053064823150634766,0
0.8305020332336426,-0.10912815481424332,-0.08894863724708557,-0.37512925267219543,0.11415869406472003,-0.5379159929107381,0.04228066556299169,0.13438820031218107,-0.1338955598345206,0.0,0.0,-0.6,0.0,0.002086639404296875,0.0032808780670166016,0.006372213363647461,0
0.8402326107025146,-0.10797606408596039,-0.08881711959838867,-0.3778296411037445,0.11703187313300308,-0.5375858912091696,0.041621722957021504,0.1313890565924383,-0.13761384430903684,0.0,0.0,-0.6,0.0,0.0020210742950439453,0.0029900074005126953,0.006133556365966797,0
0.8505017757415771,-0.10682313144207001,-0.08871043473482132,-0.3805398941040039,0.11955463744665261,-0.5373075225073175,0.039488105069458206,0.12603627754784064,-0.14116268005881696,0.0,0.0,-0.6,0.0,0.0019583702087402344,0.0030612945556640625,0.006814241409301758,0
0.8608744144439697,-0.10568790882825851,-0.08857129514217377,-0.38324376940727234,0.12231883539134837,-0.5370054815983057,0.039128799059837197,0.11901930341706543,-0.144683439312924,0.0,0.0,-0.6,0.0,0.0018148422241210938,0.0030488967895507812,0.006825447082519531,0
0.8715674877166748,-0.10454078018665314,-0.08843040466308594,-0.38594284653663635,0.12515088391662046,-0.5367525472504573,0.039488937353442076,0.11119481213287437,-0.14820998898777593,0.0,0.0,-0.6,0.0,0.0013704299926757812,0.0025272369384765625,0.005957603454589844,0
0.8810536861419678,-0.10311897099018097,-0.08821908384561539,-0.38933247327804565,0.1286299789924379,-0.5365133029633148,0.03676403712347505,0.1014877132821311,-0.1519832344136036,0.0,0.0,-0.6,0.0,0.0019485950469970703,0.0032749176025390625,0.006768703460693359,0
0.8922102451324463,-0.10198776423931122,-0.088086798787117,-0.39203956723213196,0.13092460740079506,-0.5362067999780427,0.0350721346844425,0.09457664697302154,-0.15548499186481715,0.0,0.0,-0.6,0.0,0.001628875732421875,0.0029325485229492188,0.00619959831237793,0
0.9012775421142578,-0.10088255256414413,-0.08793970197439194,-0.3947376608848572,0.13313744929299295,-0.535867200110672,0.035124338914153445,0.08967059521140626,-0.1587660377902411,0.0,0.0,-0.6,0.0,0.0016565322875976562,0.0029573440551757812,0.006623744964599609,0
0.9119753837585449,-0.09976751357316971,-0.08778451383113861,-0.39743050932884216,0.13538724091956914,-0.5356033440247626,0.03462555776881559,0.08620661113759985,-0.16190644179800406,0.0,0.0,-0.6,0.0,0.0015003681182861328,0.002689361572265625,0.005520343780517578,0
0.9206368923187256,-0.09976751357316971,-0.08778451383113861,-0.39743050932884216,0.13538724091956914,-0.5353910456139249,0.034343562237979845,0.08384056445321222,-0.16410472460343908,0.0,0.0,-0.6,0.0,0.0015745162963867188,0.0026710033416748047,0.005631923675537109,0
0.9314908981323242,-0.09784546494483948,-0.08750364929437637,-0.4020995795726776,0.1400333757443003,-0.5350687978340404,0.032933294706224116,0.07773581518572867,-0.1673858231265167,0.0,0.0,-0.6,0.0,0.002001523971557617,0.0032465457916259766,0.0071315765380859375,0
0.9411964416503906,-0.0967581570148468,-0.08735575526952744,-0.4047814607620239,0.14210119683271172,-0.5347759907234412,0.03066190614493865,0.07175210810907312,-0.17045802500082552,0.0,0.0,-0.6,0.0,0.0015473365783691406,0.002901792526245117,0.006394147872924805,0
0.9512391090393066,-0.09568335860967636,-0.08719874173402786,-0.40745270252227783,0.14415117205435193,-0.5345357183191051,0.027588752764125358,0.06639711161891727,-0.1733773070209569,0.0,0.0,-0.6,0.0,0.0018928050994873047,0.0031175613403320312,0.006662607192993164,0
0.9604439735412598,-0.09377101808786392,-0.08689038455486298,-0.4121502637863159,0.14854590251284322,-0.5342811628782587,0.022012973514308268,0.05857078758013673,-0.17706882835698234,0.0,0.0,-0.6,0.0,0.0020143985748291016,0.0031964778900146484,0.006163120269775391,0
0.9701247215270996,-0.09377101808786392,-0.08689038455486298,-0.4121502637863159,0.14854590251284322,-0.5340704053504637,0.018274585207712697,0.05322171024272078,-0.17965289329220127,0.0,0.0,-0.6,0.0,0.002143383026123047,0.003390789031982422,0.006765842437744141,0
0.9807422161102295,-0.09268485754728317,-0.08674123883247375,-0.41480061411857605,0.15053015576552095,-0.533847564189611,0.01808931245884718,0.04887252916196883,-0.1822058337166087,0.0,0.0,-0.6,0.0,0.0017952919006347656,0.0030586719512939453,0.006848335266113281,0
0.9905474185943604,-0.09136374294757843,-0.08651749044656754,-0.4181153476238251,0.15374640822036206,-0.5336308675392593,0.015489270269525648,0.039003640896186846,-0.18519898668425888,0.0,0.0,-0.6,0.0,0.002004861831665039,0.0030972957611083984,0.0065059661865234375,0
1.0010178089141846,-0.09030665457248688,-0.08637992292642593,-0.42075198888778687,0.15563514884871169,-0.5333536864255228,0.015105815266853602,0.032630994588963756,-0.1880024714972453,0.0,0.0,-0.6,0.0,0.0019953250885009766,0.003450155258178711,0.006695985794067383,0
1.0119173526763916,-0.08926010131835938,-0.08621713519096375,-0.423356294631958,0.15745561346729756,-0.5331392953474933,0.01408094021828096,0.030207421129890694,-0.19064758509830565,0.0,0.0,-0.6,0.0,0.0014088153839111328,0.002627849578857422,0.005507707595825195,0
1.0224997997283936,-0.08822956681251526,-0.08607560396194458,-0.4259592294692993,0.15927567724430575,-0.5329082941558936,0.013845589108816817,0.02931291834930391,-0.19318168853542605,0.0,0.0,-0.6,0.0,0.0015535354614257812,0.002653837203979492,0.005583286285400391,0
1.0310752391815186,-0.08746817708015442,-0.08597581088542938,-0.4278787672519684,0.16133500868271003,-0.532752580362037,0.010664425363615282,0.02231560186991917,-0.19572781023081195,0.0,0.0,-0.6,0.0,0.002376079559326172,0.003809690475463867,0.006342649459838867,0
1.0421340465545654,-0.08647873252630234,-0.08583340048789978,-0.4304366409778595,0.16302235299722176,-0.5325784338586713,0.006182714404677103,0.015791914242608875,-0.1981428495355241,0.0,0.0,-0.6,0.0,0.0015377998352050781,0.0025806427001953125,0.006273984909057617,0
1.0510857105255127,-0.08551236242055893,-0.08570437878370285,-0.4329952001571655,0.16469696117377258,-0.5323676203387284,0.0027275229971027463,0.010682595421579781,-0.20046135511502927,0.0,0.0,-0.6,0.0,0.002016305923461914,0.0029871463775634766,0.00655364990234375,0
1.0613181591033936,-0.08455715328454971,-0.0855560451745987,-0.4355306327342987,0.16640758195318395,-0.5321466841497807,0.001931376013055759,0.008470064364948035,-0.20272579181296219,0.0,0.0,-0.6,0.0,0.0017123222351074219,0.002847433090209961,0.006420135498046875,0
1.0704455375671387,-0.08383122086524963,-0.08544476330280304,-0.4374234974384308,0.16825347277374106,-0.5319898738957559,0.0031671004871801677,0.005571009842837856,-0.20500310655922416,0.0,0.0,-0.6,0.0,0.001992940902709961,0.003326892852783203,0.006137847900390625,0
1.080374002456665,-0.08288640528917313,-0.08530738949775696,-0.4399356245994568,0.16989429698590267,-0.5318414253158249,0.0036138300446202066,0.0038322929375313223,-0.2072125359611682,0.0,0.0,-0.6,0.0,0.0015246868133544922,0.002839326858520508,0.006549358367919922,0
1.0909090042114258,-0.08195257186889648,-0.08518044650554657,-0.4424203932285309,0.17140544522632797,-0.5316795745283613,0.004826569793673215,0.001540236932197217,-0.2093258171326886,0.0,0.0,-0.6,0.0,0.0016813278198242188,0.0028908252716064453,0.0062563419342041016,0
1.1003074645996094,-0.08081864565610886,-0.0850636214017868,-0.4455200731754303,0.1737453851682134,-0.531535747263858,0.010539449575231308,-0.0025912344886649184,-0.2116825914309597,0.0,0.0,-0.6,0.0,0.0020186901092529297,0.0031986236572265625,0.006626605987548828,0
1.1120758056640625,-0.07992109656333923,-0.08492586016654968,-0.44796696305274963,0.17519495490503306,-0.5314547843793115,0.013686869289126595,-0.006885045315607862,-0.213875922091057,0.0,0.0,-0.6,0.0,0.0013508796691894531,0.002469301223754883,0.005971670150756836,0
1.1205599308013916,-0.07904656231403351,-0.08478475362062454,-0.45041534304618835,0.17687053566274769,-0.5313195474661198,0.01539439971365302,-0.010413540082359549,-0.2160395963372681,0.0,0.0,-0.6,0.0,0.001790761947631836,0.0029277801513671875,0.005633354187011719,0
1.1305558681488037,-0.07818753272294998,-0.08463132381439209,-0.4528431296348572,0.1784878512155738,-0.5312006423492419,0.013416918936316715,-0.014968139879820477,-0.2181606616419257,0.0,0.0,-0.6,0.0,0.0013740062713623047,0.0023937225341796875,0.005647420883178711,0
1.1402249336242676,-0.07734557241201401,-0.08447834849357605,-0.45527559518814087,0.17985633906245962,-0.5310374326339626,0.008314775693664535,-0.019138968186040804,-0.22015859029776835,0.0,0.0,-0.6,0.0,0.0013728141784667969,0.0027685165405273438,0.006312131881713867,0
1.1503880023956299,-0.07652820646762848,-0.08430220931768417,-0.45766687393188477,0.18146326611425911,-0.5309266978678564,0.002919098620982612,-0.021897510548591372,-0.222159738001283,0.0,0.0,-0.6,0.0,0.002318859100341797,0.0035796165466308594,0.00669550895690918,0
1.1601495742797852,-0.07572675496339798,-0.08414804190397263,-0.46004781126976013,0.18287101468189512,-0.53076518546053,0.0015208291393552604,-0.021322452863162616,-0.22408844710660683,0.0,0.0,-0.6,0.0,0.0017921924591064453,0.003186941146850586,0.006899356842041016,0
1.1703758239746094,-0.07495754957199097,-0.08397577702999115,-0.4623994529247284,0.1841150856170197,-0.5306062707943412,0.0026719042978146958,-0.021094942976716224,-0.22590507008100535,0.0,0.0,-0.6,0.0,0.001859903335571289,0.0030324459075927734,0.006418943405151367,0
1.1809380054473877,-0.07420540601015091,-0.08379117399454117,-0.46474334597587585,0.18550117823214346,-0.5304958882223895,0.00357554684213863,-0.022027789757443985,-0.22769649089375577,0.0,0.0,-0.6,0.0,0.001422882080078125,0.002549886703491211,0.005933046340942383,0
1.190138339996338,-0.07346988469362259,-0.08359164744615555,-0.46705687046051025,0.1869822990195344,-0.5304350399205429,0.004396881540928602,-0.02365679976832884,-0.22950590575795263,0.0,0.0,-0.6,0.0,0.0025072097778320312,0.003950357437133789,0.006948709487915039,0
1.2011370658874512,-0.07275263220071793,-0.08338970690965652,-0.46934840083122253,0.1880795941296831,-0.5303951862170649,0.004372076927132681,-0.026690465392847314,-0.2311839818291963,0.0,0.0,-0.6,0.0,0.0017514228820800781,0.0028028488159179688,0.0064334869384765625,0
1.2122728824615479,-0.07205875217914581,-0.08318009972572327,-0.47161126136779785,0.18939112997335958,-0.5303463499163845,0.004297235222883409,-0.029314657704766236,-0.23285046102044557,0.0,0.0,-0.6,0.0,0.0018253326416015625,0.0031588077545166016,0.006099224090576172,0
1.221714735031128,-0.07137658447027206,-0.08297049254179001,-0.47384384274482727,0.19064720338794508,-0.5303775147546522,0.0015285543903784098,-0.030203333496464087,-0.23448802398478966,0.0,0.0,-0.6,0.0,0.0020945072174072266,0.003506183624267578,0.006316423416137695,0
1.23097825050354,-0.07070603966712952,-0.08276978880167007,-0.4760711193084717,0.19173441366568114,-0.5303222375053611,-0.0010226019663561732,-0.031063770499441593,-0.23604202191398163,0.0,0.0,-0.6,0.0,0.001424551010131836,0.002527475357055664,0.0053293704986572266,0
1.2399053573608398,-0.07005853950977325,-0.08257164061069489,-0.47829535603523254,0.19295531019120063,-0.5302469260653054,-0.005450619583518513,-0.03055199958101335,-0.23758765666148582,0.0,0.0,-0.6,0.0,0.0015468597412109375,0.003252744674682617,0.0057146549224853516,0
1.2501695156097412,-0.0694245919585228,-0.08239391446113586,-0.4804782569408417,0.19404353721112538,-0.5301195524150181,-0.009380885979746567,-0.03086810336192609,-0.2390776861172106,0.0,0.0,-0.6,0.0,0.002010822296142578,0.003360748291015625,0.00677800178527832,0
1.2607519626617432,-0.0688185915350914,-0.08220573514699936,-0.4826399087905884,0.19506867588070567,-0.5300304142672325,-0.012225782963307882,-0.03134890438621412,-0.24050513373731064,0.0,0.0,-0.6,0.0,0.001619577407836914,0.0029883384704589844,0.006432533264160156,0
1.2705504894256592,-0.0682288184762001,-0.08200538903474808,-0.48479628562927246,0.1960053480480145,-0.5299759840446047,-0.012464722363356807,-0.03049065056645511,-0.24185559913412152,0.0,0.0,-0.6,0.0,0.0017657279968261719,0.0029327869415283203,0.006406068801879883,0
1.2805473804473877,-0.06764090806245804,-0.08178959786891937,-0.4869193732738495,0.19703899267008,-0.5299105241543919,-0.010634012617403252,-0.02861294339057754,-0.24318854164516374,0.0,0.0,-0.6,0.0,0.0015797615051269531,0.0026144981384277344,0.005864858627319336,0
1.2909445762634277,-0.06708213686943054,-0.08158364146947861,-0.48903870582580566,0.19809385667282156,-0.5298902009872115,-0.007701517948646373,-0.028031716406304526,-0.24451717540392137,0.0,0.0,-0.6,0.0,0.001976490020751953,0.003133058547973633,0.0064356327056884766,0
1.3007934093475342,-0.06655637919902802,-0.08135350048542023,-0.49111688137054443,0.19891846182862805,-0.529881744374812,-0.0074497173656916495,-0.02977686444647614,-0.24575644596847923,0.0,0.0,-0.6,0.0,0.0013515949249267578,0.0026619434356689453,0.005860328674316406,0
1.3114206790924072,-0.06603147834539413,-0.08112268894910812,-0.4931829869747162,0.19989769628580983,-0.5298870568354777,-0.00954900977414038,-0.03260724728022398,-0.2469911482851129,0.0,0.0,-0.6,0.0,0.0016551017761230469,0.0028450489044189453,0.006161928176879883,0
1.320444107055664,-0.06552090495824814,-0.08090125769376755,-0.4952372908592224,0.20079150245211966,-0.5298422798504171,-0.012256589179080839,-0.03454630596615617,-0.2481906172191227,0.0,0.0,-0.6,0.0,0.0014367103576660156,0.0026884078979492188,0.006033897399902344,0
1.3302347660064697,-0.06490243971347809,-0.08063670247793198,-0.49776968359947205,0.2018630156527727,-0.5297846668788565,-0.01516341551557342,-0.0319999617521052,-0.2494320629231744,0.0,0.0,-0.6,0.0,0.0014429092407226562,0.0026886463165283203,0.005604982376098633,0
1.3407621383666992,-0.06444767117500305,-0.08040076494216919,-0.4997558295726776,0.20251073871727976,-0.5298015176141643,-0.017772702784126328,-0.03120903098684168,-0.2505439710652009,0.0,0.0,-0.6,0.0,0.0018072128295898438,0.0031251907348632812,0.0067408084869384766,0
1.3504116535186768,-0.0640142485499382,-0.08015088737010956,-0.5017133355140686,0.2031968220748238,-0.529762629730665,-0.018861480057805684,-0.03204884942256235,-0.2515795880237129,0.0,0.0,-0.6,0.0,0.001386880874633789,0.0023331642150878906,0.005696773529052734,0
1.3611435890197754,-0.06359773129224777,-0.07988903671503067,-0.5036287307739258,0.20395585733914068,-0.5297802591190205,-0.020511896748795305,-0.03658003450675006,-0.25258915811877575,0.0,0.0,-0.6,0.0,0.0016303062438964844,0.0031042098999023438,0.006378889083862305,0
1.370833158493042,-0.06332226097583771,-0.07967948168516159,-0.5050466656684875,0.20476577445394437,-0.5297879099489535,-0.022310654115831326,-0.03577197567893468,-0.25359957610337114,0.0,0.0,-0.6,0.0,0.001836538314819336,0.0031859874725341797,0.006760120391845703,0
1.3818304538726807,-0.06294619292020798,-0.07942093163728714,-0.5069214105606079,0.20538691999144354,-0.5297534200675814,-0.019475378588175413,-0.03485805347031609,-0.25453979826916323,0.0,0.0,-0.6,0.0,0.001539468765258789,0.002662181854248047,0.006114959716796875,0
1.3909180164337158,-0.06259464472532272,-0.07915478199720383,-0.5087715983390808,0.2059697662695891,-0.5297888615963692,-0.01798777968498439,-0.03525410935335582,-0.2554165211395093,0.0,0.0,-0.6,0.0,0.002088785171508789,0.0033826828002929688,0.006773233413696289,0
1.4017350673675537,-0.062261175364255905,-0.07887739688158035,-0.5105869174003601,0.206567771414918,-0.5298172432485118,-0.01732479741184375,-0.03675998291363401,-0.25625447907824994,0.0,0.0,-0.6,0.0,0.001626729965209961,0.002734661102294922,0.00622105598449707,0
1.4110939502716064,-0.06204411759972572,-0.0786818340420723,-0.5119330286979675,0.20721398365519264,-0.529835435922944,-0.021237543551284852,-0.04099863707520598,-0.25708337922547136,0.0,0.0,-0.6,0.0,0.0020461082458496094,0.0033473968505859375,0.006213188171386719,0
1.4215872287750244,-0.06172959506511688,-0.0783921629190445,-0.5137090086936951,0.20767217339676997,-0.5299327502443254,-0.02383599535468559,-0.043273722960992474,-0.25783543048161794,0.0,0.0,-0.6,0.0,0.0013844966888427734,0.002423524856567383,0.0055866241455078125,0
1.4319581985473633,-0.06143152713775635,-0.07809889316558838,-0.5154575109481812,0.2081329301677374,-0.529943880060914,-0.02270255553994324,-0.044100474246336854,-0.2585346501500334,0.0,0.0,-0.6,0.0,0.0014181137084960938,0.0024809837341308594,0.005906105041503906,0
1.4407997131347656,-0.06094891205430031,-0.07759039849042892,-0.5184892416000366,0.20915292965190083,-0.5299641009155582,-0.024086005855811658,-0.04489715045417964,-0.2594066037244853,0.0,0.0,-0.6,0.0,0.002378225326538086,0.003701925277709961,0.007002830505371094,0
1.4517903327941895,-0.06068863719701767,-0.07727827876806259,-0.5202032923698425,0.20954993281192943,-0.530020368314064,-0.02654923078849789,-0.046726948309672084,-0.2601658474116231,0.0,0.0,-0.6,0.0,0.001922607421875,0.0031991004943847656,0.00657963752746582,0
1.461322546005249,-0.06045505777001381,-0.07694808393716812,-0.5218669176101685,0.2099801740595985,-0.5301002277277382,-0.028053203222279263,-0.048349807829051954,-0.2608586584604849,0.0,0.0,-0.6,0.0,0.00167083740234375,0.002855062484741211,0.006282806396484375,0
1.4710137844085693,-0.06045505777001381,-0.07694808393716812,-0.5218669176101685,0.2099801740595985,-0.5301645546968063,-0.029092130591612905,-0.04944622397670825,-0.26134362619468837,0.0,0.0,-0.6,0.0,0.0020503997802734375,0.003303050994873047,0.0068817138671875,0
1.4817306995391846,-0.059941813349723816,-0.07625274360179901,-0.5254917740821838,0.21091196256173117,-0.5302062791234254,-0.03122585029207188,-0.04549052790916574,-0.26203252429693036,0.0,0.0,-0.6,0.0,0.001764059066772461,0.0030198097229003906,0.006605625152587891,0
1.4908552169799805,-0.059941813349723816,-0.07625274360179901,-0.5254917740821838,0.21091196256173117,-0.5302359953470323,-0.032692227251112704,-0.04278149155728755,-0.26251475296849996,0.0,0.0,-0.6,0.0,0.002191781997680664,0.0033102035522460938,0.006201982498168945,0
1.500586986541748,-0.059759724885225296,-0.07592961192131042,-0.527047872543335,0.21122942358533908,-0.5302865946033903,-0.033899615492145346,-0.04394030485283246,-0.26297136092244533,0.0,0.0,-0.6,0.0,0.002061128616333008,0.003410816192626953,0.0065038204193115234,0
1.5114669799804688,-0.05958849564194679,-0.07559973001480103,-0.5285699367523193,0.21159328261546487,-0.530435756698721,-0.0369538121186816,-0.045946646553120196,-0.2634274336265106,0.0,0.0,-0.6,0.0,0.001461029052734375,0.0027227401733398438,0.006207942962646484,0
1.5204198360443115,-0.05947113409638405,-0.07531996816396713,-0.5296782851219177,0.21199269889005146,-0.5304717275821457,-0.03490105013466377,-0.043238180582156574,-0.2638964656223197,0.0,0.0,-0.6,0.0,0.001874685287475586,0.0030028820037841797,0.0060427188873291016,0
1.530496597290039,-0.05931425094604492,-0.07493863999843597,-0.5311406254768372,0.21225105656794485,-0.5305485552116518,-0.03242715151932694,-0.04027652345704694,-0.2643216721486027,0.0,0.0,-0.6,0.0,0.0025224685668945312,0.003929853439331055,0.0069844722747802734,0
1.54091215133667,-0.059161972254514694,-0.07457238435745239,-0.5325847864151001,0.21251028667627106,-0.5305906878629244,-0.029443769565789348,-0.03962995684434359,-0.26471652800762313,0.0,0.0,-0.6,0.0,0.0013453960418701172,0.002444028854370117,0.0052263736724853516,0
1.5500600337982178,-0.05893896147608757,-0.07386323809623718,-0.5350465178489685,0.21293636863531332,-0.5307070414492565,-0.03406980712524326,-0.04147013041982278,-0.2651527078435843,0.0,0.0,-0.6,0.0,0.0017893314361572266,0.0029363632202148438,0.006023883819580078,0
1.5600559711456299,-0.05881832540035248,-0.07346521317958832,-0.5364401340484619,0.21312871984496803,-0.5308414780028273,-0.03531568360933217,-0.04263790173412185,-0.2655301654323664,0.0,0.0,-0.6,0.0,0.001988649368286133,0.0032269954681396484,0.006279468536376953,0
1.57029390335083,-0.058706581592559814,-0.07302430272102356,-0.5378045439720154,0.21336658923522075,-0.5309560726296741,-0.03551586346691096,-0.041915926632871144,-0.26588358676586393,0.0,0.0,-0.6,0.0,0.0013632774353027344,0.002446413040161133,0.005598783493041992,0
1.5811591148376465,-0.05858086794614792,-0.07258366793394089,-0.539164125919342,0.2135914928636717,-0.5310288091208862,-0.03483680665538227,-0.04001022871160397,-0.2662153205599813,0.0,0.0,-0.6,0.0,0.0017158985137939453,0.0031709671020507812,0.0066792964935302734,0
1.5910372734069824,-0.05847590044140816,-0.07214970886707306,-0.5404931306838989,0.21376734688862367,-0.5311070303954732,-0.03495170425467944,-0.03841299727707859,-0.2665134794752205,0.0,0.0,-0.6,0.0,0.0018498897552490234,0.0034427642822265625,0.006183624267578125,0
1.600757122039795,-0.05847590044140816,-0.07214970886707306,-0.5404931306838989,0.21376734688862367,-0.5311683040644853,-0.035041180394280946,-0.03730619269073459,-0.26672219071588804,0.0,0.0,-0.6,0.0,0.0017619132995605469,0.003033876419067383,0.006531953811645508,0
1.6115763187408447,-0.05829283967614174,-0.07124146819114685,-0.5430853962898254,0.21399848628882392,-0.531169298156067,-0.03739946982875268,-0.03507189286352735,-0.26695496585943035,0.0,0.0,-0.6,0.0,0.002101421356201172,0.003239870071411133,0.00676417350769043,0
1.622786521911621,-0.05821583420038223,-0.07079563289880753,-0.5443618893623352,0.21405971796161902,-0.5311780260498878,-0.04039857509546764,-0.031865123974539986,-0.2671408703372082,0.0,0.0,-0.6,0.0,0.0014386177062988281,0.0025136470794677734,0.005682229995727539,0
1.6312472820281982,-0.05816788226366043,-0.07034366577863693,-0.5456119775772095,0.21401100117029295,-0.5311579951094856,-0.04339380224729032,-0.02915388730303281,-0.26725273467490546,0.0,0.0,-0.6,0.0,0.0011830329895019531,0.002060413360595703,0.004721164703369141,0
1.6398165225982666,-0.058113113045692444,-0.06987898051738739,-0.5468368530273438,0.2140765550660158,-0.531239511518787,-0.045901967412345146,-0.027060493947183267,-0.26735562242218963,0.0,0.0,-0.6,0.0,0.0011944770812988281,0.0020945072174072266,0.004280805587768555,0
1.6501328945159912,-0.05805842578411102,-0.06940700858831406,-0.5480515360832214,0.2141207487876494,-0.5312685831033116,-0.0452443194510672,-0.025260343610507826,-0.26744421649090117,0.0,0.0,-0.6,0.0,0.001973867416381836,0.0032100677490234375,0.00595402717590332,0
1.660965919494629,-0.05801397189497948,-0.06892570853233337,-0.5492454767227173,0.21411613733451626,-0.5313881007356306,-0.042970145551514,-0.026304453167198913,-0.26750450304407347,0.0,0.0,-0.6,0.0,0.0021507740020751953,0.0033948421478271484,0.006346225738525391,0
1.6715977191925049,-0.057953763753175735,-0.06843164563179016,-0.5504097938537598,0.21413099483498002,-0.5314922231654082,-0.03876613043076664,-0.02539492854810745,-0.2675522751939689,0.0,0.0,-0.6,0.0,0.0017323493957519531,0.002811908721923828,0.006553173065185547,0
1.6818335056304932,-0.05788392946124077,-0.06792328506708145,-0.5515714883804321,0.21426799270931077,-0.5316024713980302,-0.03524330869268693,-0.02288597942837441,-0.2676370899017685,0.0,0.0,-0.6,0.0,0.0020036697387695312,0.0032148361206054688,0.0065114498138427734,0
1.6905932426452637,-0.05788392946124077,-0.06792328506708145,-0.5515714883804321,0.21426799270931077,-0.5316890149787867,-0.03284888425745727,-0.021148184636922834,-0.2676964601972294,0.0,0.0,-0.6,0.0,0.001379251480102539,0.002503633499145508,0.0055391788482666016,0
1.7005643844604492,-0.05778368562459946,-0.06688796728849411,-0.5538214445114136,0.21429985848873587,-0.5317592705119464,-0.03321000237375733,-0.01811893397768075,-0.26774996907133647,0.0,0.0,-0.6,0.0,0.0021009445190429688,0.0034694671630859375,0.006644725799560547,0
1.7124364376068115,-0.0577295646071434,-0.06638369709253311,-0.5549129843711853,0.21420205473822226,-0.5318160614421478,-0.035399245855242074,-0.015329037466945814,-0.26775074887676886,0.0,0.0,-0.6,0.0,0.0018770694732666016,0.003194570541381836,0.0062885284423828125,0
1.7201268672943115,-0.0577295646071434,-0.06638369709253311,-0.5549129843711853,0.21420205473822226,-0.5318590751067549,-0.03690102581801083,-0.013410505656939267,-0.2677512947405716,0.0,0.0,-0.6,0.0,0.0024068355560302734,0.0036516189575195312,0.006373405456542969,0
1.7306385040283203,-0.057691946625709534,-0.0658847987651825,-0.555977463722229,0.21409331617478122,-0.5318941639777114,-0.03833111546286455,-0.011842867090877637,-0.2677108998839431,0.0,0.0,-0.6,0.0,0.0019845962524414062,0.003086566925048828,0.006032466888427734,0
1.7401564121246338,-0.057634271681308746,-0.06486411392688751,-0.5579935908317566,0.21398492405581157,-0.5319587197567132,-0.037670616391146744,-0.007373200010998341,-0.26764197643968957,0.0,0.0,-0.6,0.0,0.0014348030090332031,0.0025129318237304688,0.0055658817291259766,0
1.7505474090576172,-0.0576038584113121,-0.06435506045818329,-0.5589661002159119,0.2139815640459208,-0.5321124181534034,-0.03596185250480305,-0.004812976236029887,-0.2675924700250031,0.0,0.0,-0.6,0.0,0.0020477771759033203,0.003019094467163086,0.0065267086029052734,0
1.7600162029266357,-0.0576038584113121,-0.06435506045818329,-0.5589661002159119,0.2139815640459208,-0.5322335530484553,-0.03480663128822354,-0.0030315928684286524,-0.26755781553472247,0.0,0.0,-0.6,0.0,0.0021202564239501953,0.003454446792602539,0.006349325180053711,0
1.770542860031128,-0.057573337107896805,-0.06332530826330185,-0.5607755780220032,0.21385535730407954,-0.5324781709040941,-0.0319385102092482,-0.0023622869537642636,-0.26748622986333564,0.0,0.0,-0.6,0.0,0.0022859573364257812,0.003610372543334961,0.006705522537231445,0
1.7804179191589355,-0.057552747428417206,-0.06281200796365738,-0.5616424083709717,0.21373119491010084,-0.532652344141616,-0.0266663610801698,-0.0011505846622824883,-0.26738955899562283,0.0,0.0,-0.6,0.0,0.0016841888427734375,0.002973318099975586,0.01256871223449707,0
1.7949159145355225,-0.057552747428417206,-0.06281200796365738,-0.5616424083709717,0.21373119491010084,-0.532790875410777,-0.023078529566934583,-0.00028736504805679567,-0.2673218893882239,0.0,0.0,-0.6,0.0,0.0013828277587890625,0.002460956573486328,0.005572795867919922,0
1.8044090270996094,-0.057526689022779465,-0.06174284964799881,-0.5632584691047668,0.21345540242256114,-0.5330299982860869,-0.023376002122685046,0.0009887280739321901,-0.2671710984802173,0.0,0.0,-0.6,0.0,0.0015108585357666016,0.002843141555786133,0.005994319915771484,0
1.813962697982788,-0.05748274177312851,-0.061181265860795975,-0.5640101432800293,0.21326532798809522,-0.5332692828165552,-0.026657766895339434,0.001326716826398625,-0.266994266931688,0.0,0.0,-0.6,0.0,0.0014030933380126953,0.0030624866485595703,0.005846738815307617,0
1.8219788074493408,-0.05748274177312851,-0.061181265860795975,-0.5640101432800293,0.21326532798809522,-0.5334595786017792,-0.02892191217003356,0.0016068739203675972,-0.2668704848477174,0.0,0.0,-0.6,0.0,0.002773761749267578,0.00412440299987793,0.006878852844238281,0
1.831502914428711,-0.057421352714300156,-0.06008707359433174,-0.5654079914093018,0.21288736513917986,-0.5337398655690259,-0.03420984339045656,0.0033441035865196707,-0.26664210132059485,0.0,0.0,-0.6,0.0,0.001524209976196289,0.002778768539428711,0.0058515071868896484,0
1.8414199352264404,-0.05740544572472572,-0.05954524129629135,-0.5660480856895447,0.21266177170527506,-0.5339845592206599,-0.03438811131064725,0.006020683979218448,-0.26639763531389477,0.0,0.0,-0.6,0.0,0.0013949871063232422,0.0025763511657714844,0.00586390495300293,0
1.8511524200439453,-0.05738747492432594,-0.058897990733385086,-0.5667715668678284,0.21243224393891133,-0.5342771578897013,-0.03172165637775559,0.0020370502103123286,-0.2661404361968184,0.0,0.0,-0.6,0.0,0.001264333724975586,0.0032815933227539062,0.006097316741943359,0
1.8616418838500977,-0.05738634988665581,-0.05836888402700424,-0.5673412680625916,0.21227325019247767,-0.5345321152136103,-0.02774671260592555,0.0014589063008861563,-0.2659007741599522,0.0,0.0,-0.6,0.0,0.0017542839050292969,0.003003358840942383,0.006372928619384766,0
1.871088981628418,-0.057400673627853394,-0.057832103222608566,-0.5678775906562805,0.2121128548889638,-0.5348015122524191,-0.024955433847842025,0.0029344295592256464,-0.26567286249532823,0.0,0.0,-0.6,0.0,0.0017137527465820312,0.0028624534606933594,0.0063610076904296875,0
1.8807497024536133,-0.057400673627853394,-0.057832103222608566,-0.5678775906562805,0.2121128548889638,-0.5350156507192826,-0.02306554144136948,0.0040026122819257345,-0.26551332433009134,0.0,0.0,-0.6,0.0,0.0017185211181640625,0.003071308135986328,0.0064334869384765625,0
1.8905808925628662,-0.057424839586019516,-0.057196199893951416,-0.5684888362884521,0.21160054099449774,-0.5351847234954064,-0.02347637115408094,0.008361060098938597,-0.2652095299040009,0.0,0.0,-0.6,0.0,0.0017518997192382812,0.002984285354614258,0.006643772125244141,0
1.9002611637115479,-0.05744238570332527,-0.05663333088159561,-0.568947434425354,0.21135978622637352,-0.5354538539539181,-0.0235577424923527,0.011634250534649955,-0.264906590767691,0.0,0.0,-0.6,0.0,0.00206756591796875,0.003320455551147461,0.006638526916503906,0
1.9119739532470703,-0.05744610354304314,-0.05606542527675629,-0.5693697333335876,0.2111832211896514,-0.5356344405788395,-0.02155131246822336,0.015263344045095151,-0.2646283214835071,0.0,0.0,-0.6,0.0,0.0018773078918457031,0.003103971481323242,0.00623321533203125,0
1.921424150466919,-0.05743458867073059,-0.05550951510667801,-0.5697850584983826,0.21095094244858695,-0.5358415464291802,-0.018745639331240932,0.017440880746348447,-0.2643464284566754,0.0,0.0,-0.6,0.0,0.001497030258178711,0.0029163360595703125,0.006196737289428711,0
1.9320082664489746,-0.05735404044389725,-0.05440690368413925,-0.5704941749572754,0.21039556355496186,-0.5360435906526264,-0.01713623879869853,0.018917977249784727,-0.26394083625278386,0.0,0.0,-0.6,0.0,0.0014238357543945312,0.0024445056915283203,0.005805015563964844,0
1.9402034282684326,-0.05735404044389725,-0.05440690368413925,-0.5704941749572754,0.21039556355496186,-0.5362041297472484,-0.016049699333554285,0.01996841911197673,-0.26365692171005967,0.0,0.0,-0.6,0.0,0.0019195079803466797,0.0030341148376464844,0.0069637298583984375,0
1.950690746307373,-0.05734604597091675,-0.053846850991249084,-0.5708417892456055,0.2101555450629532,-0.5365009352673686,-0.018326733725872162,0.018153084883992598,-0.2633681745956535,0.0,0.0,-0.6,0.0,0.0014171600341796875,0.0030510425567626953,0.0058362483978271484,0
1.9606728553771973,-0.05728614702820778,-0.0528152771294117,-0.5713826417922974,0.2095234241309914,-0.5367267149180396,-0.013712693736237687,0.02228426211909572,-0.2629290062660797,0.0,0.0,-0.6,0.0,0.001743316650390625,0.0031366348266601562,0.006560325622558594,0
1.9723806381225586,-0.05724252387881279,-0.052275754511356354,-0.5716422200202942,0.20917467885530117,-0.5369738506805947,-0.009256305325870377,0.02713694080765782,-0.26249080895699417,0.0,0.0,-0.6,0.0,0.0020449161529541016,0.003409147262573242,0.006441593170166016,0
1.9809305667877197,-0.05724252387881279,-0.052275754511356354,-0.5716422200202942,0.20917467885530117,-0.5371685587333287,-0.006224545889745501,0.030503060242615395,-0.26218407084063416,0.0,0.0,-0.6,0.0,0.0013623237609863281,0.0027878284454345703,0.0056302547454833984,0
1.990396499633789,-0.05719315633177757,-0.05176028236746788,-0.5718786716461182,0.20889777839855536,-0.5373159040573251,-0.001681152006345099,0.03156465659717163,-0.26186551648790246,0.0,0.0,-0.6,0.0,0.0018496513366699219,0.003155231475830078,0.006722927093505859,0
2.001633882522583,-0.05710330232977867,-0.050823554396629333,-0.5722490549087524,0.20829226135337578,-0.5375695316952568,-0.0022000766496061176,0.03188725463320533,-0.2614154595490481,0.0,0.0,-0.6,0.0,0.002149343490600586,0.0035486221313476562,0.006417751312255859,0
2.0134451389312744,-0.05704353749752045,-0.05033957585692406,-0.5724303126335144,0.20794973568702288,-0.5378262945297844,0.0013230061180055015,0.03218191174216396,-0.2609719725669677,0.0,0.0,-0.6,0.0,0.001683950424194336,0.0030617713928222656,0.006020069122314453,0
2.0213024616241455,-0.05704353749752045,-0.05033957585692406,-0.5724303126335144,0.20794973568702288,-0.538031356089055,0.0037152591668107022,0.032432684514894186,-0.2606615316795113,0.0,0.0,-0.6,0.0,0.001683950424194336,0.0027871131896972656,0.0064487457275390625,0
2.030198812484741,-0.05694815516471863,-0.0494263730943203,-0.5727167129516602,0.2072921117986591,-0.5382132281302013,0.009262801742734587,0.03320506364808404,-0.2601976141001555,0.0,0.0,-0.6,0.0,0.0022630691528320312,0.0034797191619873047,0.006684780120849609,0
2.0408918857574463,-0.0569046325981617,-0.04906168580055237,-0.5728276968002319,0.20698277265543646,-0.5384320202558425,0.013633490242368995,0.03247026035241675,-0.259756869615898,0.0,0.0,-0.6,0.0,0.0019888877868652344,0.003317117691040039,0.006434440612792969,0
2.049978494644165,-0.056842606514692307,-0.04862188175320625,-0.5729259252548218,0.2065566974108678,-0.5386129624437158,0.017653624651668205,0.032102394397760886,-0.25928857026020447,0.0,0.0,-0.6,0.0,0.001329660415649414,0.0024175643920898438,0.005310535430908203,0
2.060718297958374,-0.056783340871334076,-0.048189785331487656,-0.5730167031288147,0.2062134204997975,-0.5388370779389379,0.017824794315504117,0.03319624411262364,-0.25883203186956133,0.0,0.0,-0.6,0.0,0.0019009113311767578,0.003024578094482422,0.006461620330810547,0
2.0713555812835693,-0.05672406032681465,-0.047743771225214005,-0.5730730891227722,0.20591849810124951,-0.5390370329576751,0.017485582754924896,0.03533192487866271,-0.2584018590966619,0.0,0.0,-0.6,0.0,0.0021448135375976562,0.003495454788208008,0.00753021240234375,0
2.080186367034912,-0.05672406032681465,-0.047743771225214005,-0.5730730891227722,0.20591849810124951,-0.5391953781925275,0.01723940349628298,0.036831579761823996,-0.2581007381556322,0.0,0.0,-0.6,0.0,0.0016918182373046875,0.002814054489135742,0.006163597106933594,0
2.0902674198150635,-0.05663008615374565,-0.04690317437052727,-0.5731614232063293,0.20513631607378002,-0.5393927809946101,0.019992798005810327,0.03699600302103528,-0.2575966352366106,0.0,0.0,-0.6,0.0,0.001672983169555664,0.0031270980834960938,0.00645756721496582,0
2.1007657051086426,-0.05655474588274956,-0.04647373780608177,-0.5731731057167053,0.2046503250064039,-0.5394741685002559,0.02504652299219949,0.04091581416689514,-0.257061516543022,0.0,0.0,-0.6,0.0,0.0013730525970458984,0.0024814605712890625,0.0054972171783447266,0
2.111638307571411,-0.056411318480968475,-0.04566783830523491,-0.5731589198112488,0.20364078802783597,-0.5396202686181467,0.028605362551162514,0.045677251856552484,-0.25630835709055466,0.0,0.0,-0.6,0.0,0.0014314651489257812,0.0024862289428710938,0.005286455154418945,0
2.1209394931793213,-0.056328363716602325,-0.04526437446475029,-0.5731199979782104,0.2030046117001754,-0.5397995378407804,0.029227962522800695,0.048411091332115234,-0.2555425793509548,0.0,0.0,-0.6,0.0,0.0012619495391845703,0.0022797584533691406,0.005355119705200195,0
2.130035877227783,-0.056328363716602325,-0.04526437446475029,-0.5731199979782104,0.2030046117001754,-0.5399416303916059,0.029640465282931728,0.05031174509556746,-0.2550065349332272,0.0,0.0,-0.6,0.0,0.0011963844299316406,0.002047300338745117,0.0047168731689453125,0
2.1398887634277344,-0.05621630325913429,-0.044884223490953445,-0.5730993747711182,0.20248248675326153,-0.5400014933100691,0.030760815233833262,0.0502527410230171,-0.2544355069857327,0.0,0.0,-0.6,0.0,0.0011758804321289062,0.002012014389038086,0.0044252872467041016,0
2.150406837463379,-0.05599077045917511,-0.0441606380045414,-0.5729966163635254,0.2013087996098816,-0.5401722827704867,0.03275565266100285,0.04871254592661379,-0.2535956547437193,0.0,0.0,-0.6,0.0,0.001245737075805664,0.002324342727661133,0.005120754241943359,0
2.1600139141082764,-0.05599077045917511,-0.0441606380045414,-0.5729966163635254,0.2013087996098816,-0.5403095204869656,0.03410557644158866,0.04768774127986205,-0.2530077581743097,0.0,0.0,-0.6,0.0,0.0021674633026123047,0.003507852554321289,0.006690263748168945,0
2.17065167427063,-0.05586405470967293,-0.04381876811385155,-0.5729497671127319,0.20079139755136088,-0.5403377059019434,0.03692721180888799,0.049170411464720495,-0.25240220480377773,0.0,0.0,-0.6,0.0,0.0018763542175292969,0.003154754638671875,0.006054878234863281,0
2.180175304412842,-0.05572792515158653,-0.04348256066441536,-0.572912335395813,0.20022926635626492,-0.5404074251365233,0.03894412572305433,0.05064314537109092,-0.2517675182462444,0.0,0.0,-0.6,0.0,0.0020415782928466797,0.003220081329345703,0.00594019889831543,0
2.1900298595428467,-0.05558007210493088,-0.043130721896886826,-0.5728530287742615,0.1996308053727223,-0.5404497587945307,0.040066036709088926,0.053942430823018916,-0.2510988147871426,0.0,0.0,-0.6,0.0,0.0019807815551757812,0.0032269954681396484,0.006111860275268555,0
2.199976921081543,-0.05558007210493088,-0.043130721896886826,-0.5728530287742615,0.1996308053727223,-0.5404827930806793,0.04083008052640051,0.056204723022160306,-0.2506307223657711,0.0,0.0,-0.6,0.0,0.002073526382446289,0.003011941909790039,0.005908489227294922,0
2.211794853210449,-0.05558007210493088,-0.043130721896886826,-0.5728530287742615,0.1996308053727223,-0.5405087364296385,0.04134972121552304,0.05775650035535782,-0.25030305767081096,0.0,0.0,-0.6,0.0,0.001623392105102539,0.0027375221252441406,0.0061187744140625,0
2.220128297805786,-0.05558007210493088,-0.043130721896886826,-0.5728530287742615,0.1996308053727223,-0.5405291950717027,0.04170266471881286,0.058821379819458335,-0.25007369238433874,0.0,0.0,-0.6,0.0,0.0019638538360595703,0.0029141902923583984,0.0058345794677734375,0
