time,x,y,z,yaw,throttle,roll_rate,pitch_rate,yaw_rate,x_ref,y_ref,z_ref,yaw_ref,pred_time,nr_time,ctrl_callback_time,metadata
3.814697265625e-06,-0.1590273678302765,0.013793446123600006,-0.2392861247062683,-0.04712264292204689,-0.5324827214714825,-0.0005326506756759619,-0.07769034716908955,0.017670991095765243,0.0,0.0,-0.6,0.0,0.0015196800231933594,0.002706289291381836,0.00523829460144043,Hardware
0.01079249382019043,-0.1590273678302765,0.013793446123600006,-0.2392861247062683,-0.04712264292204689,-0.5413986054377516,-0.0014441186744368324,-0.13068309659352845,0.030040684862812347,0.0,0.0,-0.6,0.0,0.002000093460083008,0.002997875213623047,0.006066083908081055,Nonlinear
0.019298791885375977,-0.15903201699256897,0.013798381201922894,-0.23927822709083557,-0.047060174225962724,-0.548480056523352,-0.0025604477546020714,-0.16542627970237156,0.03867604473871101,0.0,0.0,-0.6,0.0,0.0013165473937988281,0.0024993419647216797,0.005276918411254883,2x Speed
0.029325008392333984,-0.15903382003307343,0.013794994913041592,-0.23927558958530426,-0.047122139120210904,-0.5541316711438534,-0.003030292480509608,-0.1876533947369888,0.04474403348718125,0.0,0.0,-0.6,0.0,0.0023355484008789062,0.004408836364746094,0.007244586944580078,0OrderHold
0.040979862213134766,-0.15903303027153015,0.013792802579700947,-0.23928169906139374,-0.04710711621862507,-0.5585415067812299,-0.0037848361912083584,-0.20006879249732157,0.04898599202300703,0.0,0.0,-0.6,0.0,0.0017628669738769531,0.0032491683959960938,0.006445884704589844,QuatYawError
0.05007624626159668,-0.15903303027153015,0.013792802579700947,-0.23928169906139374,-0.04710711621862507,-0.562062858335939,-0.004218236297907532,-0.2069886119339531,0.05195536299808893,0.0,0.0,-0.6,0.0,0.0015897750854492188,0.0036902427673339844,0.00722813606262207,NoPyJoules
0.06021308898925781,-0.1590317189693451,0.013795227743685246,-0.2393561601638794,-0.047017296299579125,-0.5648573338629966,-0.004297574479459931,-0.2094999565023841,0.05400024021100415,0.0,0.0,-0.6,0.0,0.0016736984252929688,0.0026559829711914062,0.0061380863189697266,0
0.070953369140625,-0.1590193212032318,0.01379359420388937,-0.23939742147922516,-0.04676545423393603,-0.5671041782773678,-0.0025039025990093748,-0.20912058619606091,0.055337213485427576,0.0,0.0,-0.6,0.0,0.0023555755615234375,0.0037603378295898438,0.008512020111083984,0
0.08134007453918457,-0.1590193212032318,0.01379359420388937,-0.23939742147922516,-0.04676545423393603,-0.5688854394661663,-0.001206251581969315,-0.20795334561983675,0.05627309477752519,0.0,0.0,-0.6,0.0,0.0016605854034423828,0.0032334327697753906,0.0069773197174072266,0
0.09068012237548828,-0.15893973410129547,0.0137704499065876,-0.23948414623737335,-0.046372771616146655,-0.570296579323063,-0.0021987111625585932,-0.20596288139508293,0.056780955700323,0.0,0.0,-0.6,0.0,0.0026874542236328125,0.004791736602783203,0.008641958236694336,0
0.10373783111572266,-0.15893973410129547,0.0137704499065876,-0.23948414623737335,-0.046372771616146655,-0.5714114941534666,-0.0028462341344514526,-0.20402361803120383,0.05713645834628074,0.0,0.0,-0.6,0.0,0.0016841888427734375,0.0034673213958740234,0.008330106735229492,0
0.11482667922973633,-0.15885242819786072,0.013726306147873402,-0.239581897854805,-0.04660134542089673,-0.5723199898705704,0.002897721610156978,-0.19923645109818114,0.057471025375233034,0.0,0.0,-0.6,0.0,0.0018317699432373047,0.0031905174255371094,0.006765842437744141,0
0.1248621940612793,-0.15885242819786072,0.013726306147873402,-0.239581897854805,-0.04660134542089673,-0.5730287163583324,0.006867651699076702,-0.19558006285848872,0.05770522229549957,0.0,0.0,-0.6,0.0,0.001928091049194336,0.003319978713989258,0.007394313812255859,0
0.13534259796142578,-0.15868085622787476,0.013695944100618362,-0.2397157996892929,-0.04656556200488623,-0.5734719687004007,0.007887486789132515,-0.19010888951978264,0.057855741358681885,0.0,0.0,-0.6,0.0,0.001979351043701172,0.003706216812133789,0.008557796478271484,0
0.14789724349975586,-0.15842841565608978,0.013583147898316383,-0.23997768759727478,-0.04594907631602267,-0.5736289171392123,0.004565076327493069,-0.18217483631154632,0.05772992256958584,0.0,0.0,-0.6,0.0,0.002489805221557617,0.00389862060546875,0.009552478790283203,0
0.1607344150543213,-0.15842841565608978,0.013583147898316383,-0.23997768759727478,-0.04594907631602267,-0.5737355425881877,0.0022871849595057395,-0.17665520317824795,0.05764184941721868,0.0,0.0,-0.6,0.0,0.002312898635864258,0.0044689178466796875,0.009537220001220703,0
0.17348337173461914,-0.15804506838321686,0.013443509116768837,-0.24051915109157562,-0.04465432130455103,-0.5737516226487481,0.0038923513230880993,-0.16801057099335992,0.057094665081259786,0.0,0.0,-0.6,0.0,0.002053499221801758,0.004450559616088867,0.00957798957824707,0
0.18596434593200684,-0.15804506838321686,0.013443509116768837,-0.24051915109157562,-0.04465432130455103,-0.5737454972855224,0.004992051972081158,-0.16205765244610792,0.05671163604608887,0.0,0.0,-0.6,0.0,0.0021457672119140625,0.003847837448120117,0.008889913558959961,0
0.1993856430053711,-0.15739451348781586,0.013075231574475765,-0.2416125237941742,-0.04159827739332814,-0.5733816558828007,0.011353452660377229,-0.1445713283776208,0.05529749925476168,0.0,0.0,-0.6,0.0,0.0020401477813720703,0.003964424133300781,0.009093761444091797,0
0.2121284008026123,-0.15739451348781586,0.013075231574475765,-0.2416125237941742,-0.04159827739332814,-0.57305192805882,0.015699889224077192,-0.13269664800758757,0.05430760350083135,0.0,0.0,-0.6,0.0,0.0019724369049072266,0.003501415252685547,0.008432626724243164,0
0.22495055198669434,-0.15696756541728973,0.012853562831878662,-0.24301210045814514,-0.038900764571593804,-0.5721122482353528,0.020913009651365957,-0.11440352439824855,0.05260310916492985,0.0,0.0,-0.6,0.0,0.002608776092529297,0.00477290153503418,0.00977182388305664,0
0.2378537654876709,-0.1564360409975052,0.012617562897503376,-0.24497751891613007,-0.03563870900405826,-0.5708709290242994,0.02199003369457288,-0.09036755114988532,0.05018669229197306,0.0,0.0,-0.6,0.0,0.0021593570709228516,0.004628896713256836,0.009687423706054688,0
0.2515418529510498,-0.1564360409975052,0.012617562897503376,-0.24497751891613007,-0.03563870900405826,-0.5698316408521252,0.022723727971575233,-0.0744098916488034,0.048495200480903215,0.0,0.0,-0.6,0.0,0.0024313926696777344,0.0042035579681396484,0.0093841552734375,0
0.2645730972290039,-0.15589748322963715,0.012323564849793911,-0.2473229467868805,-0.03226443617871557,-0.568671594178184,0.020948508154064075,-0.05860537643075739,0.04604580390364879,0.0,0.0,-0.6,0.0,0.0024900436401367188,0.00478672981262207,0.010257720947265625,0
0.2771904468536377,-0.15589748322963715,0.012323564849793911,-0.2473229467868805,-0.03226443617871557,-0.5677199879289537,0.019742702573957844,-0.048245552734073084,0.04433122629957421,0.0,0.0,-0.6,0.0,0.0023610591888427734,0.004578113555908203,0.00935983657836914,0
0.2910432815551758,-0.15509651601314545,0.011816246435046196,-0.25165441632270813,-0.02623075161608592,-0.5662183196580497,0.019855291307835896,-0.031074892348510595,0.04086839026573462,0.0,0.0,-0.6,0.0,0.002739429473876953,0.004844188690185547,0.010069131851196289,0
0.3038790225982666,-0.15509651601314545,0.011816246435046196,-0.25165441632270813,-0.02623075161608592,-0.5649937779294755,0.019940701130148442,-0.019943416000707048,0.03844440504204888,0.0,0.0,-0.6,0.0,0.002243518829345703,0.004270315170288086,0.009027242660522461,0
0.31661081314086914,-0.1543079912662506,0.010981098748743534,-0.25737226009368896,-0.019234215406894274,-0.56308841522918,0.023248583983227263,-0.007500647292987939,0.03412391430702202,0.0,0.0,-0.6,0.0,0.0023784637451171875,0.004324674606323242,0.009649038314819336,0
0.32964611053466797,-0.1543079912662506,0.010981098748743534,-0.25737226009368896,-0.019234215406894274,-0.5615535424177677,0.02552799345036683,0.00022612247446478478,0.031099570792497228,0.0,0.0,-0.6,0.0,0.002118349075317383,0.004442930221557617,0.009079933166503906,0
0.3419456481933594,-0.15389029681682587,0.010466855950653553,-0.261928528547287,-0.01432773982741046,-0.5596871087106352,0.0293874570164603,0.011831960772401715,0.02714260199002579,0.0,0.0,-0.6,0.0,0.002332925796508789,0.003975391387939453,0.007742166519165039,0
0.35431480407714844,-0.15331430733203888,0.009984583593904972,-0.2670076787471771,-0.009057395274098537,-0.5576913254612126,0.029127037850962035,0.02869123151476819,0.022396344620805635,0.0,0.0,-0.6,0.0,0.0024843215942382812,0.004725217819213867,0.010214567184448242,0
0.36809515953063965,-0.15331430733203888,0.009984583593904972,-0.2670076787471771,-0.009057395274098537,-0.5560791901698595,0.028984558392705143,0.039435096393201675,0.019073964462351337,0.0,0.0,-0.6,0.0,0.0024809837341308594,0.003939390182495117,0.009145259857177734,0
0.38051939010620117,-0.15251576900482178,0.009600076824426651,-0.2726350426673889,-0.003776729364686659,-0.5541786353233792,0.028596858198126445,0.06145253518702749,0.014768048635402134,0.0,0.0,-0.6,0.0,0.0020759105682373047,0.0034818649291992188,0.008956432342529297,0
0.3917202949523926,-0.15251576900482178,0.009600076824426651,-0.2726350426673889,-0.003776729364686659,-0.5526388452395259,0.028372551264904407,0.07581839874338239,0.011753907556538738,0.0,0.0,-0.6,0.0,0.0016083717346191406,0.003117084503173828,0.006291389465332031,0
0.4012792110443115,-0.15171456336975098,0.009144526906311512,-0.2786896824836731,0.0019139571842977836,-0.5508952559278745,0.02262715867439882,0.08344052157618191,0.0075100013454660105,0.0,0.0,-0.6,0.0,0.0013628005981445312,0.002914905548095703,0.006454944610595703,0
0.4114856719970703,-0.15171456336975098,0.009144526906311512,-0.2786896824836731,0.0019139571842977836,-0.5494988571788896,0.01877707490943602,0.0880902357889168,0.004539266997714932,0.0,0.0,-0.6,0.0,0.0012726783752441406,0.002538919448852539,0.005951642990112305,0
0.42040586471557617,-0.15086908638477325,0.008634455502033234,-0.28500595688819885,0.007750574116316142,-0.5479501476354378,0.0189192927521103,0.09531231965844271,0.0002710216047815397,0.0,0.0,-0.6,0.0,0.002084970474243164,0.0035903453826904297,0.007378101348876953,0
0.43173861503601074,-0.1499904841184616,0.008038085885345936,-0.2916163206100464,0.013922831741804184,-0.5463204388358927,0.012174143963287335,0.10378551796843516,-0.005031346779829938,0.0,0.0,-0.6,0.0,0.0015270709991455078,0.0028002262115478516,0.006143093109130859,0
0.44028615951538086,-0.1499904841184616,0.008038085885345936,-0.2916163206100464,0.013922831741804184,-0.5450146381158161,0.007614857394994527,0.10908222999963685,-0.008743004649057032,0.0,0.0,-0.6,0.0,0.0022199153900146484,0.0038988590240478516,0.007768154144287109,0
0.4498155117034912,-0.1499904841184616,0.008038085885345936,-0.2916163206100464,0.013922831741804184,-0.54397039541756,0.0045329458104479015,0.11233149450041952,-0.011341165157516429,0.0,0.0,-0.6,0.0,0.0016694068908691406,0.0029315948486328125,0.006644248962402344,0
0.4607846736907959,-0.14888422191143036,0.007436199113726616,-0.2986571788787842,0.020108873983484907,-0.5424244027332853,0.002148508398689315,0.11591849486460425,-0.015479643354068689,0.0,0.0,-0.6,0.0,0.0017826557159423828,0.0031375885009765625,0.007078409194946289,0
0.47110867500305176,-0.14760097861289978,0.007007543928921223,-0.30615201592445374,0.02646755288888735,-0.5408136636700901,0.003624879652607301,0.12188074903219809,-0.020761082681178992,0.0,0.0,-0.6,0.0,0.0019516944885253906,0.0035102367401123047,0.007232189178466797,0
0.481278657913208,-0.14760097861289978,0.007007543928921223,-0.30615201592445374,0.02646755288888735,-0.5395259743557191,0.004644846192403651,0.12551726817013925,-0.02445809021015756,0.0,0.0,-0.6,0.0,0.0016434192657470703,0.0030074119567871094,0.0071604251861572266,0
0.4907560348510742,-0.14638839662075043,0.006345906760543585,-0.31385430693626404,0.03270749651826399,-0.5380622318804065,0.013713303065561788,0.1211121681640541,-0.02938597434146077,0.0,0.0,-0.6,0.0,0.0015971660614013672,0.0028464794158935547,0.00661921501159668,0
0.5001518726348877,-0.14638839662075043,0.006345906760543585,-0.31385430693626404,0.03270749651826399,-0.5368944555967822,0.01994596309796955,0.1177634830542393,-0.03283549323337108,0.0,0.0,-0.6,0.0,0.0018703937530517578,0.0033142566680908203,0.007339000701904297,0
0.5123608112335205,-0.14582955837249756,0.006050785072147846,-0.317813515663147,0.035905921781038644,-0.535772912878625,0.02165000833852121,0.11839930394866024,-0.03644956593125347,0.0,0.0,-0.6,0.0,0.0016007423400878906,0.002826213836669922,0.006365537643432617,0
0.520533561706543,-0.14582955837249756,0.006050785072147846,-0.317813515663147,0.035905921781038644,-0.5348773200610287,0.022868365018221336,0.11854549788231179,-0.03897941681976549,0.0,0.0,-0.6,0.0,0.0019750595092773438,0.0035552978515625,0.00674128532409668,0
0.531951904296875,-0.14439228177070618,0.00555049255490303,-0.32602405548095703,0.04220332334377519,-0.5335570414199614,0.023513556915121997,0.12774318238080767,-0.0431118380277492,0.0,0.0,-0.6,0.0,0.002218961715698242,0.003947734832763672,0.009135961532592773,0
0.5440263748168945,-0.14301137626171112,0.005004283040761948,-0.334424763917923,0.04840951219468179,-0.5324627578386729,0.017808169686395113,0.12587308097953104,-0.04833185369242489,0.0,0.0,-0.6,0.0,0.0026009082794189453,0.004862070083618164,0.009346723556518555,0
0.5566325187683105,-0.14301137626171112,0.005004283040761948,-0.334424763917923,0.04840951219468179,-0.5315866472291386,0.013987082999930216,0.12434035311136636,-0.05198586465770578,0.0,0.0,-0.6,0.0,0.002448558807373047,0.003929853439331055,0.009267568588256836,0
0.5688929557800293,-0.14164483547210693,0.004392425529658794,-0.34279608726501465,0.05453509264181714,-0.5302894473342427,0.005609284505237526,0.1192617412400612,-0.05684076500107062,0.0,0.0,-0.6,0.0,0.001997709274291992,0.0034193992614746094,0.009034156799316406,0
0.579298734664917,-0.14164483547210693,0.004392425529658794,-0.34279608726501465,0.05453509264181714,-0.5292501891268276,-2.858877261411978e-05,0.11551033568456784,-0.060239195241430406,0.0,0.0,-0.6,0.0,0.0023374557495117188,0.00475621223449707,0.009603023529052734,0
0.5939407348632812,-0.13933570683002472,0.003463809145614505,-0.3559214770793915,0.06370262632262531,-0.5279224738809896,-0.0010696411628199414,0.10979170665698967,-0.06605592153999006,0.0,0.0,-0.6,0.0,0.0023229122161865234,0.004555702209472656,0.01041412353515625,0
0.6073987483978271,-0.13933570683002472,0.003463809145614505,-0.3559214770793915,0.06370262632262531,-0.526860072295047,-0.001718504167023491,0.10564218361177666,-0.07012762994897699,0.0,0.0,-0.6,0.0,0.0020999908447265625,0.0041522979736328125,0.009624242782592773,0
0.6218185424804688,-0.13774645328521729,0.002872650045901537,-0.3646984100341797,0.06985191771380587,-0.5259102668448329,-0.004251429993871176,0.09548111594779128,-0.07528381010696042,0.0,0.0,-0.6,0.0,0.002084493637084961,0.0042879581451416016,0.009373188018798828,0
0.6352908611297607,-0.13613219559192657,0.002255209255963564,-0.37340864539146423,0.07590805156042195,-0.5249557522200915,-0.004027719379551495,0.08703621696916497,-0.08116418641002975,0.0,0.0,-0.6,0.0,0.0019259452819824219,0.004319906234741211,0.008388996124267578,0
0.6455018520355225,-0.13613219559192657,0.002255209255963564,-0.37340864539146423,0.07590805156042195,-0.5241920939457885,-0.003816167293680684,0.08110405566573739,-0.08528044982217493,0.0,0.0,-0.6,0.0,0.0018801689147949219,0.0036725997924804688,0.008419275283813477,0
0.6575062274932861,-0.13451306521892548,0.001531232614070177,-0.38207563757896423,0.08184706359606286,-0.5234967776437469,0.0003457459902195879,0.07927113088593798,-0.09038896372404978,0.0,0.0,-0.6,0.0,0.0017170906066894531,0.00404667854309082,0.008664369583129883,0
0.6692087650299072,-0.13451306521892548,0.001531232614070177,-0.38207563757896423,0.08184706359606286,-0.5229404613510109,0.003214710197346216,0.077898634955224,-0.09396492345536105,0.0,0.0,-0.6,0.0,0.0023910999298095703,0.004404306411743164,0.010044097900390625,0
0.6834259033203125,-0.13189329206943512,0.0004671472415793687,-0.3951694667339325,0.09047669347319594,-0.5220875425661251,0.007228961708977664,0.08664515147952619,-0.09970420647119546,0.0,0.0,-0.6,0.0,0.0018367767333984375,0.003326892852783203,0.008267641067504883,0
0.6936655044555664,-0.13189329206943512,0.0004671472415793687,-0.3951694667339325,0.09047669347319594,-0.5214021002740808,0.009981129988834523,0.09246522694096482,-0.10372170458228824,0.0,0.0,-0.6,0.0,0.001771688461303711,0.0035610198974609375,0.007521867752075195,0
0.7047820091247559,-0.13015837967395782,-0.0002541568537708372,-0.4037533104419708,0.0959966972978548,-0.5207815153115511,0.004997562646311225,0.09254611598100246,-0.10860395469430938,0.0,0.0,-0.6,0.0,0.0021393299102783203,0.0041961669921875,0.008724212646484375,0
0.7174744606018066,-0.13015837967395782,-0.0002541568537708372,-0.4037533104419708,0.0959966972978548,-0.5202829645030521,0.001640760116914058,0.09249232957419974,-0.11202152977272056,0.0,0.0,-0.6,0.0,0.001970529556274414,0.0035104751586914062,0.007761716842651367,0
0.7291691303253174,-0.12744924426078796,-0.0015139933675527573,-0.41660362482070923,0.10406936055408801,-0.5195616904959182,0.005681683079093448,0.0891609873045839,-0.11744108104869137,0.0,0.0,-0.6,0.0,0.001478433609008789,0.003077983856201172,0.007960796356201172,0
0.7397096157073975,-0.12744924426078796,-0.0015139933675527573,-0.41660362482070923,0.10406936055408801,-0.5189838715322798,0.008480952193425526,0.08679739565781366,-0.12123476694187633,0.0,0.0,-0.6,0.0,0.0025796890258789062,0.004505157470703125,0.021538257598876953,0
0.7640888690948486,-0.12463478744029999,-0.0027696769684553146,-0.4292014241218567,0.11186986663544024,-0.5185093007285692,0.01669331936651798,0.08599811305044293,-0.12681553684759794,0.0,0.0,-0.6,0.0,0.0016536712646484375,0.002886056900024414,0.006420612335205078,0
0.7735183238983154,-0.12463478744029999,-0.0027696769684553146,-0.4292014241218567,0.11186986663544024,-0.518129624398495,0.022322477931870203,0.08541071744724169,-0.13072207578160475,0.0,0.0,-0.6,0.0,0.002669095993041992,0.004359722137451172,0.009796857833862305,0
0.7875492572784424,-0.12192932516336441,-0.004133402835577726,-0.44157129526138306,0.11921502242605163,-0.5175696594554322,0.02649620560760569,0.08644482860440791,-0.13621108645688718,0.0,0.0,-0.6,0.0,0.0023543834686279297,0.004665374755859375,0.010155677795410156,0
0.8005614280700684,-0.12192932516336441,-0.004133402835577726,-0.44157129526138306,0.11921502242605163,-0.517121468497864,0.029379025148202863,0.08709055027135529,-0.14005339392958654,0.0,0.0,-0.6,0.0,0.002365589141845703,0.004118919372558594,0.009863853454589844,0
0.8150880336761475,-0.12009937316179276,-0.005090369842946529,-0.449721097946167,0.1240059370837795,-0.5166148258230869,0.02964464916063659,0.0878049966421618,-0.14453960215712341,0.0,0.0,-0.6,0.0,0.0013453960418701172,0.0033648014068603516,0.007375001907348633,0
0.8239407539367676,-0.12009937316179276,-0.005090369842946529,-0.449721097946167,0.1240059370837795,-0.5162084963169964,0.029866839134541648,0.08823515506470518,-0.14767994791640057,0.0,0.0,-0.6,0.0,0.0018892288208007812,0.0037488937377929688,0.008195877075195312,0
0.8361086845397949,-0.11832025647163391,-0.006012496072798967,-0.45776286721229553,0.12866731924534833,-0.5158215681623188,0.029567835975012842,0.07911559699086679,-0.15162620825848205,0.0,0.0,-0.6,0.0,0.002137422561645508,0.004113674163818359,0.00899505615234375,0
0.8485391139984131,-0.11644983291625977,-0.007010865490883589,-0.46575507521629333,0.13311795825828318,-0.5154365088434565,0.03806918336058859,0.07566044191925693,-0.1560575801277892,0.0,0.0,-0.6,0.0,0.003972291946411133,0.005838632583618164,0.011467218399047852,0
0.8634884357452393,-0.11644983291625977,-0.007010865490883589,-0.46575507521629333,0.13311795825828318,-0.5151294141827581,0.04390761610828701,0.07328843139985149,-0.15915954043630554,0.0,0.0,-0.6,0.0,0.001974344253540039,0.003877401351928711,0.008993864059448242,0
0.8750452995300293,-0.11456042528152466,-0.007937070913612843,-0.4736498296260834,0.13747576724546165,-0.5148539212919854,0.049372764629169584,0.07149005025539114,-0.16296509102245818,0.0,0.0,-0.6,0.0,0.002034902572631836,0.003945112228393555,0.009038448333740234,0
0.8865036964416504,-0.11456042528152466,-0.007937070913612843,-0.4736498296260834,0.13747576724546165,-0.5146349235388517,0.05313422138139449,0.07024961332079672,-0.16562897643276617,0.0,0.0,-0.6,0.0,0.0014202594757080078,0.0033414363861083984,0.008013010025024414,0
0.8983566761016846,-0.11182340234518051,-0.009455949999392033,-0.48518481850624084,0.14373993034718716,-0.5142713967167843,0.05341829461479573,0.06288218888846694,-0.1698427573831273,0.0,0.0,-0.6,0.0,0.0023679733276367188,0.004525423049926758,0.009845972061157227,0
0.9119937419891357,-0.11182340234518051,-0.009455949999392033,-0.48518481850624084,0.14373993034718716,-0.5139790069743615,0.05367328245591946,0.05782978991370195,-0.1727924040483813,0.0,0.0,-0.6,0.0,0.0023093223571777344,0.004342317581176758,0.009620904922485352,0
0.9262557029724121,-0.10991308093070984,-0.010544759221374989,-0.4927843511104584,0.1477870874266515,-0.5135926465154453,0.057186273157816096,0.06362701623346706,-0.17637484061885764,0.0,0.0,-0.6,0.0,0.002172231674194336,0.004377126693725586,0.010005712509155273,0
0.9396500587463379,-0.10801887512207031,-0.011597493663430214,-0.5002315640449524,0.15176052826304173,-0.5133275213539299,0.05934368267754837,0.0674501615425051,-0.180372586531837,0.0,0.0,-0.6,0.0,0.0018875598907470703,0.0041043758392333984,0.008643150329589844,0
0.9523622989654541,-0.10801887512207031,-0.011597493663430214,-0.5002315640449524,0.15176052826304173,-0.5131156188574665,0.06083767139100602,0.07003954029010447,-0.18317100867092376,0.0,0.0,-0.6,0.0,0.0023670196533203125,0.00453639030456543,0.01004791259765625,0
0.9658949375152588,-0.10535524785518646,-0.013267455622553825,-0.5109958648681641,0.15741937917054163,-0.5128992848044966,0.07068270096893818,0.06233185568035832,-0.18725197325859566,0.0,0.0,-0.6,0.0,0.006402015686035156,0.009870529174804688,0.01629161834716797,0
0.9885258674621582,-0.10535524785518646,-0.013267455622553825,-0.5109958648681641,0.15741937917054163,-0.5127290819154167,0.07744455535685586,0.05708508494885458,-0.19010864846996722,0.0,0.0,-0.6,0.0,0.0033643245697021484,0.00708460807800293,0.01501321792602539,0
1.00858736038208,-0.10165586322546005,-0.015610122121870518,-0.5249071717262268,0.16478744679301824,-0.5128039358656136,0.08109548694217929,0.052548605883145236,-0.19487134647635412,0.0,0.0,-0.6,0.0,0.004437685012817383,0.008078336715698242,0.0167391300201416,0
1.0304045677185059,-0.10165586322546005,-0.015610122121870518,-0.5249071717262268,0.16478744679301824,-0.5128662732531768,0.08358846931920175,0.0494723947776124,-0.1982052350808264,0.0,0.0,-0.6,0.0,0.0045545101165771484,0.007342815399169922,0.014890193939208984,0
1.0508263111114502,-0.09826809167861938,-0.018127571791410446,-0.5378472208976746,0.1717711651594113,-0.5127715443384598,0.08446126197517956,0.049250962679467804,-0.20315785149135276,0.0,0.0,-0.6,0.0,0.004338502883911133,0.0071222782135009766,0.016239166259765625,0
1.0715270042419434,-0.09826809167861938,-0.018127571791410446,-0.5378472208976746,0.1717711651594113,-0.5126961277079237,0.08507390419924825,0.049097223347281956,-0.2066246829787227,0.0,0.0,-0.6,0.0,0.004450321197509766,0.007941246032714844,0.014724016189575195,0
1.0915515422821045,-0.09488999843597412,-0.020679334178566933,-0.5500999093055725,0.17842474885904083,-0.5129251562158927,0.09166111581910684,0.04315698217235135,-0.21154655890724128,0.0,0.0,-0.6,0.0,0.004323482513427734,0.007337093353271484,0.014033079147338867,0
1.1133778095245361,-0.09336405992507935,-0.021930541843175888,-0.5558319687843323,0.18153414555273156,-0.5131734278000626,0.09617744503392295,0.036328825415236146,-0.21615789581733863,0.0,0.0,-0.6,0.0,0.003446817398071289,0.006365060806274414,0.014238834381103516,0
1.1322739124298096,-0.09336405992507935,-0.021930541843175888,-0.5558319687843323,0.18153414555273156,-0.5133763418876458,0.09922875690094944,0.0317017823110616,-0.21938583165440814,0.0,0.0,-0.6,0.0,0.003385782241821289,0.005764007568359375,0.012632369995117188,0
1.1510975360870361,-0.09023939073085785,-0.02454562485218048,-0.5667374730110168,0.18791401654872109,-0.5138580662157519,0.09329881973558782,0.020419722978873067,-0.22403783836385147,0.0,0.0,-0.6,0.0,0.004148960113525391,0.006798744201660156,0.014809846878051758,0
1.1728482246398926,-0.09023939073085785,-0.02454562485218048,-0.5667374730110168,0.18791401654872109,-0.514238371257437,0.08916774627162946,0.012745136691791965,-0.22729424306046317,0.0,0.0,-0.6,0.0,0.0036449432373046875,0.0066699981689453125,0.015248775482177734,0
1.1931018829345703,-0.08669514954090118,-0.027903461828827858,-0.5790832042694092,0.1947200429684051,-0.5145897112429727,0.08794756536951845,0.013656318028149117,-0.2321259862554713,0.0,0.0,-0.6,0.0,0.0037384033203125,0.0069692134857177734,0.015171051025390625,0
1.214853048324585,-0.08669514954090118,-0.027903461828827858,-0.5790832042694092,0.1947200429684051,-0.514870303104153,0.087024147685929,0.014305916877506313,-0.23550820649197843,0.0,0.0,-0.6,0.0,0.0033080577850341797,0.0069789886474609375,0.016239404678344727,0
1.2349052429199219,-0.08411753177642822,-0.030689261853694916,-0.587977409362793,0.1997157624581091,-0.5153902443933189,0.08538620830043794,0.0011980757435281156,-0.23974915546617157,0.0,0.0,-0.6,0.0,0.003509044647216797,0.006994485855102539,0.015493392944335938,0
1.2557172775268555,-0.08411753177642822,-0.030689261853694916,-0.587977409362793,0.1997157624581091,-0.5158058376022461,0.0841563070079819,-0.007716454927082101,-0.24271781974810805,0.0,0.0,-0.6,0.0,0.004166126251220703,0.0077130794525146484,0.01590108871459961,0
1.2754871845245361,-0.0816735327243805,-0.03330405429005623,-0.5962280631065369,0.20411897016023114,-0.5163301526995331,0.08111945312643044,-0.014597271045403388,-0.24644708763375858,0.0,0.0,-0.6,0.0,0.0038962364196777344,0.007115602493286133,0.01561427116394043,0
1.2964651584625244,-0.0816735327243805,-0.03330405429005623,-0.5962280631065369,0.20411897016023114,-0.5167487499812758,0.07889909031299733,-0.019251333915423854,-0.24905757515371507,0.0,0.0,-0.6,0.0,0.003673076629638672,0.0072438716888427734,0.015193700790405273,0
1.3183507919311523,-0.07969613373279572,-0.036014851182699203,-0.6035958528518677,0.2081112603348324,-0.5171913870519852,0.0643508172142078,-0.028787871449641796,-0.2523820252331594,0.0,0.0,-0.6,0.0,0.004033803939819336,0.007437944412231445,0.014909029006958008,0
1.3374884128570557,-0.07969613373279572,-0.036014851182699203,-0.6035958528518677,0.2081112603348324,-0.5175297259019446,0.05428286033634572,-0.035276666818310196,-0.2547091402887714,0.0,0.0,-0.6,0.0,0.004294872283935547,0.007907867431640625,0.01434469223022461,0
1.3574762344360352,-0.07777540385723114,-0.03884419798851013,-0.6107738614082336,0.21151416902527087,-0.51796463268113,0.04412325920733434,-0.04421349423405739,-0.25761421158661363,0.0,0.0,-0.6,0.0,0.002897977828979492,0.005907297134399414,0.01304006576538086,0
1.3763837814331055,-0.07698755711317062,-0.04023923724889755,-0.6141424775123596,0.21306210193863503,-0.5183966316904427,0.031089129095198873,-0.05538502273075188,-0.26022823633761505,0.0,0.0,-0.6,0.0,0.003544330596923828,0.0068264007568359375,0.014283418655395508,0
1.3942930698394775,-0.07698755711317062,-0.04023923724889755,-0.6141424775123596,0.21306210193863503,-0.5187330121168375,0.022064420128222816,-0.06296898111771368,-0.2620580536633168,0.0,0.0,-0.6,0.0,0.002221822738647461,0.0058667659759521484,0.013073921203613281,0
1.4151756763458252,-0.07535658776760101,-0.042927540838718414,-0.6207051277160645,0.21586496564673782,-0.519228273113869,0.011655803907028311,-0.06721961592719425,-0.2643899996818461,0.0,0.0,-0.6,0.0,0.003550291061401367,0.0069353580474853516,0.014053821563720703,0
1.434708833694458,-0.07535658776760101,-0.042927540838718414,-0.6207051277160645,0.21586496564673782,-0.5196176430370939,0.00439685293977984,-0.07004779094947824,-0.2660223618948173,0.0,0.0,-0.6,0.0,0.0033016204833984375,0.006514549255371094,0.01343393325805664,0
1.4549493789672852,-0.0741257295012474,-0.04555049166083336,-0.6267184019088745,0.21834780561566197,-0.5197934535888397,-0.012120197518254841,-0.07035488679655207,-0.26809608043224326,0.0,0.0,-0.6,0.0,0.0036296844482421875,0.0071086883544921875,0.015650033950805664,0
1.4745533466339111,-0.0741257295012474,-0.04555049166083336,-0.6267184019088745,0.21834780561566197,-0.5199186705829922,-0.023452426624516638,-0.07054669114340262,-0.26954768340844204,0.0,0.0,-0.6,0.0,0.0035457611083984375,0.006399393081665039,0.01496434211730957,0
1.4958703517913818,-0.0730796828866005,-0.04793877527117729,-0.6323405504226685,0.22040622014674244,-0.5202440438990669,-0.026627863519280894,-0.07220463533843614,-0.27133571094093606,0.0,0.0,-0.6,0.0,0.0035448074340820312,0.006424665451049805,0.015016555786132812,0
1.5162432193756104,-0.0730796828866005,-0.04793877527117729,-0.6323405504226685,0.22040622014674244,-0.5205041290819094,-0.02888062838248578,-0.07327177909980136,-0.27258733021368237,0.0,0.0,-0.6,0.0,0.0046083927154541016,0.008243799209594727,0.017502307891845703,0
1.5388917922973633,-0.07212615758180618,-0.050625648349523544,-0.6388819813728333,0.22243394767389837,-0.5209307322981505,-0.03851547844129412,-0.08015370852709681,-0.2742238615272879,0.0,0.0,-0.6,0.0,0.003190279006958008,0.00696110725402832,0.0153045654296875,0
1.5572435855865479,-0.07212615758180618,-0.050625648349523544,-0.6388819813728333,0.22243394767389837,-0.5212721276532969,-0.04519928364747987,-0.08476173589111173,-0.27536943344681225,0.0,0.0,-0.6,0.0,0.004067182540893555,0.008120059967041016,0.01608753204345703,0
1.580578088760376,-0.07163836061954498,-0.05252055078744888,-0.6437597274780273,0.22362689842682928,-0.5214303920246831,-0.05250517106399315,-0.07600508464304999,-0.2766186903228283,0.0,0.0,-0.6,0.0,0.0038459300994873047,0.0074841976165771484,0.016109228134155273,0
1.6010935306549072,-0.07163836061954498,-0.05252055078744888,-0.6437597274780273,0.22362689842682928,-0.5215429346566689,-0.057543548705580976,-0.0699833822792413,-0.27749317013602776,0.0,0.0,-0.6,0.0,0.004018306732177734,0.007782697677612305,0.01582503318786621,0
1.6238815784454346,-0.0713558942079544,-0.05412896350026131,-0.6482238173484802,0.22436384949345206,-0.5218174456001086,-0.06195820424510329,-0.06805363829694958,-0.27838166265526304,0.0,0.0,-0.6,0.0,0.00391697883605957,0.0071141719818115234,0.015140771865844727,0
1.6436374187469482,-0.07119058817625046,-0.05483078956604004,-0.6503886580467224,0.2246871850643032,-0.5219571215185026,-0.061499206312391856,-0.06499256121151731,-0.27912485825778677,0.0,0.0,-0.6,0.0,0.003626108169555664,0.006868124008178711,0.013533353805541992,0
1.6635029315948486,-0.07103076577186584,-0.0553528256714344,-0.6524698138237,0.2248092305116839,-0.5222717598543638,-0.06267413524855145,-0.0618405719832052,-0.27969086222233164,0.0,0.0,-0.6,0.0,0.003938436508178711,0.007866621017456055,0.01385045051574707,0
1.684056282043457,-0.07106005400419235,-0.05592405050992966,-0.6543224453926086,0.2249728429650922,-0.5225215189472723,-0.06811078193177336,-0.058781922243570255,-0.2801484196675476,0.0,0.0,-0.6,0.0,0.006748676300048828,0.010922431945800781,0.0193026065826416,0
1.7088193893432617,-0.07106005400419235,-0.05592405050992966,-0.6543224453926086,0.2249728429650922,-0.5227165407962198,-0.07187099170628443,-0.05661665607854179,-0.2804687098791926,0.0,0.0,-0.6,0.0,0.005078315734863281,0.012022972106933594,0.020541667938232422,0
1.7349834442138672,-0.07101521641016006,-0.056934673339128494,-0.6588758230209351,0.22478931574908137,-0.5229707150640778,-0.0660660510746059,-0.044222933651088876,-0.28062409032134233,0.0,0.0,-0.6,0.0,0.003966569900512695,0.007426738739013672,0.015246868133544922,0
1.755237102508545,-0.07114773243665695,-0.057406455278396606,-0.6613287329673767,0.22466178749783042,-0.5230827143301938,-0.06577595668274441,-0.03814283464151025,-0.2806850335366251,0.0,0.0,-0.6,0.0,0.004283428192138672,0.008108377456665039,0.01624155044555664,0
1.7758679389953613,-0.07114773243665695,-0.057406455278396606,-0.6613287329673767,0.22466178749783042,-0.5231655693359983,-0.06559581177178984,-0.03395220355095118,-0.28072769378732393,0.0,0.0,-0.6,0.0,0.003406047821044922,0.007523775100708008,0.015870332717895508,0
1.7979724407196045,-0.07117550075054169,-0.057744234800338745,-0.6643289923667908,0.2242621202276171,-0.5234729407953924,-0.06015431748962577,-0.024727736196785713,-0.2806076807364833,0.0,0.0,-0.6,0.0,0.0034236907958984375,0.006574153900146484,0.014958620071411133,0
1.8177602291107178,-0.07117550075054169,-0.057744234800338745,-0.6643289923667908,0.2242621202276171,-0.5237084807016974,-0.056475342414563146,-0.018324026858562364,-0.2805236716008948,0.0,0.0,-0.6,0.0,0.0033707618713378906,0.0068569183349609375,0.014331340789794922,0
1.8378469944000244,-0.07123943418264389,-0.057859886437654495,-0.6671406030654907,0.22344355221908835,-0.5238923178624977,-0.054673630386583835,-0.009668901927682765,-0.28015790220278486,0.0,0.0,-0.6,0.0,0.0030307769775390625,0.0064966678619384766,0.013056039810180664,0
1.855278730392456,-0.07123943418264389,-0.057859886437654495,-0.6671406030654907,0.22344355221908835,-0.5240304209359588,-0.053462196649455285,-0.0036961076895431714,-0.2799018636241113,0.0,0.0,-0.6,0.0,0.0029075145721435547,0.006323099136352539,0.013688802719116211,0
1.8763031959533691,-0.07131321728229523,-0.05769689008593559,-0.6695362329483032,0.22257492609522708,-0.5242199296074735,-0.045442397339392614,0.00336801113458247,-0.2793969018225886,0.0,0.0,-0.6,0.0,0.0030574798583984375,0.006913900375366211,0.0158693790435791,0
1.8960232734680176,-0.07131321728229523,-0.05769689008593559,-0.6695362329483032,0.22257492609522708,-0.5243641398059273,-0.03998231995725322,0.008251605810353183,-0.27904342856152253,0.0,0.0,-0.6,0.0,0.003774881362915039,0.007228374481201172,0.015796184539794922,0
1.9195454120635986,-0.07134604454040527,-0.0573238842189312,-0.6715404391288757,0.22139536664883488,-0.5245079857648617,-0.04193516016511021,0.01410643019969519,-0.27835366248637955,0.0,0.0,-0.6,0.0,0.003398895263671875,0.0065419673919677734,0.01491856575012207,0
1.9396617412567139,-0.07134604454040527,-0.0573238842189312,-0.6715404391288757,0.22139536664883488,-0.5246178738610181,-0.04327859738563066,0.018151584975040394,-0.2778708262337859,0.0,0.0,-0.6,0.0,0.0034499168395996094,0.006314277648925781,0.013868570327758789,0
1.9595434665679932,-0.07119910418987274,-0.056820232421159744,-0.6733201146125793,0.22010222793563697,-0.5248899373366047,-0.03657024173490209,0.031208175175513372,-0.2770479138395148,0.0,0.0,-0.6,0.0,0.003347158432006836,0.006139039993286133,0.014834165573120117,0
1.9802448749542236,-0.07119910418987274,-0.056820232421159744,-0.6733201146125793,0.22010222793563697,-0.5250947664927418,-0.03200122109510606,0.040212681270816994,-0.2764718751635248,0.0,0.0,-0.6,0.0,0.0038466453552246094,0.006808757781982422,0.014747381210327148,0
2.003355026245117,-0.07096482813358307,-0.056155119091272354,-0.6749246120452881,0.2184221283408886,-0.5253087499673792,-0.028909132539408855,0.046995532414181175,-0.2754386107423016,0.0,0.0,-0.6,0.0,0.002129793167114258,0.005319118499755859,0.013585805892944336,0
2.0223779678344727,-0.07074850797653198,-0.055663760751485825,-0.6759670376777649,0.21737847975430205,-0.5254437686885105,-0.02214488539774257,0.05540560527566877,-0.2743239574274755,0.0,0.0,-0.6,0.0,0.004145383834838867,0.007742643356323242,0.015623092651367188,0
2.0433738231658936,-0.07074850797653198,-0.055663760751485825,-0.6759670376777649,0.21737847975430205,-0.5255456632471086,-0.01752899452551837,0.06118309868044768,-0.2735437001070969,0.0,0.0,-0.6,0.0,0.0030143260955810547,0.006166696548461914,0.01464533805847168,0
2.0639142990112305,-0.07024701684713364,-0.054854147136211395,-0.6772738695144653,0.21526740745047732,-0.5257899947049123,-0.014976607739914428,0.06546365334098493,-0.27220586786889817,0.0,0.0,-0.6,0.0,0.004447460174560547,0.007323741912841797,0.016442298889160156,0
2.084559679031372,-0.07024701684713364,-0.054854147136211395,-0.6772738695144653,0.21526740745047732,-0.5259833690233021,-0.013245861059052517,0.0684465966854597,-0.27126938530215866,0.0,0.0,-0.6,0.0,0.002263307571411133,0.004276275634765625,0.019379377365112305,0
2.1084506511688232,-0.06958383321762085,-0.05400589853525162,-0.6784974336624146,0.2134788384684599,-0.5260858038435547,-0.003727982721000186,0.07617746223854505,-0.26994313413718485,0.0,0.0,-0.6,0.0,0.002969026565551758,0.005794525146484375,0.012150764465332031,0
2.126072406768799,-0.06913965940475464,-0.053553611040115356,-0.6790316700935364,0.21232168259322137,-0.526308407504258,0.002379813742814689,0.0755609374965557,-0.2685808248684888,0.0,0.0,-0.6,0.0,0.002767801284790039,0.004993438720703125,0.010788202285766602,0
2.141887903213501,-0.06913965940475464,-0.053553611040115356,-0.6790316700935364,0.21232168259322137,-0.5264869885014353,0.006536632061169236,0.0751805057435496,-0.2676272083804011,0.0,0.0,-0.6,0.0,0.002039194107055664,0.004459857940673828,0.011002540588378906,0
2.158104658126831,-0.06824583560228348,-0.05267607420682907,-0.6799831986427307,0.2102692472191847,-0.5265614156999265,0.004942751640275323,0.07727617676788463,-0.26619001357345656,0.0,0.0,-0.6,0.0,0.0028443336486816406,0.0050470829010009766,0.010991573333740234,0
2.172722578048706,-0.06824583560228348,-0.05267607420682907,-0.6799831986427307,0.2102692472191847,-0.5266201085971473,0.003851018669389804,0.07872231020802818,-0.26518397720861486,0.0,0.0,-0.6,0.0,0.0023272037506103516,0.004892826080322266,0.01158285140991211,0
2.1905789375305176,-0.06748859584331512,-0.052034713327884674,-0.6803969740867615,0.20839058631390134,-0.5267360002681759,0.014076708024877772,0.0733427370204004,-0.26377525391374484,0.0,0.0,-0.6,0.0,0.002475738525390625,0.005054950714111328,0.011223793029785156,0
2.2058746814727783,-0.06748859584331512,-0.052034713327884674,-0.6803969740867615,0.20839058631390134,-0.5268298453987941,0.021047889188478518,0.06967955747507773,-0.26278914760734906,0.0,0.0,-0.6,0.0,0.0026175975799560547,0.0050182342529296875,0.010509967803955078,0
2.2231345176696777,-0.06655959039926529,-0.051426295191049576,-0.680762529373169,0.20662712215929352,-0.5270355054287487,0.027118743092865494,0.07009566793425116,-0.2614375741348808,0.0,0.0,-0.6,0.0,0.002870321273803711,0.005579710006713867,0.011662483215332031,0
2.237571954727173,-0.06655959039926529,-0.051426295191049576,-0.680762529373169,0.20662712215929352,-0.5272011162337437,0.031249552211127445,0.07040972006730077,-0.26049147270413947,0.0,0.0,-0.6,0.0,0.0025076866149902344,0.005145549774169922,0.011179447174072266,0
2.2542028427124023,-0.0657123476266861,-0.050832077860832214,-0.6808814406394958,0.20479055535025184,-0.527372448137047,0.03320063629247187,0.07116472748836272,-0.25914048914926213,0.0,0.0,-0.6,0.0,0.0027997493743896484,0.004824638366699219,0.010376214981079102,0
2.2679171562194824,-0.0657123476266861,-0.050832077860832214,-0.6808814406394958,0.20479055535025184,-0.527509902887694,0.03451952075753031,0.07170514148057427,-0.2581948006608289,0.0,0.0,-0.6,0.0,0.0029375553131103516,0.0055696964263916016,0.012177228927612305,0
2.284409284591675,-0.06439429521560669,-0.05009142681956291,-0.6809503436088562,0.2021470566265632,-0.5276974799244948,0.04134619050946912,0.07164370411557487,-0.25654150669754305,0.0,0.0,-0.6,0.0,0.002917051315307617,0.005827665328979492,0.01136469841003418,0
2.3003087043762207,-0.06439429521560669,-0.05009142681956291,-0.6809503436088562,0.2021470566265632,-0.5278493392019333,0.04599324618334505,0.07162018556109467,-0.25538420092322645,0.0,0.0,-0.6,0.0,0.001851797103881836,0.004364490509033203,0.010484933853149414,0
2.3171608448028564,-0.06336048990488052,-0.0494544543325901,-0.6809658408164978,0.20029722208014009,-0.5280016143126997,0.0443861059671994,0.06971479842588119,-0.25388039892631253,0.0,0.0,-0.6,0.0,0.0021550655364990234,0.0045244693756103516,0.010852336883544922,0
2.3331263065338135,-0.06336048990488052,-0.0494544543325901,-0.6809658408164978,0.20029722208014009,-0.5281227286983993,0.04327082381410261,0.06843394985733432,-0.2528277375284724,0.0,0.0,-0.6,0.0,0.003147602081298828,0.005576372146606445,0.011721134185791016,0
2.3489742279052734,-0.06238212063908577,-0.048862043768167496,-0.6807856559753418,0.1983398784604879,-0.5283696148755804,0.041587891419431464,0.0635356713217042,-0.2513568706926151,0.0,0.0,-0.6,0.0,0.0027251243591308594,0.004868745803833008,0.011186838150024414,0
2.363656520843506,-0.06238212063908577,-0.048862043768167496,-0.6807856559753418,0.1983398784604879,-0.5285662309584706,0.040409176737788675,0.06021874081797675,-0.25032726390751453,0.0,0.0,-0.6,0.0,0.0026633739471435547,0.005346775054931641,0.008359432220458984,0
2.3773915767669678,-0.06131599470973015,-0.04827112331986427,-0.6807774305343628,0.19630431698202117,-0.5286642754840096,0.037993702691423735,0.06337536341830395,-0.24884320360351958,0.0,0.0,-0.6,0.0,0.0028057098388671875,0.004389047622680664,0.011456012725830078,0
2.3918118476867676,-0.06131599470973015,-0.04827112331986427,-0.6807774305343628,0.19630431698202117,-0.5287412428803858,0.03633660610952927,0.06554356282957945,-0.24780436139072268,0.0,0.0,-0.6,0.0,0.0018401145935058594,0.0033693313598632812,0.007504701614379883,0
2.4029128551483154,-0.06027369201183319,-0.04766446724534035,-0.6805601119995117,0.19419579363826184,-0.5287536034063605,0.03502008335063679,0.050827141193103775,-0.24628647558785557,0.0,0.0,-0.6,0.0,0.0017154216766357422,0.0030777454376220703,0.007083415985107422,0
2.4131240844726562,-0.06027369201183319,-0.04766446724534035,-0.6805601119995117,0.19419579363826184,-0.5287608833749392,0.034106048163169214,0.04078151283275237,-0.24522395552584816,0.0,0.0,-0.6,0.0,0.0018379688262939453,0.0030851364135742188,0.007134675979614258,0
2.4228053092956543,-0.05948197841644287,-0.04719840735197067,-0.6805137991905212,0.19283935159691687,-0.5287902031887451,0.03560117009803607,0.041422992980508264,-0.24397152571693878,0.0,0.0,-0.6,0.0,0.0016896724700927734,0.003258228302001953,0.007108449935913086,0
2.4324400424957275,-0.05948197841644287,-0.04719840735197067,-0.6805137991905212,0.19283935159691687,-0.5288141053552592,0.03661949071981491,0.0418630100238,-0.24309482485070186,0.0,0.0,-0.6,0.0,0.0018270015716552734,0.0033037662506103516,0.007020235061645508,0
2.4429736137390137,-0.05876392871141434,-0.046769797801971436,-0.6804221868515015,0.19155369205409287,-0.5290162667449038,0.03133269328465599,0.03735840509527964,-0.24199901191577722,0.0,0.0,-0.6,0.0,0.0016977787017822266,0.0029883384704589844,0.006883859634399414,0
2.451963424682617,-0.05876392871141434,-0.046769797801971436,-0.6804221868515015,0.19155369205409287,-0.5291757351499041,0.027695005917273887,0.03430828287936826,-0.24123194286132965,0.0,0.0,-0.6,0.0,0.0015704631805419922,0.0030112266540527344,0.006592273712158203,0
2.462186574935913,-0.05806244909763336,-0.04633646085858345,-0.6803210973739624,0.18999467012003274,-0.5290830644667399,0.026664551358541053,0.03472695528478532,-0.24011036129794416,0.0,0.0,-0.6,0.0,0.0014481544494628906,0.002682209014892578,0.006219148635864258,0
2.4707272052764893,-0.05806244909763336,-0.04633646085858345,-0.6803210973739624,0.18999467012003274,-0.5290084710700014,0.02597135362654806,0.03500286857740797,-0.23932525420357398,0.0,0.0,-0.6,0.0,0.0019478797912597656,0.0036187171936035156,0.00729060173034668,0
2.480659246444702,-0.05736405774950981,-0.0458991564810276,-0.6802720427513123,0.1885809978151072,-0.5290127735647531,0.014839362252800626,0.03566269716269521,-0.23824555212316806,0.0,0.0,-0.6,0.0,0.0018889904022216797,0.003265857696533203,0.0073049068450927734,0
2.4904160499572754,-0.05736405774950981,-0.0458991564810276,-0.6802720427513123,0.1885809978151072,-0.5290103069032321,0.007237089805958966,0.036121817658770546,-0.2374897606668836,0.0,0.0,-0.6,0.0,0.0020749568939208984,0.003617525100708008,0.00683903694152832,0
2.5019989013671875,-0.05667940154671669,-0.04551371559500694,-0.6801149845123291,0.18729339214732135,-0.5290838586213442,0.006028376320275296,0.02635336524488159,-0.23647785452206505,0.0,0.0,-0.6,0.0,0.0014920234680175781,0.00293731689453125,0.006561279296875,0
2.5119311809539795,-0.05667940154671669,-0.04551371559500694,-0.6801149845123291,0.18729339214732135,-0.5291429298966853,0.005190212659161126,0.019690381871394054,-0.23576952022069175,0.0,0.0,-0.6,0.0,0.001982450485229492,0.0034503936767578125,0.0074138641357421875,0
2.5228686332702637,-0.056101877242326736,-0.04510816931724548,-0.6799665689468384,0.1859432613626117,-0.5291759380567065,0.006656277694006018,0.01785484094948512,-0.2347673871654646,0.0,0.0,-0.6,0.0,0.001459360122680664,0.0029163360595703125,0.007140159606933594,0
2.5321216583251953,-0.056101877242326736,-0.04510816931724548,-0.6799665689468384,0.1859432613626117,-0.5292031728108401,0.007653067465233174,0.01660388250556112,-0.2340658940268053,0.0,0.0,-0.6,0.0,0.0017459392547607422,0.0032470226287841797,0.007143974304199219,0
2.542795419692993,-0.05538419634103775,-0.0447314977645874,-0.6798982620239258,0.18449719182450103,-0.5292280001332603,0.01002442509343785,0.014176035052959512,-0.2330325727529526,0.0,0.0,-0.6,0.0,0.001798391342163086,0.0033004283905029297,0.0075113773345947266,0
2.552201986312866,-0.05538419634103775,-0.0447314977645874,-0.6798982620239258,0.18449719182450103,-0.5292491781706488,0.011639795128674694,0.012518962815694343,-0.23230924786125545,0.0,0.0,-0.6,0.0,0.0016090869903564453,0.0031104087829589844,0.006816864013671875,0
2.5622353553771973,-0.05513985827565193,-0.044514771550893784,-0.6797691583633423,0.1838500109079283,-0.5294639534547051,0.008258160082929261,0.010084049390439446,-0.23156022759335268,0.0,0.0,-0.6,0.0,0.0015418529510498047,0.002567768096923828,0.006384134292602539,0
2.572092056274414,-0.05454898998141289,-0.04415477067232132,-0.679535448551178,0.18254520614493416,-0.5292462585748646,0.0023817511939240137,0.008003338813528313,-0.2305466116196982,0.0,0.0,-0.6,0.0,0.0017056465148925781,0.003195524215698242,0.0075032711029052734,0
2.5818488597869873,-0.05454898998141289,-0.04415477067232132,-0.679535448551178,0.18254520614493416,-0.5290705409217376,-0.0016072693798265284,0.006560946719109863,-0.22983708043813975,0.0,0.0,-0.6,0.0,0.0017285346984863281,0.003293275833129883,0.007464408874511719,0
2.5926711559295654,-0.05400727689266205,-0.04375848546624184,-0.6793904304504395,0.18104242478349417,-0.5291682627952646,-0.006925919675376633,0.009416088123072014,-0.2287768656005092,0.0,0.0,-0.6,0.0,0.0019028186798095703,0.0033407211303710938,0.007303476333618164,0
2.601994037628174,-0.05400727689266205,-0.04375848546624184,-0.6793904304504395,0.18104242478349417,-0.5292436722987195,-0.010566902046518986,0.011381633077489656,-0.2280347152141675,0.0,0.0,-0.6,0.0,0.0018663406372070312,0.0034334659576416016,0.007753610610961914,0
2.613929033279419,-0.0535317026078701,-0.043440502136945724,-0.6790797114372253,0.17954080719192508,-0.5293481471664595,-0.006755113549210452,0.0041841397615377815,-0.22695210334689023,0.0,0.0,-0.6,0.0,0.001617431640625,0.002767801284790039,0.0068531036376953125,0
2.6233036518096924,-0.0535317026078701,-0.043440502136945724,-0.6790797114372253,0.17954080719192508,-0.5294338512165032,-0.004165357741300843,-0.0007231159956947843,-0.22619427503979583,0.0,0.0,-0.6,0.0,0.0017275810241699219,0.0030095577239990234,0.006997823715209961,0
2.6343190670013428,-0.053116824477910995,-0.04297913238406181,-0.6788275837898254,0.17812311243946244,-0.5294400499591748,-0.0030553911543784867,-0.0015260450896069726,-0.22513215969265657,0.0,0.0,-0.6,0.0,0.001668691635131836,0.003122091293334961,0.007315158843994141,0
2.643779993057251,-0.053116824477910995,-0.04297913238406181,-0.6788275837898254,0.17812311243946244,-0.5294455971555113,-0.002298715187249908,-0.0020746355119081283,-0.22438867894965875,0.0,0.0,-0.6,0.0,0.001772165298461914,0.003200531005859375,0.007756710052490234,0
2.654799222946167,-0.05264100432395935,-0.0426107719540596,-0.6785758137702942,0.17681700574563836,-0.5295558330049102,-0.006917223294200131,-0.007219710196583804,-0.2233784524193765,0.0,0.0,-0.6,0.0,0.0022280216217041016,0.004426717758178711,0.009114742279052734,0
2.666659116744995,-0.05264100432395935,-0.0426107719540596,-0.6785758137702942,0.17681700574563836,-0.5296441638144074,-0.010086848760531219,-0.010716705452177837,-0.22267129384817863,0.0,0.0,-0.6,0.0,0.002087831497192383,0.004114389419555664,0.00885152816772461,0
2.67893123626709,-0.052144888788461685,-0.042039040476083755,-0.67806077003479,0.17471184108355944,-0.5295704348556136,-0.016363211296129634,-0.014898784644377059,-0.22138684610006112,0.0,0.0,-0.6,0.0,0.0023162364959716797,0.0032110214233398438,0.007926702499389648,0
2.6900713443756104,-0.052144888788461685,-0.042039040476083755,-0.67806077003479,0.17471184108355944,-0.5295114719286834,-0.020645110881370717,-0.017759979838319524,-0.22048773267637847,0.0,0.0,-0.6,0.0,0.0018303394317626953,0.004048347473144531,0.009254693984985352,0
2.7038729190826416,-0.051761288195848465,-0.04158022999763489,-0.6777485609054565,0.17330818926610395,-0.5295896735887794,-0.02141764459122863,-0.011898062095154772,-0.21933198384825506,0.0,0.0,-0.6,0.0,0.0017163753509521484,0.003968477249145508,0.009254217147827148,0
2.7164463996887207,-0.051761288195848465,-0.04158022999763489,-0.6777485609054565,0.17330818926610395,-0.5296488004944184,-0.021949156716380636,-0.007881974449511067,-0.21852295966856833,0.0,0.0,-0.6,0.0,0.002500295639038086,0.004762172698974609,0.010511398315429688,0
2.7307844161987305,-0.05150160193443298,-0.040966231375932693,-0.6770948171615601,0.1710987120328492,-0.5297620403304667,-0.018657209466723734,-0.013755835503651184,-0.21712808878031767,0.0,0.0,-0.6,0.0,0.002805471420288086,0.004304170608520508,0.009832620620727539,0
2.742387056350708,-0.05150160193443298,-0.040966231375932693,-0.6770948171615601,0.1710987120328492,-0.5298549916050155,-0.01642372317854146,-0.017757340480151984,-0.2161516791585418,0.0,0.0,-0.6,0.0,0.002331256866455078,0.004625797271728516,0.00945138931274414,0
2.7563893795013428,-0.05119440704584122,-0.04032406210899353,-0.6765836477279663,0.16872493954004894,-0.5300852121708097,-0.023858827540523722,-0.025781876928778338,-0.21457802773849918,0.0,0.0,-0.6,0.0,0.002499103546142578,0.004674196243286133,0.010040760040283203,0
2.768749713897705,-0.05119440704584122,-0.04032406210899353,-0.6765836477279663,0.16872493954004894,-0.53027061368926,-0.028966461649120614,-0.031224849231277343,-0.21347647174446888,0.0,0.0,-0.6,0.0,0.0021877288818359375,0.004279613494873047,0.008623838424682617,0
2.781888723373413,-0.051078926771879196,-0.0399337038397789,-0.6760568022727966,0.16727239168077981,-0.5303456663442897,-0.027213458005589473,-0.034253423674691745,-0.21216067710142195,0.0,0.0,-0.6,0.0,0.0023581981658935547,0.00467991828918457,0.010495185852050781,0
2.796050786972046,-0.051078926771879196,-0.0399337038397789,-0.6760568022727966,0.16727239168077981,-0.5304074906270831,-0.026024056315456175,-0.036311880688093094,-0.2112396208512887,0.0,0.0,-0.6,0.0,0.0018472671508789062,0.004080533981323242,0.009582042694091797,0
2.8091046810150146,-0.05090909078717232,-0.039259474724531174,-0.6755009889602661,0.1648437626986041,-0.5303804494258163,-0.023982702502590315,-0.03289315772513361,-0.20968414560788018,0.0,0.0,-0.6,0.0,0.0018773078918457031,0.0034995079040527344,0.008358478546142578,0
2.8218085765838623,-0.05090909078717232,-0.039259474724531174,-0.6755009889602661,0.1648437626986041,-0.5303566560676182,-0.022584656180458525,-0.030564534104690098,-0.20859531293749375,0.0,0.0,-0.6,0.0,0.0024535655975341797,0.004618406295776367,0.009205818176269531,0
2.833627223968506,-0.05094144493341446,-0.03875776007771492,-0.6749441027641296,0.16326731129738778,-0.5304261942083246,-0.025241101181225963,-0.034275339082173374,-0.2072419607927674,0.0,0.0,-0.6,0.0,0.0023615360260009766,0.004510402679443359,0.009561538696289062,0
2.845503568649292,-0.05094144493341446,-0.03875776007771492,-0.6749441027641296,0.16326731129738778,-0.5304834818974193,-0.027064089144083935,-0.03679698921173863,-0.20629461429145854,0.0,0.0,-0.6,0.0,0.0018947124481201172,0.003481149673461914,0.00836181640625,0
2.8570964336395264,-0.05085910111665726,-0.038039010018110275,-0.6744681000709534,0.16113899134525478,-0.5304502044324907,-0.02914335989503475,-0.03857811592419312,-0.204833351758493,0.0,0.0,-0.6,0.0,0.0016944408416748047,0.004093170166015625,0.00830531120300293,0
2.8691794872283936,-0.05085910111665726,-0.038039010018110275,-0.6744681000709534,0.16113899134525478,-0.5304246574621999,-0.030563298930755052,-0.03979943322578294,-0.20381046798541666,0.0,0.0,-0.6,0.0,0.002058744430541992,0.003931283950805664,0.00923299789428711,0
2.8825461864471436,-0.05087149515748024,-0.03758443146944046,-0.6739808320999146,0.15961666869156538,-0.5303700710354796,-0.02579276962495698,-0.0403862740300033,-0.20252357834912996,0.0,0.0,-0.6,0.0,0.002424955368041992,0.004745960235595703,0.010216236114501953,0
2.895711660385132,-0.05087149515748024,-0.03758443146944046,-0.6739808320999146,0.15961666869156538,-0.5303266802743822,-0.02253369091983583,-0.04080187722747051,-0.2016227556037289,0.0,0.0,-0.6,0.0,0.002544403076171875,0.004895687103271484,0.010600090026855469,0
2.910170555114746,-0.050942014902830124,-0.036785732954740524,-0.6735877394676208,0.15721768234053576,-0.5301949320626507,-0.02157586212022388,-0.03228553050812914,-0.20009255980031265,0.0,0.0,-0.6,0.0,0.0021750926971435547,0.004458189010620117,0.009692192077636719,0
2.922931432723999,-0.050942014902830124,-0.036785732954740524,-0.6735877394676208,0.15721768234053576,-0.5300823889528533,-0.02090815102096618,-0.02649692990063852,-0.19902142273792084,0.0,0.0,-0.6,0.0,0.001562356948852539,0.0031137466430664062,0.008312225341796875,0
2.9350831508636475,-0.051212236285209656,-0.03598983958363533,-0.6730035543441772,0.15489840578915984,-0.5298498951577164,-0.017423156191690607,-0.028762573695219115,-0.19740189808748115,0.0,0.0,-0.6,0.0,0.0025060176849365234,0.0046329498291015625,0.010076761245727539,0
2.947824478149414,-0.051212236285209656,-0.03598983958363533,-0.6730035543441772,0.15489840578915984,-0.5296656264810103,-0.015034167670404597,-0.03036029715700134,-0.19626823083217287,0.0,0.0,-0.6,0.0,0.002050161361694336,0.003949642181396484,0.0076825618743896484,0
2.95924711227417,-0.05129307880997658,-0.03549446165561676,-0.6728605031967163,0.15339115416273585,-0.5298629302863741,-0.017177003692872544,-0.02903642062692724,-0.19490944439354832,0.0,0.0,-0.6,0.0,0.0023560523986816406,0.00426936149597168,0.009447813034057617,0
2.9723153114318848,-0.05129307880997658,-0.03549446165561676,-0.6728605031967163,0.15339115416273585,-0.5300194072789822,-0.01865073888164869,-0.028086329317746583,-0.1939582938865107,0.0,0.0,-0.6,0.0,0.0022804737091064453,0.004198551177978516,0.009347915649414062,0
2.9840176105499268,-0.05164517089724541,-0.03474323824048042,-0.6724517345428467,0.15099184386140005,-0.5298456036760617,-0.017345314904559157,-0.024248835407916183,-0.19239274716858407,0.0,0.0,-0.6,0.0,0.0019311904907226562,0.004286289215087891,0.009401082992553711,0
2.995689868927002,-0.05164517089724541,-0.03474323824048042,-0.6724517345428467,0.15099184386140005,-0.5297036063169166,-0.016445400618855938,-0.02166785454686355,-0.19129686446603497,0.0,0.0,-0.6,0.0,0.0016236305236816406,0.002864837646484375,0.005959272384643555,0
3.0041239261627197,-0.051748473197221756,-0.03418237715959549,-0.6722903847694397,0.1492949871778483,-0.5296698492644332,-0.011963560972707166,-0.013920044471613671,-0.189893425317919,0.0,0.0,-0.6,0.0,0.0012395381927490234,0.0024566650390625,0.00574803352355957,0
3.012289047241211,-0.051748473197221756,-0.03418237715959549,-0.6722903847694397,0.1492949871778483,-0.529636591757085,-0.008896853284183121,-0.008638341618929578,-0.1889110179142374,0.0,0.0,-0.6,0.0,0.002202272415161133,0.0035042762756347656,0.0066034793853759766,0
3.021265983581543,-0.052125561982393265,-0.033647067844867706,-0.6719505190849304,0.14768173878013277,-0.52969319681014,-0.015077809887238069,-0.015842399075118387,-0.18761836458251727,0.0,0.0,-0.6,0.0,0.0015821456909179688,0.002819538116455078,0.005657672882080078,0
3.0295276641845703,-0.052125561982393265,-0.033647067844867706,-0.6719505190849304,0.14768173878013277,-0.5297416738327665,-0.01930727875449267,-0.020748057560027042,-0.18671350725031277,0.0,0.0,-0.6,0.0,0.0018129348754882812,0.0029535293579101562,0.005616188049316406,0
3.039918899536133,-0.052248138934373856,-0.03340201452374458,-0.6718600392341614,0.1469122995102515,-0.5295355201016264,-0.012278784457855333,-0.021874318989098886,-0.18579156739156416,0.0,0.0,-0.6,0.0,0.0015225410461425781,0.002666950225830078,0.005726814270019531,0
3.0498316287994385,-0.05234590545296669,-0.03322713449597359,-0.6718233227729797,0.14609285936885613,-0.5294878249015101,-0.009043491868760951,-0.021996859146929785,-0.18483891943741693,0.0,0.0,-0.6,0.0,0.0016012191772460938,0.002874612808227539,0.006146907806396484,0
3.0595173835754395,-0.052476320415735245,-0.032956916838884354,-0.6717146635055542,0.14536498405012263,-0.5295955457677247,-0.008241308416955615,-0.01760278143388999,-0.18389911262498876,0.0,0.0,-0.6,0.0,0.001424551010131836,0.0025348663330078125,0.005654811859130859,0
3.0697274208068848,-0.05260493606328964,-0.03265568986535072,-0.6715377569198608,0.14451827906148806,-0.529738241973743,-0.004873917341497102,-0.013589679753406084,-0.18292373348555113,0.0,0.0,-0.6,0.0,0.0015606880187988281,0.0027589797973632812,0.005770206451416016,0
3.08060884475708,-0.053011272102594376,-0.032265085726976395,-0.6713608503341675,0.14294728259375464,-0.5295542028459882,-0.004612650712892343,-0.010201892158818079,-0.18165184441254506,0.0,0.0,-0.6,0.0,0.0010776519775390625,0.002356290817260742,0.005499124526977539,0
3.089548349380493,-0.053011272102594376,-0.032265085726976395,-0.6713608503341675,0.14294728259375464,-0.529404515525021,-0.0044258935167242296,-0.007931110938471316,-0.18076152206144042,0.0,0.0,-0.6,0.0,0.0015568733215332031,0.002788543701171875,0.005708932876586914,0
3.1008899211883545,-0.05319645628333092,-0.031846582889556885,-0.6711824536323547,0.1412552502407907,-0.5293988225767893,0.0005637956639453039,-0.0030089329526549425,-0.17950378428330607,0.0,0.0,-0.6,0.0,0.0017514228820800781,0.0031621456146240234,0.00630497932434082,0
3.1104729175567627,-0.05319645628333092,-0.031846582889556885,-0.6711824536323547,0.1412552502407907,-0.5293906345951225,0.003973862008010433,0.00034870819532451447,-0.17862336783861163,0.0,0.0,-0.6,0.0,0.0017461776733398438,0.0030624866485595703,0.006200313568115234,0
3.1205501556396484,-0.053642936050891876,-0.03138970211148262,-0.6709247827529907,0.13982828376055007,-0.529426621824024,0.004249054165505873,-0.004331370577268907,-0.17747196389723557,0.0,0.0,-0.6,0.0,0.0017490386962890625,0.0030517578125,0.0060007572174072266,0
3.1295347213745117,-0.053642936050891876,-0.03138970211148262,-0.6709247827529907,0.13982828376055007,-0.5294582131796055,0.004432132081722039,-0.007521314681548105,-0.17666598113827198,0.0,0.0,-0.6,0.0,0.0017464160919189453,0.0030059814453125,0.00617527961730957,0
3.1397805213928223,-0.053807783871889114,-0.031192060559988022,-0.6708295941352844,0.1390690872178023,-0.5293778946886958,0.009572157389450397,-0.007226649140694013,-0.17581709450346708,0.0,0.0,-0.6,0.0,0.0012059211730957031,0.002192974090576172,0.005114555358886719,0
