time,x,y,z,yaw,throttle,roll_rate,pitch_rate,yaw_rate,x_ref,y_ref,z_ref,yaw_ref,pred_time,nr_time,metadata
2.1457672119140625e-06,-0.12889303267002106,-0.08211211860179901,-0.2395322024822235,-0.08882056472169665,-0.5484142708645313,0.04645651787584412,-0.04931496776556779,0.03330771177066072,0.0,0.0,-0.6,0.0,0.006585836410522461,0.008093833923339844,Hardware
0.0150299072265625,-0.12889303267002106,-0.08211211860179901,-0.2395322024822235,-0.08882056472169665,-0.5574645361673332,0.07726815545981688,-0.08300501720585238,0.05662311001007543,0.0,0.0,-0.6,0.0,0.0014805793762207031,0.0033800601959228516,Nonlinear
0.025710105895996094,-0.12890158593654633,-0.0820661187171936,-0.23955541849136353,-0.08882795910487111,-0.564643151045508,0.09738141547648499,-0.10474493780935194,0.07294666167136316,0.0,0.0,-0.6,0.0,0.0016312599182128906,0.004121303558349609,1x Speed
0.03721880912780762,-0.12890158593654633,-0.0820661187171936,-0.23955541849136353,-0.08882795910487111,-0.5703533064232238,0.10993290122623099,-0.11817679205885928,0.08437314783427936,0.0,0.0,-0.6,0.0,0.0014410018920898438,0.0031681060791015625,0OrderHold
0.04790902137756348,-0.12891331315040588,-0.08201094716787338,-0.23956868052482605,-0.0887969647283849,-0.5749106940507349,0.1173055240185229,-0.12643876589417913,0.09236006525714575,0.0,0.0,-0.6,0.0,0.0018284320831298828,0.0033292770385742188,QuatYawError
0.057607173919677734,-0.12891331315040588,-0.08201094716787338,-0.23956868052482605,-0.0887969647283849,-0.5785356596836965,0.12141203835902388,-0.13080071074459862,0.09795090745315047,0.0,0.0,-0.6,0.0,0.004594326019287109,0.005846261978149414,NoPyJoules
0.07103610038757324,-0.12891331315040588,-0.08201094716787338,-0.23956868052482605,-0.0887969647283849,-0.5814151026671108,0.12344253919120228,-0.13268741148356206,0.10186449699035253,0.0,0.0,-0.6,0.0,0.001909494400024414,0.003217458724975586,0
0.0822141170501709,-0.1289445459842682,-0.08199676126241684,-0.2396208643913269,-0.08875910103366466,-0.5836816166530039,0.12390595547908481,-0.13310274278844927,0.10458981078086829,0.0,0.0,-0.6,0.0,0.0016829967498779297,0.003324747085571289,0
0.09298038482666016,-0.1289445459842682,-0.08199676126241684,-0.2396208643913269,-0.08875910103366466,-0.5854760038051547,0.12371288504121883,-0.13266207910817598,0.10649753043423676,0.0,0.0,-0.6,0.0,0.002473592758178711,0.004616260528564453,0
0.1045389175415039,-0.12896762788295746,-0.08197920769453049,-0.23972702026367188,-0.08865495783411949,-0.5868291757533385,0.1251765878661332,-0.130474672022688,0.10779388049175924,0.0,0.0,-0.6,0.0,0.0018258094787597656,0.0029180049896240234,0
0.11453485488891602,-0.12896762788295746,-0.08197920769453049,-0.23972702026367188,-0.08865495783411949,-0.5878978537079858,0.12588160113753194,-0.12853449460661057,0.10870132553202694,0.0,0.0,-0.6,0.0,0.001444101333618164,0.002730131149291992,0
0.12325716018676758,-0.12896762788295746,-0.08197920769453049,-0.23972702026367188,-0.08865495783411949,-0.5887409272223518,0.12612538082340455,-0.12685930790649577,0.10933653706021303,0.0,0.0,-0.6,0.0,0.0015718936920166016,0.002778768539428711,0
0.1336991786956787,-0.1288646012544632,-0.08203892409801483,-0.23989950120449066,-0.08844424595195652,-0.5893841090984483,0.12735121386513223,-0.12222437255413106,0.10970216817413309,0.0,0.0,-0.6,0.0,0.0015304088592529297,0.0027353763580322266,0
0.141357421875,-0.1288646012544632,-0.08203892409801483,-0.23989950120449066,-0.08844424595195652,-0.5898864615824805,0.12804760948707186,-0.11882817932996038,0.1099581099538766,0.0,0.0,-0.6,0.0,0.0014309883117675781,0.003612995147705078,0
0.15221428871154785,-0.1288646012544632,-0.08203892409801483,-0.23989950120449066,-0.08844424595195652,-0.5902790570314572,0.12841099507981046,-0.11633365277092945,0.11013726919969745,0.0,0.0,-0.6,0.0,0.0017898082733154297,0.002925395965576172,0
0.16080522537231445,-0.12861505150794983,-0.08214417099952698,-0.24011988937854767,-0.08844692630113184,-0.5905226237717879,0.12709276260221117,-0.11012499103803272,0.11026368580271274,0.0,0.0,-0.6,0.0,0.002071380615234375,0.0032248497009277344,0
0.17172479629516602,-0.12861505150794983,-0.08214417099952698,-0.24011988937854767,-0.08844692630113184,-0.590702752134346,0.12612489177051853,-0.1057717117746382,0.11035217742482342,0.0,0.0,-0.6,0.0,0.002088785171508789,0.0036153793334960938,0
0.18198800086975098,-0.12861505150794983,-0.08214417099952698,-0.24011988937854767,-0.08844692630113184,-0.5908367442471502,0.12541470421610726,-0.10271851198651523,0.11041412156030078,0.0,0.0,-0.6,0.0,0.0016963481903076172,0.0030074119567871094,0
0.19178009033203125,-0.12837162613868713,-0.08223313093185425,-0.2403636872768402,-0.08819105296482807,-0.5908168529991914,0.12467368424836756,-0.09437464830960383,0.11036152995402113,0.0,0.0,-0.6,0.0,0.0022630691528320312,0.0041429996490478516,0
0.20415949821472168,-0.12820839881896973,-0.08227862417697906,-0.24053509533405304,-0.087805690950571,-0.5907362683236647,0.12350412892966887,-0.0862965461328289,0.11018020507427909,0.0,0.0,-0.6,0.0,0.0021882057189941406,0.004247903823852539,0
0.215775728225708,-0.12820839881896973,-0.08227862417697906,-0.24053509533405304,-0.087805690950571,-0.5906581005907817,0.12270924694501424,-0.0807588450628627,0.11005327765845961,0.0,0.0,-0.6,0.0,0.0029611587524414062,0.004614830017089844,0
0.22777819633483887,-0.12746945023536682,-0.08242601156234741,-0.2414775788784027,-0.08552377163974116,-0.5901936790844784,0.12219069351094852,-0.0667405228019045,0.10910870872582396,0.0,0.0,-0.6,0.0,0.0026264190673828125,0.004132747650146484,0
0.23753690719604492,-0.12746945023536682,-0.08242601156234741,-0.2414775788784027,-0.08552377163974116,-0.5898026395855938,0.12191655587910932,-0.05723771505812867,0.10844751047298036,0.0,0.0,-0.6,0.0,0.002360820770263672,0.0038690567016601562,0
0.24987411499023438,-0.12680380046367645,-0.08256284892559052,-0.24250368773937225,-0.08341716655179171,-0.589169205782229,0.12353617063004066,-0.040667563968806233,0.10719469478800722,0.0,0.0,-0.6,0.0,0.0017733573913574219,0.0038514137268066406,0
0.25993895530700684,-0.12680380046367645,-0.08256284892559052,-0.24250368773937225,-0.08341716655179171,-0.5886444417160678,0.12476579068053975,-0.029465529670476227,0.10631772380852478,0.0,0.0,-0.6,0.0,0.0014791488647460938,0.002579927444458008,0
0.27051377296447754,-0.12602338194847107,-0.08270798623561859,-0.2439139485359192,-0.08041998957347904,-0.5878585905781469,0.12681297993945218,-0.009631369284720654,0.1045799027560177,0.0,0.0,-0.6,0.0,0.0024852752685546875,0.003994941711425781,0
0.2824535369873047,-0.12602338194847107,-0.08270798623561859,-0.2439139485359192,-0.08041998957347904,-0.5872102836618002,0.12837014041812936,0.0037604598150637533,0.10336342801926401,0.0,0.0,-0.6,0.0,0.002372264862060547,0.003582000732421875,0
0.29377198219299316,-0.12480944395065308,-0.08298704773187637,-0.24690723419189453,-0.07516873672722828,-0.5859614524960054,0.12752963146165328,0.027848281169040923,0.10054267588619824,0.0,0.0,-0.6,0.0,0.0018527507781982422,0.004220724105834961,0
0.3051271438598633,-0.12480944395065308,-0.08298704773187637,-0.24690723419189453,-0.07516873672722828,-0.5849371362430061,0.1272104322886805,0.04398782887483341,0.09856814939304792,0.0,0.0,-0.6,0.0,0.0022897720336914062,0.004239797592163086,0
0.3167858123779297,-0.12480944395065308,-0.08298704773187637,-0.24690723419189453,-0.07516873672722828,-0.5841079368267125,0.12722262405414378,0.05477730179390469,0.09718598084784554,0.0,0.0,-0.6,0.0,0.002906322479248047,0.004334211349487305,0
0.329054594039917,-0.1236167848110199,-0.08317818492650986,-0.25064200162887573,-0.06958441938760616,-0.5828823422349462,0.12107715051190591,0.07593617948223033,0.09412434386383663,0.0,0.0,-0.6,0.0,0.0015118122100830078,0.003393888473510742,0
0.3391444683074951,-0.1236167848110199,-0.08317818492650986,-0.25064200162887573,-0.06958441938760616,-0.5818790320493046,0.1171511320604316,0.09008660024367415,0.09198119797503265,0.0,0.0,-0.6,0.0,0.0018854141235351562,0.0033464431762695312,0
0.35054922103881836,-0.12285594642162323,-0.08323853462934494,-0.25301238894462585,-0.06619389239633121,-0.5806752548970525,0.0995455715650094,0.10394083500909161,0.08920954823114984,0.0,0.0,-0.6,0.0,0.006109952926635742,0.0075206756591796875,0
0.3644552230834961,-0.12212374061346054,-0.08335129916667938,-0.25567036867141724,-0.06269811156772456,-0.5793432675545644,0.09415880672730015,0.1186726111803326,0.08595847559969357,0.0,0.0,-0.6,0.0,0.0015943050384521484,0.002824544906616211,0
0.37428998947143555,-0.12212374061346054,-0.08335129916667938,-0.25567036867141724,-0.06269811156772456,-0.5782701574283163,0.09079635770963512,0.1284149786153864,0.08368272475767659,0.0,0.0,-0.6,0.0,0.002125263214111328,0.0043218135833740234,0
0.38555359840393066,-0.12039999663829803,-0.08345864713191986,-0.2617623507976532,-0.055473914148011394,-0.5766141374855348,0.07506805697915865,0.14512669266794703,0.07938062513587472,0.0,0.0,-0.6,0.0,0.0020906925201416016,0.0032911300659179688,0
0.39699602127075195,-0.12039999663829803,-0.08345864713191986,-0.2617623507976532,-0.055473914148011394,-0.5752665374268247,0.06473858822770667,0.1561222099719371,0.07636915540061959,0.0,0.0,-0.6,0.0,0.002180814743041992,0.003742694854736328,0
0.4093458652496338,-0.1191318929195404,-0.0834917202591896,-0.26699694991111755,-0.04964120092316484,-0.573550786398169,0.04887847094195465,0.1697291897074794,0.07207385912662481,0.0,0.0,-0.6,0.0,0.002081155776977539,0.003200531005859375,0
0.42038416862487793,-0.1191318929195404,-0.0834917202591896,-0.26699694991111755,-0.04964120092316484,-0.5721624233570733,0.03848749077835904,0.17862337919974153,0.06906715173482719,0.0,0.0,-0.6,0.0,0.0022568702697753906,0.0038957595825195312,0
0.43099212646484375,-0.11758418381214142,-0.08338973671197891,-0.2728540599346161,-0.04365958865351603,-0.5706069933033268,0.01615748047154709,0.18378202374149696,0.06471935195945189,0.0,0.0,-0.6,0.0,0.001321554183959961,0.002447366714477539,0
0.4405045509338379,-0.11758418381214142,-0.08338973671197891,-0.2728540599346161,-0.04365958865351603,-0.5693409295163812,0.0013115027360288325,0.18696292352416258,0.061675892116685234,0.0,0.0,-0.6,0.0,0.001795053482055664,0.0033702850341796875,0
0.45174384117126465,-0.11758418381214142,-0.08338973671197891,-0.2728540599346161,-0.04365958865351603,-0.5683198228318994,-0.008529406583529709,0.18888051050840338,0.059545470226748456,0.0,0.0,-0.6,0.0,0.00182342529296875,0.003081083297729492,0
0.46305274963378906,-0.11506425589323044,-0.08326892554759979,-0.28316164016723633,-0.03396611805702076,-0.5665499863143036,-0.015137535094069846,0.20112427322837195,0.05441912343011183,0.0,0.0,-0.6,0.0,0.0015311241149902344,0.002565145492553711,0
0.4707345962524414,-0.11506425589323044,-0.08326892554759979,-0.28316164016723633,-0.03396611805702076,-0.5651392219679283,-0.019218639408864154,0.20915719188531354,0.05083068067246154,0.0,0.0,-0.6,0.0,0.002724885940551758,0.004205942153930664,0
0.48203253746032715,-0.11506425589323044,-0.08326892554759979,-0.28316164016723633,-0.03396611805702076,-0.5640173413217767,-0.02166038102563976,0.21441377344791648,0.048318770742104014,0.0,0.0,-0.6,0.0,0.0019359588623046875,0.0034639835357666016,0
0.4929492473602295,-0.11336206644773483,-0.08317500352859497,-0.2895714044570923,-0.02877487524938428,-0.5626482519924595,-0.02638312691345789,0.22231455349419904,0.04461371773799562,0.0,0.0,-0.6,0.0,0.0025234222412109375,0.004477500915527344,0
0.5040359497070312,-0.11129561066627502,-0.08306626230478287,-0.2971932291984558,-0.021402179930597873,-0.5609007075713276,-0.03828654699751282,0.23232507763628701,0.039255419890571845,0.0,0.0,-0.6,0.0,0.0017521381378173828,0.00405430793762207,0
0.5158872604370117,-0.11129561066627502,-0.08306626230478287,-0.2971932291984558,-0.021402179930597873,-0.5595059491067867,-0.046006686585744555,0.23891671252618563,0.03550461139737499,0.0,0.0,-0.6,0.0,0.0014247894287109375,0.003620147705078125,0
0.5266339778900146,-0.11030121892690659,-0.08296775817871094,-0.3007037341594696,-0.018609214304371086,-0.5581809201829702,-0.05125609885635229,0.24238513305446788,0.03183168334229895,0.0,0.0,-0.6,0.0,0.00499725341796875,0.006306648254394531,0
0.5486195087432861,-0.10802441090345383,-0.08263307064771652,-0.3088143467903137,-0.010991905711458076,-0.5569139493001629,-0.06622834756655308,0.23848505367810857,0.02640414298140912,0.0,0.0,-0.6,0.0,0.0036246776580810547,0.007626533508300781,0
0.5710864067077637,-0.10802441090345383,-0.08263307064771652,-0.3088143467903137,-0.010991905711458076,-0.5558928877810927,-0.07615833668459997,0.23569113269267283,0.022604864728785312,0.0,0.0,-0.6,0.0,0.0032639503479003906,0.006654977798461914,0
0.5899941921234131,-0.10274156183004379,-0.08193811029195786,-0.3265533745288849,0.004278533972839198,-0.5542662490219475,-0.07038605423500113,0.24469200468610802,0.01421895507033613,0.0,0.0,-0.6,0.0,0.0033960342407226562,0.006872892379760742,0
0.6095612049102783,-0.10274156183004379,-0.08193811029195786,-0.3265533745288849,0.004278533972839198,-0.5529802222316508,-0.06617865853632847,0.2508018379917068,0.008348818309421368,0.0,0.0,-0.6,0.0,0.003963947296142578,0.007324695587158203,0
0.6266610622406006,-0.09810243546962738,-0.08127417415380478,-0.3409315049648285,0.017590335605978967,-0.5515527680511482,-0.07362825607167664,0.24629960518784383,-0.0007522030356538426,0.0,0.0,-0.6,0.0,0.003008604049682617,0.006328582763671875,0
0.646918773651123,-0.09810243546962738,-0.08127417415380478,-0.3409315049648285,0.017590335605978967,-0.5504085078437826,-0.0784266412953163,0.2432047787839396,-0.007122917977201719,0.0,0.0,-0.6,0.0,0.0023255348205566406,0.004335641860961914,0
0.6621818542480469,-0.09431029111146927,-0.08064501732587814,-0.35245251655578613,0.027849899304362588,-0.5491656294727251,-0.08304450830101813,0.24058146530580807,-0.015429754823179678,0.0,0.0,-0.6,0.0,0.003737211227416992,0.007058382034301758,0
0.6815094947814941,-0.09431029111146927,-0.08064501732587814,-0.35245251655578613,0.027849899304362588,-0.5481720270027116,-0.08599733784888858,0.23881113796013703,-0.021244540615360973,0.0,0.0,-0.6,0.0,0.003097057342529297,0.006519794464111328,0
0.7009317874908447,-0.08913309127092361,-0.079441599547863,-0.36767008900642395,0.041329013376847516,-0.5471713441175742,-0.07759301106991776,0.2334992935067866,-0.03036955844706929,0.0,0.0,-0.6,0.0,0.0017032623291015625,0.002605915069580078,0
0.70892333984375,-0.08913309127092361,-0.079441599547863,-0.36767008900642395,0.041329013376847516,-0.5463666938444787,-0.07172026151873517,0.2299967940346016,-0.03675707092926547,0.0,0.0,-0.6,0.0,0.0013391971588134766,0.002346038818359375,0
0.7164912223815918,-0.08652279525995255,-0.07880261540412903,-0.37521854043006897,0.048370970254980904,-0.5455121054842605,-0.062393215163477705,0.22251646208482634,-0.04386906349609964,0.0,0.0,-0.6,0.0,0.0015110969543457031,0.002602100372314453,0
0.723351240158081,-0.08652279525995255,-0.07880261540412903,-0.37521854043006897,0.048370970254980904,-0.544821075024471,-0.0558997292348629,0.21753052346836496,-0.04884745829288261,0.0,0.0,-0.6,0.0,0.001512289047241211,0.002524852752685547,0
0.7312688827514648,-0.08522854000329971,-0.07847084105014801,-0.3789738118648529,0.05143434320987921,-0.54423061405062,-0.05216218481321997,0.21222357980644505,-0.053481099508721916,0.0,0.0,-0.6,0.0,0.0016477108001708984,0.0025920867919921875,0
0.7398073673248291,-0.08393938094377518,-0.07813598215579987,-0.38269802927970886,0.05490843871469312,-0.5437573767633032,-0.04962895410632554,0.2057540571791841,-0.05802743417411466,0.0,0.0,-0.6,0.0,0.0012879371643066406,0.0022575855255126953,0
0.7503008842468262,-0.08265101164579391,-0.07780062407255173,-0.3863993287086487,0.05834714817097662,-0.5433396742286216,-0.04799656066886228,0.19871501178205475,-0.06249938448599203,0.0,0.0,-0.6,0.0,0.0016634464263916016,0.0029811859130859375,0
0.7606227397918701,-0.0813593938946724,-0.07747561484575272,-0.39010345935821533,0.061277493314244466,-0.5429201218247561,-0.04495949764741072,0.19057955376673122,-0.06672862913303554,0.0,0.0,-0.6,0.0,0.0015358924865722656,0.002737760543823242,0
0.7700858116149902,-0.0787794217467308,-0.07680454850196838,-0.3973546624183655,0.06809910912699622,-0.5425783225881168,-0.03712090798362903,0.17823131853784646,-0.07224720631576688,0.0,0.0,-0.6,0.0,0.0015871524810791016,0.0028290748596191406,0
0.7802383899688721,-0.0787794217467308,-0.07680454850196838,-0.3973546624183655,0.06809910912699622,-0.5422896663664181,-0.031697341997665024,0.16986928003573565,-0.07611021034365989,0.0,0.0,-0.6,0.0,0.001928567886352539,0.003048419952392578,0
0.7908356189727783,-0.0774860605597496,-0.0764775350689888,-0.40092402696609497,0.07100231903906089,-0.5419965110154056,-0.024688406265745318,0.159301730673278,-0.07990301688020925,0.0,0.0,-0.6,0.0,0.0014889240264892578,0.002810239791870117,0
0.8008310794830322,-0.07619044184684753,-0.07614489644765854,-0.40446937084198,0.07439584740811274,-0.5417892816859771,-0.019016703808715715,0.14723156777508284,-0.08383055459418483,0.0,0.0,-0.6,0.0,0.0012102127075195312,0.0024785995483398438,0
0.8118369579315186,-0.07490018010139465,-0.07582095265388489,-0.40796294808387756,0.07775202295642802,-0.5416710355913769,-0.014681208092173562,0.13603548583435734,-0.08783839682459284,0.0,0.0,-0.6,0.0,0.0018360614776611328,0.003813505172729492,0
0.822495698928833,-0.07490018010139465,-0.07582095265388489,-0.40796294808387756,0.07775202295642802,-0.5415654387708407,-0.01168317285489224,0.12840829901747847,-0.09064388638587756,0.0,0.0,-0.6,0.0,0.0010089874267578125,0.0018203258514404297,0
0.8321123123168945,-0.071900874376297,-0.07511203736066818,-0.4157606065273285,0.0847663973589566,-0.5413990626530988,-0.006061707463091078,0.12534054133585792,-0.09523811947971841,0.0,0.0,-0.6,0.0,0.00173187255859375,0.003672361373901367,0
0.8424906730651855,-0.071900874376297,-0.07511203736066818,-0.4157606065273285,0.0847663973589566,-0.5412647087056013,-0.002196211096415463,0.1232832399079212,-0.09845408264541955,0.0,0.0,-0.6,0.0,0.0019087791442871094,0.003968954086303711,0
0.8567004203796387,-0.06890162080526352,-0.07449907064437866,-0.42326343059539795,0.09206435262973302,-0.5412037506603596,0.00845960881364664,0.11218981026308848,-0.10344199008794723,0.0,0.0,-0.6,0.0,0.0019397735595703125,0.002960205078125,0
0.8658609390258789,-0.06890162080526352,-0.07449907064437866,-0.42326343059539795,0.09206435262973302,-0.541145063145215,0.015776836285857382,0.10464820418237102,-0.10693352529770944,0.0,0.0,-0.6,0.0,0.0016431808471679688,0.0038318634033203125,0
0.878929615020752,-0.06631659716367722,-0.07399583607912064,-0.4297347962856293,0.09739376333687909,-0.5411701809422832,0.019383245710875317,0.09536427008446845,-0.11137612895972182,0.0,0.0,-0.6,0.0,0.002631664276123047,0.004483461380004883,0
0.8915369510650635,-0.06412151455879211,-0.07356148213148117,-0.435214102268219,0.10312177613535334,-0.5411511904310864,0.02909047696139774,0.08624335312850669,-0.11663395632255752,0.0,0.0,-0.6,0.0,0.008901834487915039,0.010336875915527344,0
0.9080426692962646,-0.06412151455879211,-0.07356148213148117,-0.435214102268219,0.10312177613535334,-0.5411302173343031,0.03575272034179132,0.08004238441912853,-0.12031443547655046,0.0,0.0,-0.6,0.0,0.003115415573120117,0.004456520080566406,0
0.9200711250305176,-0.06052671745419502,-0.07282094657421112,-0.4444287419319153,0.110594110780029,-0.541041564585267,0.041092138787032606,0.06755770232816936,-0.12569289637610015,0.0,0.0,-0.6,0.0,0.0031104087829589844,0.004462003707885742,0
0.9324967861175537,-0.06052671745419502,-0.07282094657421112,-0.4444287419319153,0.110594110780029,-0.540961354783207,0.044786852107853006,0.059056042208936274,-0.1294578190057772,0.0,0.0,-0.6,0.0,0.002369403839111328,0.004378080368041992,0
0.9455628395080566,-0.05852165445685387,-0.07241234928369522,-0.44964122772216797,0.11567545405009098,-0.5409422201207855,0.04652617046783238,0.0465591410874636,-0.1339987685728236,0.0,0.0,-0.6,0.0,0.0021834373474121094,0.004470348358154297,0
0.9587001800537109,-0.056346748024225235,-0.07201908528804779,-0.45547357201576233,0.12045120172813437,-0.5408637287974677,0.050309700939518594,0.030035091564417974,-0.13896833864902194,0.0,0.0,-0.6,0.0,0.0016074180603027344,0.003084897994995117,0
0.9700462818145752,-0.056346748024225235,-0.07201908528804779,-0.45547357201576233,0.12045120172813437,-0.5407894849407976,0.05294913015675726,0.018763927785214643,-0.14244703770236225,0.0,0.0,-0.6,0.0,0.0015459060668945312,0.0031485557556152344,0
0.9806711673736572,-0.054544366896152496,-0.07172469049692154,-0.4604617655277252,0.12527496476496344,-0.5406891089981686,0.05949397786954484,0.009880692846143372,-0.14669103817851062,0.0,0.0,-0.6,0.0,0.002151966094970703,0.0034923553466796875,0
0.9917943477630615,-0.054544366896152496,-0.07172469049692154,-0.4604617655277252,0.12527496476496344,-0.5406078455509379,0.06400276076005665,0.0038405866053660377,-0.14966183851181575,0.0,0.0,-0.6,0.0,0.0022499561309814453,0.003790140151977539,0
1.0026850700378418,-0.051844220608472824,-0.07127981632947922,-0.46821022033691406,0.13207209716108909,-0.5405130034355101,0.06265982983413267,-0.011388287478888173,-0.1542903233936748,0.0,0.0,-0.6,0.0,0.0017859935760498047,0.003324270248413086,0
1.0148143768310547,-0.051844220608472824,-0.07127981632947922,-0.46821022033691406,0.13207209716108909,-0.5404276011038222,0.06179450851380773,-0.021786550285566263,-0.1575302628109775,0.0,0.0,-0.6,0.0,0.0017347335815429688,0.0036051273345947266,0
1.0256309509277344,-0.05002090334892273,-0.07102600485086441,-0.4737544655799866,0.13649791966477456,-0.5403141078686466,0.06451005450492289,-0.032355884057194466,-0.16145790384197078,0.0,0.0,-0.6,0.0,0.0016546249389648438,0.003020048141479492,0
1.0365588665008545,-0.05002090334892273,-0.07102600485086441,-0.4737544655799866,0.13649791966477456,-0.5402219947699095,0.06640827582543889,-0.039559461147700675,-0.16420725256366725,0.0,0.0,-0.6,0.0,0.0017864704132080078,0.003292083740234375,0
1.0466692447662354,-0.04829280823469162,-0.07083337008953094,-0.4792264401912689,0.14084182792390676,-0.5401397458841278,0.06841870515621408,-0.04938231779103178,-0.16776076226602854,0.0,0.0,-0.6,0.0,0.0014925003051757812,0.0028412342071533203,0
1.0567774772644043,-0.047473449259996414,-0.07076728343963623,-0.4819409251213074,0.1431441226433958,-0.5400311984206513,0.06997088634235833,-0.05776254132207392,-0.17111157957749007,0.0,0.0,-0.6,0.0,0.0020415782928466797,0.003857135772705078,0
1.0674865245819092,-0.047473449259996414,-0.07076728343963623,-0.4819409251213074,0.1431441226433958,-0.5399449801446046,0.07106862909140421,-0.06347680061647076,-0.17345715169551412,0.0,0.0,-0.6,0.0,0.0018508434295654297,0.003330707550048828,0
1.077646017074585,-0.04593507573008537,-0.07062862813472748,-0.48730334639549255,0.14735848820774444,-0.5397728800487079,0.06962292315219437,-0.06782446013964807,-0.17667943926476082,0.0,0.0,-0.6,0.0,0.0015151500701904297,0.0029299259185791016,0
1.0878431797027588,-0.045213039964437485,-0.07058422267436981,-0.48995235562324524,0.149426540942445,-0.5395822032587339,0.0676233959705946,-0.07030228118040896,-0.1797105603387464,0.0,0.0,-0.6,0.0,0.0018270015716552734,0.0033292770385742188,0
1.0982413291931152,-0.045213039964437485,-0.07058422267436981,-0.48995235562324524,0.149426540942445,-0.5394285356708132,0.06629943865410204,-0.07198764191797304,-0.18183234509053725,0.0,0.0,-0.6,0.0,0.0017352104187011719,0.0031545162200927734,0
1.1082763671875,-0.04326231777667999,-0.07054152339696884,-0.49770063161849976,0.1552920238104756,-0.5393086878483752,0.06457490826251996,-0.0813057069727889,-0.18551715049230075,0.0,0.0,-0.6,0.0,0.0016760826110839844,0.0031328201293945312,0
1.118011713027954,-0.04326231777667999,-0.07054152339696884,-0.49770063161849976,0.1552920238104756,-0.5392122801534779,0.06344198093301402,-0.08767027915159809,-0.1880965142735363,0.0,0.0,-0.6,0.0,0.001756429672241211,0.003276824951171875,0
1.128148078918457,-0.04326231777667999,-0.07054152339696884,-0.49770063161849976,0.1552920238104756,-0.5391356105282369,0.06269796003835132,-0.09201763954328791,-0.18990206892040196,0.0,0.0,-0.6,0.0,0.0016450881958007812,0.003168821334838867,0
1.1378657817840576,-0.04209153726696968,-0.07057888060808182,-0.5027329921722412,0.15900694708490068,-0.5391186899930106,0.06409638408867988,-0.0971883771113083,-0.19255905340111645,0.0,0.0,-0.6,0.0,0.0016856193542480469,0.003019094467163086,0
1.1477339267730713,-0.04209153726696968,-0.07057888060808182,-0.5027329921722412,0.15900694708490068,-0.539108030778268,0.06506602122877876,-0.10071896850597525,-0.1944189425376174,0.0,0.0,-0.6,0.0,0.0016722679138183594,0.0034220218658447266,0
1.1579580307006836,-0.041027091443538666,-0.07066666334867477,-0.5076337456703186,0.16273273818705364,-0.539100903660197,0.0635325005666195,-0.10146443120161194,-0.1971180365964746,0.0,0.0,-0.6,0.0,0.0017108917236328125,0.0030984878540039062,0
1.167860507965088,-0.041027091443538666,-0.07066666334867477,-0.5076337456703186,0.16273273818705364,-0.5390940954529739,0.06248745414301532,-0.10197494387551474,-0.19900740243767542,0.0,0.0,-0.6,0.0,0.0016658306121826172,0.003196239471435547,0
1.1779983043670654,-0.03997327759861946,-0.07075674086809158,-0.513046383857727,0.1669879250349861,-0.5390299527630377,0.05897853590168838,-0.1024111969719595,-0.20192565359448966,0.0,0.0,-0.6,0.0,0.0036046504974365234,0.005750894546508789,0
1.190720796585083,-0.03997327759861946,-0.07075674086809158,-0.513046383857727,0.1669879250349861,-0.5389755940955786,0.05659526137241272,-0.10271574742572397,-0.20396842940426052,0.0,0.0,-0.6,0.0,0.0015408992767333984,0.003162384033203125,0
1.2019572257995605,-0.0392097607254982,-0.07086371630430222,-0.5176494717597961,0.17005471987597487,-0.5389270692669385,0.05734960320395933,-0.10456604869418604,-0.20654842053647035,0.0,0.0,-0.6,0.0,0.0017616748809814453,0.0033588409423828125,0
1.2126436233520508,-0.038679253309965134,-0.07103240489959717,-0.5215678215026855,0.1733079193299886,-0.5389873916634402,0.05175947633923007,-0.10820596244475011,-0.20957436412427194,0.0,0.0,-0.6,0.0,0.001590728759765625,0.0031235218048095703,0
1.2220675945281982,-0.038679253309965134,-0.07103240489959717,-0.5215678215026855,0.1733079193299886,-0.5390320078590726,0.04793050388042771,-0.11069816209274208,-0.21169252463573396,0.0,0.0,-0.6,0.0,0.0017316341400146484,0.0031354427337646484,0
1.232515573501587,-0.03820311278104782,-0.07116451859474182,-0.5259522199630737,0.17610658477413818,-0.5391432676887066,0.04367878376712658,-0.11376644093762582,-0.21422473653531304,0.0,0.0,-0.6,0.0,0.0016722679138183594,0.003129243850708008,0
1.2416844367980957,-0.03820311278104782,-0.07116451859474182,-0.5259522199630737,0.17610658477413818,-0.5392301067770691,0.04075181560120168,-0.11585964883005016,-0.21599728486501918,0.0,0.0,-0.6,0.0,0.0018372535705566406,0.0032532215118408203,0
1.2522521018981934,-0.03790150582790375,-0.07127779722213745,-0.5296666026115417,0.17906999668826315,-0.5393124576085796,0.03922582909076989,-0.11456225728645296,-0.21834934816360974,0.0,0.0,-0.6,0.0,0.0018568038940429688,0.003492593765258789,0
1.2617404460906982,-0.03790150582790375,-0.07127779722213745,-0.5296666026115417,0.17906999668826315,-0.5393757907665618,0.03816183510574874,-0.11366761881474603,-0.21999579247262385,0.0,0.0,-0.6,0.0,0.0017037391662597656,0.00310516357421875,0
1.2723326683044434,-0.03765649348497391,-0.07136021554470062,-0.5338120460510254,0.18167153887127777,-0.5395110942524742,0.03231707676649887,-0.11449174727298479,-0.2221238818075637,0.0,0.0,-0.6,0.0,0.0015702247619628906,0.003084421157836914,0
1.2813458442687988,-0.03765649348497391,-0.07136021554470062,-0.5338120460510254,0.18167153887127777,-0.539614251233469,0.02828910243509032,-0.11504545121082257,-0.22361354434202224,0.0,0.0,-0.6,0.0,0.0017292499542236328,0.0031328201293945312,0
1.290869951248169,-0.037564001977443695,-0.07145077735185623,-0.5372843146324158,0.18438701751769723,-0.5397366136165118,0.023481238969240984,-0.11541374654356754,-0.22567461260854996,0.0,0.0,-0.6,0.0,0.0016624927520751953,0.003152608871459961,0
1.3008410930633545,-0.037564001977443695,-0.07145077735185623,-0.5372843146324158,0.18438701751769723,-0.5398303378980654,0.020165258103355437,-0.115653998371044,-0.22711736039511998,0.0,0.0,-0.6,0.0,0.001947164535522461,0.0035080909729003906,0
1.3109285831451416,-0.03752099722623825,-0.07157105207443237,-0.5411783456802368,0.18660604596135055,-0.5399141318658548,0.01451007634698459,-0.11559778595199202,-0.2289594195120886,0.0,0.0,-0.6,0.0,0.0019538402557373047,0.003484487533569336,0
1.3217508792877197,-0.037550024688243866,-0.0716475173830986,-0.5425781011581421,0.1877759134071852,-0.5400271748417592,0.013838060064387873,-0.1148002937628835,-0.23068756118615472,0.0,0.0,-0.6,0.0,0.002696514129638672,0.004167795181274414,0
1.332495927810669,-0.03756921738386154,-0.07172687351703644,-0.5444526076316833,0.1887805663275314,-0.5401706958973704,0.011356256901227716,-0.11159233728713625,-0.232274005203131,0.0,0.0,-0.6,0.0,0.0017728805541992188,0.0033087730407714844,0
1.3425683975219727,-0.03756921738386154,-0.07172687351703644,-0.5444526076316833,0.1887805663275314,-0.5402801098696819,0.009621932343413062,-0.10937659032595054,-0.23338451601501484,0.0,0.0,-0.6,0.0,0.0016071796417236328,0.0031664371490478516,0
1.3527944087982178,-0.03768195956945419,-0.0719122365117073,-0.5494031310081482,0.1919224997783983,-0.5404098465739343,0.005654532908482422,-0.1053338191599336,-0.2353400986274078,0.0,0.0,-0.6,0.0,0.00211334228515625,0.003755807876586914,0
1.3631319999694824,-0.03768195956945419,-0.0719122365117073,-0.5494031310081482,0.1919224997783983,-0.5405060887090144,0.0029050006341900993,-0.10254783363956052,-0.23670900645608342,0.0,0.0,-0.6,0.0,0.0017614364624023438,0.0032198429107666016,0
1.3730967044830322,-0.03775119036436081,-0.07199345529079437,-0.5511474013328552,0.19277971206584982,-0.5405701170522288,0.0021835015476705565,-0.09702207802132365,-0.2379886965439508,0.0,0.0,-0.6,0.0,0.0018546581268310547,0.003342151641845703,0
1.3831696510314941,-0.03797711059451103,-0.07215943187475204,-0.5545381903648376,0.19446942132176925,-0.5406629364456467,0.0010443154139884315,-0.09107690453241267,-0.2395181205764275,0.0,0.0,-0.6,0.0,0.0016431808471679688,0.003200054168701172,0
1.3934316635131836,-0.03797711059451103,-0.07215943187475204,-0.5545381903648376,0.19446942132176925,-0.5407300314932987,0.00023716455666208545,-0.08699271922264608,-0.24058871739916166,0.0,0.0,-0.6,0.0,0.002109527587890625,0.003030538558959961,0
1.4016871452331543,-0.038208603858947754,-0.07225717604160309,-0.5574102997779846,0.19615327180047426,-0.5408608453597615,-0.002133895926121705,-0.08311411070709698,-0.24196957910458963,0.0,0.0,-0.6,0.0,0.001245260238647461,0.0022034645080566406,0
1.4106876850128174,-0.03836691007018089,-0.07234054058790207,-0.5590112805366516,0.19713076813740554,-0.5409234361186505,-0.0016212238039945955,-0.07786847273491906,-0.24330274342473848,0.0,0.0,-0.6,0.0,0.0012052059173583984,0.002294778823852539,0
1.4209589958190918,-0.03853277117013931,-0.07241544127464294,-0.5605788826942444,0.1979974494880172,-0.5410080319160979,-4.349243288438308e-05,-0.07423395547257387,-0.24456096395532215,0.0,0.0,-0.6,0.0,0.0012857913970947266,0.0028502941131591797,0
1.4306981563568115,-0.03871561214327812,-0.07247944176197052,-0.5621117949485779,0.19887545932178077,-0.5411857034118134,0.00021945121228839846,-0.07164798788709326,-0.24577097201439208,0.0,0.0,-0.6,0.0,0.001163482666015625,0.002170085906982422,0
1.4403266906738281,-0.03892512619495392,-0.07252154499292374,-0.5635895729064941,0.19967806716656863,-0.5414247599726915,-0.00043740745235030886,-0.0691880157740125,-0.24691895559753654,0.0,0.0,-0.6,0.0,0.001220703125,0.0023124217987060547,0
1.4500865936279297,-0.03892512619495392,-0.07252154499292374,-0.5635895729064941,0.19967806716656863,-0.5416124828747345,-0.0009408420173910507,-0.06745111596853318,-0.24772254410573802,0.0,0.0,-0.6,0.0,0.0014159679412841797,0.0024755001068115234,0
1.4609160423278809,-0.03937830775976181,-0.07262081652879715,-0.5664550065994263,0.20096129757322398,-0.5417931725627404,-0.0017702788924784264,-0.06298166864900066,-0.24876626746397457,0.0,0.0,-0.6,0.0,0.0015285015106201172,0.0026788711547851562,0
1.4698843955993652,-0.039623938500881195,-0.0726587176322937,-0.5678447484970093,0.20170607229258725,-0.5420151177616233,-0.004418094404094842,-0.05676181069053095,-0.2497761643345014,0.0,0.0,-0.6,0.0,0.0013234615325927734,0.002515077590942383,0
1.4804325103759766,-0.039876241236925125,-0.07267511636018753,-0.5691998600959778,0.2022935568915056,-0.5421225952975282,-0.006541601204552366,-0.0516945223317528,-0.25070339886846466,0.0,0.0,-0.6,0.0,0.0014102458953857422,0.002470254898071289,0
1.490281343460083,-0.040133748203516006,-0.07270549982786179,-0.5705426335334778,0.20284863932347516,-0.5422469788553709,-0.01018658690761981,-0.04832070654544221,-0.25156061895421566,0.0,0.0,-0.6,0.0,0.0014214515686035156,0.0024030208587646484,0
1.5003924369812012,-0.04040913283824921,-0.07273323088884354,-0.5718549489974976,0.20341465576230397,-0.542323995611191,-0.011912337544311202,-0.0453899321009923,-0.25237292917881415,0.0,0.0,-0.6,0.0,0.0011916160583496094,0.0022237300872802734,0
1.5112707614898682,-0.04040913283824921,-0.07273323088884354,-0.5718549489974976,0.20341465576230397,-0.5423815630488934,-0.013110586534211788,-0.043365948421197155,-0.2529415463360412,0.0,0.0,-0.6,0.0,0.001495361328125,0.002596139907836914,0
1.520266056060791,-0.04096055030822754,-0.07274505496025085,-0.5744048357009888,0.2044405110388985,-0.5424787771003057,-0.011688603391706973,-0.03839195185554133,-0.253724274074815,0.0,0.0,-0.6,0.0,0.001508474349975586,0.002843618392944336,0
1.5305423736572266,-0.041250914335250854,-0.07273746281862259,-0.5756632089614868,0.2049524933433442,-0.5426473011544132,-0.010232639556303923,-0.032375226017112645,-0.2544641768561238,0.0,0.0,-0.6,0.0,0.0015606880187988281,0.0025861263275146484,0
1.541189193725586,-0.041559088975191116,-0.07271812856197357,-0.5768854022026062,0.20533876116349192,-0.5427890033318569,-0.009131812015676028,-0.02692598608707811,-0.25512695923558626,0.0,0.0,-0.6,0.0,0.0019478797912597656,0.0034601688385009766,0
1.5515460968017578,-0.04185456037521362,-0.0726851299405098,-0.5780848860740662,0.2057951642536556,-0.5429052004665326,-0.008794765468419488,-0.0229633368169197,-0.2557620580600306,0.0,0.0,-0.6,0.0,0.0018489360809326172,0.0032444000244140625,0
1.5605440139770508,-0.04211610183119774,-0.07267405837774277,-0.5793028473854065,0.20625037150358627,-0.5429909935516202,-0.010095731415038502,-0.018035114301111266,-0.25637732995586565,0.0,0.0,-0.6,0.0,0.0017347335815429688,0.0034589767456054688,0
1.570495843887329,-0.04239688441157341,-0.07264140993356705,-0.5804833769798279,0.20665082243150615,-0.543031561152167,-0.011969714327499832,-0.013588931791541116,-0.2569581893809121,0.0,0.0,-0.6,0.0,0.0012388229370117188,0.002213716506958008,0
1.5800690650939941,-0.04239688441157341,-0.07264140993356705,-0.5804833769798279,0.20665082243150615,-0.5430589510359943,-0.013262247251267689,-0.010536591351363435,-0.2573647909784585,0.0,0.0,-0.6,0.0,0.0014328956604003906,0.0025184154510498047,0
1.5908982753753662,-0.042945653200149536,-0.07255759090185165,-0.5828120708465576,0.20747365492963973,-0.5430609915339701,-0.012927348589871499,-0.00504103824041142,-0.25795797428353523,0.0,0.0,-0.6,0.0,0.0012722015380859375,0.0022711753845214844,0
1.600104808807373,-0.04320729523897171,-0.07251212745904922,-0.5839616060256958,0.20789647376211703,-0.5430939818689783,-0.011175945560801944,0.00036962457469016507,-0.25853175965926795,0.0,0.0,-0.6,0.0,0.0016241073608398438,0.002958536148071289,0
1.6117713451385498,-0.04355454444885254,-0.07243175059556961,-0.5853554010391235,0.2085626864287394,-0.5431869848758553,-0.009259878812554261,0.0028795560878487206,-0.2591832391722642,0.0,0.0,-0.6,0.0,0.0017437934875488281,0.0028629302978515625,0
1.6198477745056152,-0.04355454444885254,-0.07243175059556961,-0.5853554010391235,0.2085626864287394,-0.543259973703801,-0.007967192651433795,0.004620245714745782,-0.2596392748313618,0.0,0.0,-0.6,0.0,0.0012710094451904297,0.0022759437561035156,0
1.6303191184997559,-0.043804917484521866,-0.07233697175979614,-0.586463451385498,0.2088803863421181,-0.5433884598630939,-0.010434284276201479,0.0073809705922317954,-0.26007763726024097,0.0,0.0,-0.6,0.0,0.0014407634735107422,0.002516508102416992,0
1.6402673721313477,-0.044067177921533585,-0.07222817838191986,-0.5875362753868103,0.2092472271407744,-0.5434750873409889,-0.012856657514824305,0.010633086438928678,-0.2605220562599586,0.0,0.0,-0.6,0.0,0.0016815662384033203,0.002839803695678711,0
1.6503751277923584,-0.04448380321264267,-0.07197441905736923,-0.5893797278404236,0.20987841953697733,-0.5435331725779279,-0.012714730442040615,0.015226856960018,-0.261069846708337,0.0,0.0,-0.6,0.0,0.0014424324035644531,0.002898693084716797,0
1.6607675552368164,-0.04473422095179558,-0.07185590267181396,-0.5904058218002319,0.21019308356467833,-0.543555054350454,-0.012690725099265483,0.021162059765344268,-0.2615712990325898,0.0,0.0,-0.6,0.0,0.001283884048461914,0.00241851806640625,0
1.671323299407959,-0.04497631639242172,-0.07173129171133041,-0.591405987739563,0.21048240480500063,-0.5435995779486836,-0.015294562765570507,0.02490439016594203,-0.262030811124694,0.0,0.0,-0.6,0.0,0.0018322467803955078,0.002981424331665039,0
1.681044340133667,-0.04497631639242172,-0.07173129171133041,-0.591405987739563,0.21048240480500063,-0.5436313420787131,-0.017085033602383993,0.02747484271184801,-0.2623524695891607,0.0,0.0,-0.6,0.0,0.0017638206481933594,0.002833843231201172,0
1.6906442642211914,-0.045389458537101746,-0.07143183052539825,-0.5931429862976074,0.21106709298998372,-0.5436688686061877,-0.01730176620818132,0.03137546162793123,-0.2627968885836559,0.0,0.0,-0.6,0.0,0.0014438629150390625,0.002581357955932617,0
1.7000081539154053,-0.04564657434821129,-0.07127156108617783,-0.5940870046615601,0.21133790867439886,-0.5437382939643202,-0.016207608172126613,0.032903178770810906,-0.2632095377614583,0.0,0.0,-0.6,0.0,0.002057790756225586,0.00362396240234375,0
1.7110159397125244,-0.04592309147119522,-0.07110811769962311,-0.5950095057487488,0.21157791401136922,-0.5438250631676543,-0.01393213416648971,0.033940594070211556,-0.26358839418728386,0.0,0.0,-0.6,0.0,0.0015828609466552734,0.0030357837677001953,0
1.721475601196289,-0.04620012268424034,-0.07094284147024155,-0.5959150195121765,0.21179035659186013,-0.543876825804316,-0.011467189602173753,0.03232855558292343,-0.2639332596530459,0.0,0.0,-0.6,0.0,0.0015211105346679688,0.0024077892303466797,0
1.7303156852722168,-0.04639161378145218,-0.0708123967051506,-0.5966212153434753,0.21200727167004854,-0.5439587708415773,-0.016098947969776716,0.029639296101539796,-0.26425600863340454,0.0,0.0,-0.6,0.0,0.0021677017211914062,0.0032300949096679688,0
1.740919828414917,-0.04664650931954384,-0.07064196467399597,-0.597503662109375,0.21222167450824134,-0.5440245590193761,-0.017718010228166558,0.02694091219674786,-0.2645623339839734,0.0,0.0,-0.6,0.0,0.001523733139038086,0.002581357955932617,0
1.7507085800170898,-0.0468914620578289,-0.07048045843839645,-0.598377525806427,0.21241581670630375,-0.5441074212065831,-0.017273331908049208,0.025347974452167774,-0.264849565053645,0.0,0.0,-0.6,0.0,0.001697540283203125,0.0030112266540527344,0
1.7663052082061768,-0.0468914620578289,-0.07048045843839645,-0.598377525806427,0.21241581670630375,-0.5441745584245857,-0.01698234588849558,0.02427685860463717,-0.2650506268024152,0.0,0.0,-0.6,0.0,0.0017879009246826172,0.0035238265991210938,0
1.7756619453430176,-0.04756550118327141,-0.06998861581087112,-0.6007587909698486,0.21286268828489227,-0.5442378015808821,-0.017668481272998967,0.022623881615569243,-0.2653589468685249,0.0,0.0,-0.6,0.0,0.0014259815216064453,0.002548694610595703,0
1.7836873531341553,-0.04756550118327141,-0.06998861581087112,-0.6007587909698486,0.21286268828489227,-0.5442888926870247,-0.018147594523117667,0.021507332104136495,-0.2655747709148018,0.0,0.0,-0.6,0.0,0.0013277530670166016,0.002419710159301758,0
1.7923862934112549,-0.047803252935409546,-0.06978996098041534,-0.6015845537185669,0.21288535875972953,-0.5443619198928283,-0.018569458971414855,0.020586848944597853,-0.2657343491752597,0.0,0.0,-0.6,0.0,0.0015246868133544922,0.0027196407318115234,0
1.8002989292144775,-0.047803252935409546,-0.06978996098041534,-0.6015845537185669,0.21288535875972953,-0.5444205060078159,-0.018869755886573733,0.019973810619954506,-0.2658460539575802,0.0,0.0,-0.6,0.0,0.0019202232360839844,0.0030808448791503906,0
1.8116099834442139,-0.04829892888665199,-0.06935391575098038,-0.6033979654312134,0.21292116707656142,-0.5444584138181913,-0.021728973458027195,0.021616687938299673,-0.2659376754240166,0.0,0.0,-0.6,0.0,0.0019106864929199219,0.003055095672607422,0
1.821634292602539,-0.04852565750479698,-0.06913720071315765,-0.6042018532752991,0.21291903111572613,-0.5444079598684447,-0.022823594418826965,0.020640984083171738,-0.2660010094652088,0.0,0.0,-0.6,0.0,0.0014376640319824219,0.002577543258666992,0
1.8306541442871094,-0.048765454441308975,-0.06889782100915909,-0.6049810647964478,0.21301404907753085,-0.5444662610235075,-0.02572874345984534,0.016009543597384768,-0.26608097502972017,0.0,0.0,-0.6,0.0,0.0015683174133300781,0.0026824474334716797,0
1.841447353363037,-0.049218371510505676,-0.06840831786394119,-0.6063634157180786,0.21292364623620344,-0.5444858556653137,-0.025768408707609013,0.014554358691635223,-0.2661030498593804,0.0,0.0,-0.6,0.0,0.0017974376678466797,0.0030333995819091797,0
1.8505933284759521,-0.049218371510505676,-0.06840831786394119,-0.6063634157180786,0.21292364623620344,-0.5445023406790298,-0.02579807376841629,0.01356305643724491,-0.2661185022401428,0.0,0.0,-0.6,0.0,0.0017209053039550781,0.0032248497009277344,0
1.8613240718841553,-0.04944971576333046,-0.0681145116686821,-0.6071112155914307,0.21284766477388542,-0.5445490023295813,-0.025393366425326788,0.013250960259942325,-0.266100825858307,0.0,0.0,-0.6,0.0,0.0015909671783447266,0.0028917789459228516,0
1.8719453811645508,-0.0499141663312912,-0.06753381341695786,-0.6085999011993408,0.21262324076489572,-0.5446328402589102,-0.02953192507765949,0.011795231442842192,-0.2660042933876509,0.0,0.0,-0.6,0.0,0.0015594959259033203,0.0026025772094726562,0
1.8808245658874512,-0.0499141663312912,-0.06753381341695786,-0.6085999011993408,0.21262324076489572,-0.5446989976031101,-0.03237507381092834,0.010818000056792464,-0.2659367206581925,0.0,0.0,-0.6,0.0,0.001970052719116211,0.0033922195434570312,0
1.8912954330444336,-0.050134412944316864,-0.06720481067895889,-0.6093382239341736,0.21254698029435962,-0.5447351612496014,-0.036874973310497466,0.009695099534419686,-0.2658608220711197,0.0,0.0,-0.6,0.0,0.0016341209411621094,0.002542734146118164,0
1.9004716873168945,-0.050332434475421906,-0.06688403338193893,-0.6100673675537109,0.21243879597237503,-0.5447028306736074,-0.04119162156859513,0.007889866055469326,-0.26576712393942453,0.0,0.0,-0.6,0.0,0.001409769058227539,0.002497434616088867,0
1.9105401039123535,-0.05052805691957474,-0.06657134741544724,-0.610785186290741,0.21223068386007474,-0.5447172027634042,-0.04484312266146193,0.007495235128608641,-0.26562349320512535,0.0,0.0,-0.6,0.0,0.001875162124633789,0.00296783447265625,0
1.921360969543457,-0.05073003098368645,-0.06623932719230652,-0.6114816069602966,0.21208771878302932,-0.5446725357632957,-0.04559763012534648,0.010285158626565871,-0.26546933978722387,0.0,0.0,-0.6,0.0,0.0015976428985595703,0.0027120113372802734,0
1.9309406280517578,-0.05090072751045227,-0.06591004878282547,-0.6121854186058044,0.21189941017027905,-0.5445658501960909,-0.04472512131016127,0.013822563774344111,-0.26529081666490906,0.0,0.0,-0.6,0.0,0.0018935203552246094,0.0033757686614990234,0
1.9403493404388428,-0.051071468740701675,-0.0655936598777771,-0.6128988265991211,0.2117822444083581,-0.5445223798036658,-0.04298912913348483,0.015697259348799057,-0.2651219133185708,0.0,0.0,-0.6,0.0,0.0016710758209228516,0.0030143260955810547,0
1.9507522583007812,-0.05126442760229111,-0.0652560219168663,-0.6135958433151245,0.21167183233580705,-0.5445178590309201,-0.042582146956806254,0.01571535041177674,-0.2649622764489274,0.0,0.0,-0.6,0.0,0.0015146732330322266,0.0025899410247802734,0
1.960517406463623,-0.051436711102724075,-0.06489710509777069,-0.6142891049385071,0.2115131819235774,-0.5445398030018679,-0.042776525634325574,0.014510065522449184,-0.2647910367355909,0.0,0.0,-0.6,0.0,0.0017843246459960938,0.00274658203125,0
1.9709446430206299,-0.05174299329519272,-0.06419496983289719,-0.6156765222549438,0.21110726967983515,-0.5444886542113353,-0.043151959142800615,0.01432429922232523,-0.2645189518448521,0.0,0.0,-0.6,0.0,0.002156496047973633,0.003704071044921875,0
1.9807610511779785,-0.05174299329519272,-0.06419496983289719,-0.6156765222549438,0.21110726967983515,-0.5444479684907969,-0.04340306828013537,0.014186272703027488,-0.2643284924213348,0.0,0.0,-0.6,0.0,0.0013709068298339844,0.0026531219482421875,0
1.991027593612671,-0.05190734192728996,-0.06383658945560455,-0.6163318753242493,0.2109651830527047,-0.5444603802334745,-0.044252003345017346,0.016245407854984923,-0.2641418883396988,0.0,0.0,-0.6,0.0,0.001390218734741211,0.0024521350860595703,0
2.0003278255462646,-0.05207095667719841,-0.06349969655275345,-0.616978645324707,0.21067079757184703,-0.5444055125274968,-0.043673607731087236,0.018709434440244962,-0.26390087092723535,0.0,0.0,-0.6,0.0,0.001245737075805664,0.002265453338623047,0
2.011890411376953,-0.05224042758345604,-0.06317205727100372,-0.6176124811172485,0.21045806827131305,-0.5444798717762944,-0.04340699254239768,0.021015638158266604,-0.2636523852508074,0.0,0.0,-0.6,0.0,0.001554727554321289,0.0028595924377441406,0
2.0205166339874268,-0.05224042758345604,-0.06317205727100372,-0.6176124811172485,0.21045806827131305,-0.5445376814342006,-0.04323203733658937,0.022609517040049983,-0.26347844527730774,0.0,0.0,-0.6,0.0,0.0017926692962646484,0.0029685497283935547,0
2.031815528869629,-0.052678391337394714,-0.06206526607275009,-0.6194490194320679,0.20997702132695484,-0.5445718755264952,-0.03579046608414165,0.02328455890823511,-0.26317629469172377,0.0,0.0,-0.6,0.0,0.0019459724426269531,0.002995729446411133,0
2.0408267974853516,-0.052678391337394714,-0.06206526607275009,-0.6194490194320679,0.20997702132695484,-0.5445986454056552,-0.030704782723308302,0.023752164190636665,-0.26296478928181494,0.0,0.0,-0.6,0.0,0.0016129016876220703,0.002953767776489258,0
2.051276922225952,-0.052964117377996445,-0.06126214191317558,-0.620591938495636,0.20964865996493076,-0.5447111292747415,-0.029036617826211863,0.025654343667291125,-0.2626935999841198,0.0,0.0,-0.6,0.0,0.0013189315795898438,0.002290010452270508,0
2.0610597133636475,-0.052964117377996445,-0.06126214191317558,-0.620591938495636,0.20964865996493076,-0.5447998335493659,-0.027907434602218117,0.026979538767102608,-0.26250376747573306,0.0,0.0,-0.6,0.0,0.0017638206481933594,0.0028083324432373047,0
2.071342945098877,-0.05317987501621246,-0.06083119660615921,-0.6212231516838074,0.20918403703794727,-0.5448767166353489,-0.028476715851120746,0.030858744583039378,-0.26219665112224366,0.0,0.0,-0.6,0.0,0.0012500286102294922,0.0023000240325927734,0
2.0811665058135986,-0.05331587418913841,-0.06043365225195885,-0.6217396855354309,0.2088082797887511,-0.5449065861787266,-0.026449419041413173,0.03277142475283509,-0.2618407607063526,0.0,0.0,-0.6,0.0,0.0017094612121582031,0.002752065658569336,0
2.090545654296875,-0.053437743335962296,-0.06006448343396187,-0.6222474575042725,0.20856089062481578,-0.5449942193380801,-0.026206013959360463,0.03132610519545876,-0.2614988664787578,0.0,0.0,-0.6,0.0,0.0017094612121582031,0.002726316452026367,0
2.1012063026428223,-0.05357896909117699,-0.059635601937770844,-0.622816264629364,0.2081838755943536,-0.5451119154937437,-0.024890798461052136,0.03068772114987529,-0.26111815988301346,0.0,0.0,-0.6,0.0,0.0012788772583007812,0.002301931381225586,0
2.1107728481292725,-0.05368485301733017,-0.05927067995071411,-0.6232919096946716,0.20793084266690393,-0.5452467823232986,-0.025824497872496046,0.029995399968584576,-0.26075677791819873,0.0,0.0,-0.6,0.0,0.0016968250274658203,0.0029528141021728516,0
2.12127685546875,-0.05380191653966904,-0.05889684706926346,-0.6237303614616394,0.20761018524746389,-0.5453765801072996,-0.028420603295252717,0.028899277435648484,-0.2603835640105384,0.0,0.0,-0.6,0.0,0.001628875732421875,0.002942323684692383,0
2.130078077316284,-0.05380191653966904,-0.05889684706926346,-0.6237303614616394,0.20761018524746389,-0.5454800674568675,-0.030208178737759207,0.028176040929636107,-0.2601223142751761,0.0,0.0,-0.6,0.0,0.0013995170593261719,0.0028243064880371094,0
2.140058755874634,-0.053982675075531006,-0.058153532445430756,-0.624471127986908,0.20684066955021393,-0.545589847095741,-0.027839436435758005,0.0291938590564062,-0.2596508710739605,0.0,0.0,-0.6,0.0,0.0016329288482666016,0.0028769969940185547,0
2.1503684520721436,-0.05410372093319893,-0.057736802846193314,-0.624873161315918,0.20645165747909966,-0.545699592549792,-0.025585622357470996,0.030007389096894047,-0.2591749813064352,0.0,0.0,-0.6,0.0,0.0012736320495605469,0.002718210220336914,0
2.16005802154541,-0.05421061813831329,-0.057362549006938934,-0.6252760291099548,0.20607128797414756,-0.545636045348106,-0.02041625936200469,0.02852858690441717,-0.25869921990481703,0.0,0.0,-0.6,0.0,0.0022192001342773438,0.003370523452758789,0
2.170825242996216,-0.05432433262467384,-0.0569998174905777,-0.6256771087646484,0.20559044263785275,-0.5455994836802026,-0.017756421791065305,0.025154301359122708,-0.2581858699225672,0.0,0.0,-0.6,0.0,0.0013453960418701172,0.0023016929626464844,0
2.1804921627044678,-0.054492488503456116,-0.0563092902302742,-0.626400351524353,0.20466787985917875,-0.5456130573107313,-0.014954673552067744,0.022734262207704085,-0.2574805638929898,0.0,0.0,-0.6,0.0,0.0016002655029296875,0.0026226043701171875,0
2.191291093826294,-0.05456950142979622,-0.0559544563293457,-0.6267699599266052,0.2042856759932057,-0.5456939198483299,-0.012777122723323193,0.020975297418932823,-0.2568435232225456,0.0,0.0,-0.6,0.0,0.001596689224243164,0.0028014183044433594,0
2.200366497039795,-0.05456950142979622,-0.0559544563293457,-0.6267699599266052,0.2042856759932057,-0.5457594913802628,-0.011295214221448724,0.019786040699874306,-0.2563975947532407,0.0,0.0,-0.6,0.0,0.001459360122680664,0.002518892288208008,0
2.210731267929077,-0.05464734882116318,-0.0555291473865509,-0.6271845698356628,0.20358557817773743,-0.5458738290571797,-0.011474673225545889,0.01800683285361133,-0.2558229081439206,0.0,0.0,-0.6,0.0,0.0012700557708740234,0.0027561187744140625,0
2.2206575870513916,-0.054702047258615494,-0.05517689883708954,-0.6275471448898315,0.20323160366249177,-0.545917869225257,-0.009572779052793315,0.017242295178996118,-0.2552878870741794,0.0,0.0,-0.6,0.0,0.0015881061553955078,0.0026013851165771484,0
2.2309701442718506,-0.0547461174428463,-0.05481052026152611,-0.6278947591781616,0.20284787020294706,-0.5459533648090442,-0.008247166025908557,0.01583594706219448,-0.25476947227802405,0.0,0.0,-0.6,0.0,0.001367807388305664,0.002362966537475586,0
2.2404162883758545,-0.05480100214481354,-0.05443760007619858,-0.6282395124435425,0.2022640688539999,-0.5459835139940634,-0.0057802243743541384,0.01577784212824836,-0.25418765641486735,0.0,0.0,-0.6,0.0,0.0012331008911132812,0.0022132396697998047,0
2.249891757965088,-0.05483543127775192,-0.05398833006620407,-0.6286423206329346,0.201627062162806,-0.5460623078608725,-0.0022224567806973044,0.014638166686937425,-0.25354150780146,0.0,0.0,-0.6,0.0,0.0013494491577148438,0.0023093223571777344,0
2.2603631019592285,-0.05487311631441116,-0.05358332395553589,-0.6289548873901367,0.20119930095441513,-0.5461252974613943,0.0027738744424325944,0.014980911083307633,-0.2529287933189283,0.0,0.0,-0.6,0.0,0.0017285346984863281,0.002751588821411133,0
2.270569086074829,-0.05489419773221016,-0.0531773678958416,-0.629270076751709,0.20076678359784617,-0.5462031809809502,0.00707736717157143,0.0176258791307695,-0.2523376991724427,0.0,0.0,-0.6,0.0,0.001215219497680664,0.0021772384643554688,0
2.280512571334839,-0.05489419773221016,-0.0531773678958416,-0.629270076751709,0.20076678359784617,-0.5462645737184698,0.010014967414285224,0.019448606649383787,-0.2519239332699026,0.0,0.0,-0.6,0.0,0.0017976760864257812,0.0028121471405029297,0
2.2903270721435547,-0.05491483956575394,-0.052718181163072586,-0.6296484470367432,0.2000116205866972,-0.5462652189882442,0.009957670091788468,0.021314048287787782,-0.25135111100893587,0.0,0.0,-0.6,0.0,0.0014719963073730469,0.002518177032470703,0
2.3006069660186768,-0.0549192950129509,-0.05229523032903671,-0.6299732327461243,0.19963214501178386,-0.5461952562451519,0.01201152150853178,0.025048257060428528,-0.2508078320856746,0.0,0.0,-0.6,0.0,0.0018017292022705078,0.0028116703033447266,0
2.3107802867889404,-0.0549183115363121,-0.05187354236841202,-0.6303027868270874,0.19926515167776906,-0.5461502608043821,0.014045762623404035,0.027289611672520364,-0.2502899143391361,0.0,0.0,-0.6,0.0,0.0013995170593261719,0.0025680065155029297,0
2.3199880123138428,-0.05493100732564926,-0.051051992923021317,-0.6307879090309143,0.19834279442659153,-0.5462730618073846,0.013707685667626542,0.02635068476660662,-0.2495814879473776,0.0,0.0,-0.6,0.0,0.0012736320495605469,0.0026366710662841797,0
2.3307461738586426,-0.054944418370723724,-0.05060555413365364,-0.6310287714004517,0.1979127210967741,-0.5464320079574797,0.013685907852840306,0.025627387252350847,-0.24892431197445528,0.0,0.0,-0.6,0.0,0.0015382766723632812,0.0025877952575683594,0
2.34130597114563,-0.05495057255029678,-0.05017802491784096,-0.6312353014945984,0.197518057329032,-0.5465643391026024,0.015945079130676092,0.025498241771817216,-0.2483162898805063,0.0,0.0,-0.6,0.0,0.0013227462768554688,0.002290964126586914,0
2.3506555557250977,-0.05495714768767357,-0.04977020248770714,-0.6314453482627869,0.19710225857281427,-0.546684068066891,0.01701493838739344,0.024676133944881322,-0.24773474988116034,0.0,0.0,-0.6,0.0,0.000957489013671875,0.002875804901123047,0
2.3600165843963623,-0.05496503785252571,-0.04941517114639282,-0.6316120624542236,0.19658772997437438,-0.5468287290114728,0.017003936926065003,0.025054343927868455,-0.2471347236572032,0.0,0.0,-0.6,0.0,0.0012428760528564453,0.003160715103149414,0
2.370771646499634,-0.05497530847787857,-0.04901799559593201,-0.6317890882492065,0.1960079572956904,-0.5469056428041161,0.01925857665801627,0.023883944620338254,-0.24649729054592676,0.0,0.0,-0.6,0.0,0.001262664794921875,0.002218008041381836,0
2.3798813819885254,-0.05498163402080536,-0.04862690344452858,-0.6319721341133118,0.19552548475581394,-0.5470484353549838,0.017488404232645128,0.023973821570240913,-0.24587016016557958,0.0,0.0,-0.6,0.0,0.0017158985137939453,0.00272369384765625,0
2.3906376361846924,-0.05498163402080536,-0.04862690344452858,-0.6319721341133118,0.19552548475581394,-0.5471613860422536,0.01626258195528112,0.02406253597671129,-0.24543116889933636,0.0,0.0,-0.6,0.0,0.0016968250274658203,0.002790212631225586,0
2.400033950805664,-0.05500585585832596,-0.04785953462123871,-0.632305383682251,0.19438724818973196,-0.5471680915631708,0.013926519132095342,0.020561843060968407,-0.24469703630068568,0.0,0.0,-0.6,0.0,0.0013344287872314453,0.0026619434356689453,0
2.411506414413452,-0.054999176412820816,-0.047446489334106445,-0.6324779987335205,0.19390303971910594,-0.5472272514957849,0.009382490011444452,0.01925185447574982,-0.2440015653051454,0.0,0.0,-0.6,0.0,0.0012807846069335938,0.0021867752075195312,0
2.42065167427063,-0.05499370023608208,-0.04703463241457939,-0.632638692855835,0.1931711129247749,-0.5472473968260836,0.0076863816656571795,0.021503354845909917,-0.24324026306039315,0.0,0.0,-0.6,0.0,0.0016963481903076172,0.0029337406158447266,0
2.43145489692688,-0.05498082935810089,-0.04664259031414986,-0.6327943205833435,0.1926119142211198,-0.5472552138374107,0.0059454810270756575,0.025129121563982927,-0.24249765197519588,0.0,0.0,-0.6,0.0,0.0015938282012939453,0.0027976036071777344,0
2.440751791000366,-0.054975368082523346,-0.046244364231824875,-0.632969319820404,0.1919677596725096,-0.5471935524450934,0.005796466255458646,0.02813204164715767,-0.24173626625982897,0.0,0.0,-0.6,0.0,0.0016181468963623047,0.002561807632446289,0
2.450129985809326,-0.054938171058893204,-0.04585102200508118,-0.6331498026847839,0.19140564397308377,-0.5470941780617397,0.00787387227229425,0.028994576927059888,-0.24099250287178742,0.0,0.0,-0.6,0.0,0.001664876937866211,0.002651214599609375,0
2.460524320602417,-0.05487434193491936,-0.04547811299562454,-0.6333416700363159,0.19083721611350934,-0.5470801341639827,0.007523458435763617,0.02718462078438194,-0.24025870805281793,0.0,0.0,-0.6,0.0,0.001544952392578125,0.0025293827056884766,0
2.470468282699585,-0.05481487140059471,-0.045112159103155136,-0.6335201263427734,0.19013539121017994,-0.5470881685363707,0.005803563898130509,0.024000659889119643,-0.2394818673407908,0.0,0.0,-0.6,0.0,0.0017316341400146484,0.0026886463165283203,0
2.480536699295044,-0.05475105717778206,-0.04474567249417305,-0.6337001323699951,0.18953376650267356,-0.5470806198206993,0.002671939058560951,0.022687895926227004,-0.2387124695770569,0.0,0.0,-0.6,0.0,0.001245260238647461,0.002408742904663086,0
2.4905757904052734,-0.05465167388319969,-0.04438966512680054,-0.6338945627212524,0.18900431763034498,-0.5470431603275501,0.0009509713511962952,0.02510982858152656,-0.23797534781531995,0.0,0.0,-0.6,0.0,0.001588582992553711,0.002567768096923828,0
2.501084566116333,-0.05454477295279503,-0.04406803473830223,-0.6340821385383606,0.18839917225460642,-0.5470285356163501,-0.0007339836008967986,0.02985791265707942,-0.23723243306620212,0.0,0.0,-0.6,0.0,0.00141143798828125,0.002394437789916992,0
2.5112078189849854,-0.054460618644952774,-0.04374905675649643,-0.6342454552650452,0.18776424325072869,-0.5470500066784687,-0.0016565743490920787,0.034126085638688554,-0.23647429436536552,0.0,0.0,-0.6,0.0,0.0012810230255126953,0.0023300647735595703,0
2.52053165435791,-0.05438420921564102,-0.04343775659799576,-0.6343975067138672,0.18723365187835575,-0.5470498957217085,-0.0011275148509792391,0.03834399342665204,-0.23574462551014,0.0,0.0,-0.6,0.0,0.001791238784790039,0.002900838851928711,0
2.530273914337158,-0.054294273257255554,-0.043126799166202545,-0.6345545649528503,0.18651509032620203,-0.546980321846641,0.001180460595172398,0.0406879163059797,-0.23496439672942454,0.0,0.0,-0.6,0.0,0.0013723373413085938,0.0029282569885253906,0
2.5407960414886475,-0.05419417470693588,-0.0428311824798584,-0.6347092986106873,0.18587849512251242,-0.546971157184794,0.003907127135835477,0.04045763048851845,-0.2341795133815401,0.0,0.0,-0.6,0.0,0.0016236305236816406,0.002920866012573242,0
2.550503969192505,-0.05409886687994003,-0.04251156374812126,-0.6348384022712708,0.18532572917134124,-0.5469883447882746,0.006542921228440703,0.03926571459163252,-0.2334228078063318,0.0,0.0,-0.6,0.0,0.0013668537139892578,0.0025634765625,0
2.5606892108917236,-0.054000090807676315,-0.042200248688459396,-0.6349453330039978,0.184775966898025,-0.5470890698839703,0.007006239595308075,0.03933309702558677,-0.23268695305119236,0.0,0.0,-0.6,0.0,0.0016200542449951172,0.002628326416015625,0
2.5708556175231934,-0.053879547864198685,-0.04188257455825806,-0.6350685954093933,0.18423721139124735,-0.547134599614536,0.0068507237381549594,0.04045696820283974,-0.23196982140755312,0.0,0.0,-0.6,0.0,0.0017406940460205078,0.002820253372192383,0
2.5807418823242188,-0.053762976080179214,-0.04157760739326477,-0.6351906657218933,0.18377407985685887,-0.547256857432204,0.003364508865793833,0.039935377318345115,-0.23129415493160993,0.0,0.0,-0.6,0.0,0.0012276172637939453,0.002369403839111328,0
